IKN_addr,general_med,general_chip,pediatric_med,pediatric_chip,specialist_med,specialist_chip,hygienist_for_general_med,hygienist_for_general_chip,hygienist_for_pediatric_med,hygienist_for_pediatric_chip,Y_lat_med,X_long_med,Y_lat_chip,X_long_chip,med_indicator_med,chip_indicator_med,med_indicator_chip,chip_indicator_chip
"1 CLINIC DR,BOYS RANCH,TX,79010-0009",1.0,0.5,0.0,0.0,0.0,0.0,2.0,1.0,0.0,0.0,35.53548,-102.288131,35.53548,-102.288131,1,0,0,1
"1 EUREKA CIR STE 103,WICHITA FALLS,TX,76308-2929",1.125,0.1,1.0,0.16666666666666666,0.0,0.3666666666666667,2.25,0.2,2.0,0.3333333333333333,33.86981247,-98.52626162,33.86981247,-98.52626162,1,0,0,1
"1 PROFESSIONAL PARK DR,WEBSTER,TX,77598-4123",0.0,0.0,1.0,1.0,0.0,0.0,0.0,0.0,2.0,2.0,29.54598467,-95.12776070000001,29.54598467,-95.12776070000001,1,0,0,1
"100 CARLOS G PARKER BLVD NW STE 110,TAYLOR,TX,76574-7059",3.5414682539682545,1.2854807028720072,0.0,0.0,0.0,0.0,7.082936507936509,2.5709614057440144,0.0,0.0,30.60076252,-97.41798949,30.60076252,-97.41798949,1,0,0,1
"100 E EBONY LN,EDINBURG,TX,78539-5648",1.4333333333333331,0.5,0.0,0.0,0.0,0.0,2.8666666666666663,1.0,0.0,0.0,26.29048017,-98.16348914,26.29048017,-98.16348914,1,0,0,1
"100 E PECAN BLVD,MCALLEN,TX,78501-9555",0.5,0.0,0.0,0.0,0.3333333333333333,0.3333333333333333,1.0,0.0,0.0,0.0,26.21643767,-98.21603376,26.21643767,-98.21603376,1,0,0,1
"100 FORREST TER,MARSHALL,TX,75670-6804",1.0476190476190477,1.5416666666666663,0.0,0.0,0.0,0.0,2.095238095238096,3.0833333333333326,0.0,0.0,32.52800026,-94.37042982,32.52800026,-94.37042982,1,0,0,1
"100 KINGS FORT PKWY STE 100,KAUFMAN,TX,75142-3544",2.0587662337662342,0.4194444444444445,0.5284090909090909,0.9817922817922818,0.0,0.14285714285714285,4.1175324675324685,0.8388888888888891,1.056818181818182,1.963584563584564,32.57145415,-96.31060583,32.57145415,-96.31060583,1,0,0,1
"100 MEDICAL CENTER BLVD STE 109,CONROE,TX,77304-2821",1.5555555555555556,1.05,0.045454545454545456,0.0,0.0,0.0,3.111111111111111,2.1,0.09090909090909093,0.0,30.28791773,-95.46293517,30.28791773,-95.46293517,1,0,0,1
"100 MEDICAL CENTER BLVD STE 110,CONROE,TX,77304-2821",1.5055555555555555,0.8666666666666667,0.0,0.0,0.0,1.0,3.011111111111111,1.7333333333333334,0.0,0.0,30.28791773,-95.46293517,30.28791773,-95.46293517,1,0,0,1
"100 S AMERICAS AVE,EL PASO,TX,79907-6901",0.75,0.7,1.0,0.0,0.0,0.0,1.5,1.4,2.0,0.0,31.67964865,-106.3128893,31.67964865,-106.3128893,1,0,0,1
"100 S MAIN ST,LA FERIA,TX,78559-5005",2.2,0.3333333333333333,0.0,0.0,0.0,0.0,4.4,0.6666666666666666,0.0,0.0,26.15767679,-97.8240583,26.15767679,-97.8240583,1,0,0,1
"100 SAN ELIZARIO RD STE M,CLINT,TX,79836-6738",0.3333333333333333,1.2909090909090908,0.0,0.0,0.0,0.0,0.6666666666666666,2.5818181818181816,0.0,0.0,31.58721942,-106.23092369999999,31.58721942,-106.23092369999999,1,0,0,1
"100 WOLFE NURSERY RD STE 180,STEPHENVILLE,TX,76401-3767",2.585752740775624,2.5676464260555325,1.0,0.0,0.0,0.0,5.171505481551248,5.135292852111065,2.0,0.0,32.20490577,-98.23868063,32.20490577,-98.23868063,1,0,0,1
"1000 E ELDORADO PKWY STE 130,LITTLE ELM,TX,75068-6475",1.6761904761904762,0.25,0.0,0.0,0.0,0.0,3.3523809523809525,0.5,0.0,0.0,33.1688445,-96.92355905,33.1688445,-96.92355905,1,0,0,1
"1000 N FIELDER RD,ARLINGTON,TX,76012-3149",1.0,0.0,1.0,0.5,0.0,0.0,2.0,0.0,2.0,1.0,32.748489,-97.1317542,32.748489,-97.1317542,1,0,0,1
"1000 N MIDKIFF RD STE 6B,MIDLAND,TX,79701-2133",1.1222095708155868,8.769580363320436,0.0,0.5787878787878789,0.0,0.20202020202020204,2.2444191416311736,17.539160726640873,0.0,1.1575757575757577,32.00029409,-102.118602,32.00029409,-102.118602,1,0,0,1
"1000 N MIDKIFF RD STE B-6,MIDLAND,TX,79701-2101",2.605274118625732,3.455014101846672,0.18253968253968253,0.2715437788018433,0.029411764705882363,0.05689102564102564,5.210548237251464,6.910028203693344,0.36507936507936506,0.5430875576036867,32.00029409,-102.118602,32.00029409,-102.118602,1,0,0,1
"1000 W ROSEMEADE PKWY STE 100,CARROLLTON,TX,75007-6222",1.4677206851119895,0.08712121212121213,1.0,0.0,0.0,0.0,2.9354413702239786,0.17424242424242425,2.0,0.0,33.01134418,-96.9118112,33.01134418,-96.9118112,1,0,0,1
"10000 HARWIN DR STE A,HOUSTON,TX,77036-1671",3.0,4.25,0.0,0.0,0.0,0.0,6.0,8.5,0.0,0.0,29.71782026,-95.53998693,29.71782026,-95.53998693,1,0,0,1
"10001 S INTERSTATE 35 STE 350,AUSTIN,TX,78747-1705",1.0,0.07142857142857142,0.07142857142857142,0.047619047619047616,0.5333333333333333,1.0055555555555555,2.0,0.14285714285714285,0.14285714285714285,0.09523809523809523,30.15627679,-97.79022066,30.15627679,-97.79022066,1,0,0,1
"10003 NW MILITARY HWY STE 3201,SAN ANTONIO,TX,78231-1892",0.5333333333333333,0.6527777777777778,0.125,0.0,0.0,0.0,1.0666666666666669,1.3055555555555556,0.25,0.0,29.55486019,-98.53394016,29.55486019,-98.53394016,1,0,0,1
"10009 N LAMAR BLVD STE C,AUSTIN,TX,78753-4117",1.0,2.9577922077922083,0.0,0.0,0.0,0.0,2.0,5.9155844155844175,0.0,0.0,30.37002151,-97.69308563,30.37002151,-97.69308563,1,0,0,1
"1001 E MILAM ST,MEXIA,TX,76667-2502",3.0769230769230766,2.327380952380953,0.0,0.0,0.2,0.0,6.1538461538461515,4.654761904761906,0.0,0.0,31.68480495,-96.47124737,31.68480495,-96.47124737,1,0,0,1
"1001 HIGHLAND PARK AVE STE G,MISSION,TX,78572-4468",1.41025641025641,0.8333333333333333,0.0,0.0,0.0,0.0,2.82051282051282,1.6666666666666663,0.0,0.0,26.21458135,-98.31365209,26.21458135,-98.31365209,1,0,0,1
"1001 NE GREEN OAKS BLVD STE 129,ARLINGTON,TX,76006-2300",1.0,0.8333333333333333,0.0,0.0,0.0,0.0,2.0,1.6666666666666663,0.0,0.0,32.78466745,-97.09434039,32.78466745,-97.09434039,1,0,0,1
"1001 S 10TH ST STE S,MCALLEN,TX,78501-5045",0.7160159285159284,3.195801341492666,0.0,0.08333333333333333,0.056547619047619034,0.5506756756756757,1.4320318570318569,6.391602682985332,0.0,0.16666666666666666,26.19391414,-98.23164136,26.19391414,-98.23164136,1,0,0,1
"1001 S 10TH ST,MCALLEN,TX,78501-5049",0.7091123003193942,0.5,0.03225806451612903,0.0,0.15357142857142858,0.0,1.4182246006387884,1.0,0.06451612903225806,0.0,26.19391414,-98.23164136,26.19391414,-98.23164136,1,0,0,1
"1001 S EGRET BAY BLVD STE 201,LEAGUE CITY,TX,77573-6016",0.125,0.125,0.0,0.0,0.0,0.0,0.25,0.25,0.0,0.0,29.51378096,-95.07190997,29.51378096,-95.07190997,1,0,0,1
"1001 W HILDEBRAND AVE,SAN ANTONIO,TX,78201-4609",1.2380952380952381,2.1388888888888893,1.0,0.0,0.0,0.0,2.4761904761904763,4.2777777777777795,2.0,0.0,29.466483500000002,-98.50976099,29.466483500000002,-98.50976099,1,0,0,1
"10017 MONROE DR,DALLAS,TX,75229-5704",1.1130952380952381,0.06797235023041474,0.16666666666666666,0.03333333333333333,0.0,0.0,2.2261904761904763,0.1359447004608295,0.3333333333333333,0.06666666666666668,32.881743,-96.8783427,32.881743,-96.8783427,1,0,0,1
"10019 MAIN ST STE A6,HOUSTON,TX,77025-5257",1.0,0.14285714285714285,0.0,0.0,0.0,0.0,2.0,0.2857142857142857,0.0,0.0,29.67602009,-95.42873006,29.67602009,-95.42873006,1,0,0,1
"1002 N LOOP 336 W,CONROE,TX,77301-1154",3.983333333333333,0.7291316526610643,0.0,0.0,0.0,0.0,7.966666666666666,1.4582633053221286,0.0,0.0,30.33538694,-95.47082718,30.33538694,-95.47082718,1,0,0,1
"1002 W BROWN ST,HEARNE,TX,77859-3063",0.4761904761904762,0.5,0.5,0.0,0.0,0.0,0.9523809523809524,1.0,1.0,0.0,30.87189882,-96.59972420000001,30.87189882,-96.59972420000001,1,0,0,1
"10025 LAKE JUNE RD,DALLAS,TX,75217-3041",2.6698992673992668,5.063136141551787,0.0,0.0,0.0,1.1111111111111112,5.3397985347985335,10.126272283103576,0.0,0.0,32.73419352,-96.65113049,32.73419352,-96.65113049,1,0,0,1
"10039 DYER ST,EL PASO,TX,79924-4136",2.1666666666666665,1.5102564102564102,0.0,0.0,0.0,0.0,4.333333333333333,3.0205128205128204,0.0,0.0,31.90115201,-106.40760590000001,31.90115201,-106.40760590000001,1,0,0,1
"1004 N TEXAS BLVD STE B-1,WESLACO,TX,78596-4511",2.490128414280319,3.6752813247857814,0.09090909090909093,0.3813186813186813,0.029411764705882363,0.02564102564102564,4.980256828560638,7.350562649571563,0.18181818181818185,0.7626373626373626,26.17160458,-97.99088034,26.17160458,-97.99088034,1,0,0,1
"1004 N TEXAS BLVD STE B1,WESLACO,TX,78596-4511",0.3698292458265664,7.270824208539133,0.0,0.5893387314439946,0.0,0.17424242424242425,0.7396584916531328,14.541648417078266,0.0,1.1786774628879892,26.17160458,-97.99088034,26.17160458,-97.99088034,1,0,0,1
"1005 N 16TH ST,LAMESA,TX,79331-3151",3.0,0.6309523809523809,0.0,0.0,0.0,0.0,6.0,1.261904761904762,0.0,0.0,32.74555892,-101.9643045,32.74555892,-101.9643045,1,0,0,1
"1005 W 38TH ST STE 200,AUSTIN,TX,78705-1042",0.0,0.0,0.2,0.16666666666666666,0.0,0.0,0.0,0.0,0.4,0.3333333333333333,30.30517945,-97.74318483,30.30517945,-97.74318483,1,0,0,1
"10058 LONG POINT RD,HOUSTON,TX,77055-4002",3.47198417079996,2.0919636700851663,0.0,0.0,0.17142857142857146,0.14,6.94396834159992,4.1839273401703325,0.0,0.0,29.79432017,-95.54247887,29.79432017,-95.54247887,1,0,0,1
"1006 HOBBS HWY,SEMINOLE,TX,79360-3322",2.0,2.0,0.0,0.0,0.0,0.0,4.0,4.0,0.0,0.0,32.72022168,-102.655923,32.72022168,-102.655923,1,0,0,1
"1006 N WELLS ST,EDNA,TX,77957-2153",2.477027027027027,1.7130952380952382,0.0,0.0,0.0,0.0,4.954054054054054,3.4261904761904765,0.0,0.0,28.98907121,-96.65114034,28.98907121,-96.65114034,1,0,0,1
"10065 ALMEDA GENOA RD STE J,HOUSTON,TX,77075-2417",0.07692307692307693,0.0,1.0,0.1,0.0,0.0,0.15384615384615385,0.0,2.0,0.2,29.62774799,-95.23530922,29.62774799,-95.23530922,1,0,0,1
"10065 ALMEDA GENOA RD,HOUSTON,TX,77075-2417",0.07692307692307693,0.05263157894736842,1.0333333333333334,0.0,0.0,0.0,0.15384615384615385,0.10526315789473684,2.066666666666667,0.0,29.62774799,-95.23530922,29.62774799,-95.23530922,1,0,0,1
"1007 S MAYS ST,ROUND ROCK,TX,78664-6725",1.0,0.3333333333333333,0.0,0.0,0.0,0.0,2.0,0.6666666666666666,0.0,0.0,30.49969556,-97.6760287,30.49969556,-97.6760287,1,0,0,1
"1008 RANCH ROAD 620 S STE 201,LAKEWAY,TX,78734-5633",0.0,0.7769673738713986,0.375,1.1560929266811621,0.0,1.125,0.0,1.5539347477427972,0.75,2.3121858533623243,30.35338205,-97.96200812,30.35338205,-97.96200812,1,0,0,1
"1009 E SEMINARY DR,FORT WORTH,TX,76115-2735",4.6203172919272,4.524994006334591,0.17511520737327188,0.11793611793611795,0.22702702702702704,0.2865029606408917,9.2406345838544,9.049988012669182,0.35023041474654376,0.2358722358722359,32.68438251,-97.3169015,32.68438251,-97.3169015,1,0,0,1
"1009 SW ALSBURY BLVD,BURLESON,TX,76028-4081",2.0052777777777777,1.0958444333444333,0.3477124183006536,0.8588596044478396,0.0,0.0,4.010555555555555,2.1916888666888665,0.6954248366013072,1.7177192088956792,32.54231489,-97.35685725,32.54231489,-97.35685725,1,0,0,1
"101 AVENUE F N,BAY CITY,TX,77414-3167",0.5,0.2384370015948964,0.0,0.0,0.0,0.0,1.0,0.4768740031897928,0.0,0.0,29.00337318,-95.97229133,29.00337318,-95.97229133,1,0,0,1
"101 E HIGH ST,TERRELL,TX,75160-2644",1.0,1.0,0.0,0.0,0.0,0.0,2.0,2.0,0.0,0.0,32.7383204,-96.27661871,32.7383204,-96.27661871,1,0,0,1
"101 E RANDOL MILL RD STE 107,ARLINGTON,TX,76011-5800",1.0,0.5,1.0,0.0,0.0,0.0,2.0,1.0,2.0,0.0,32.750111499999996,-97.1061435,32.7501115,-97.1061435,1,0,0,1
"101 E SOUTHWEST PKWY STE 103,LEWISVILLE,TX,75067-8753",0.25,0.16666666666666666,0.0,0.0,0.0,0.0,0.5,0.3333333333333333,0.0,0.0,33.01918348,-96.99254074,33.01918348,-96.99254074,1,0,0,1
"101 JUNIORS PL,LA VERNIA,TX,78121-4886",1.0,0.0,1.0,1.0,0.0,0.0,2.0,0.0,2.0,2.0,29.35261769,-98.13256956,29.35261769,-98.13256956,1,0,0,1
"101 N ERMA AVE,PRESIDIO,TX,79845-4466",0.8333333333333333,0.2909090909090909,0.0,0.0,0.0,0.0,1.6666666666666663,0.5818181818181818,0.0,0.0,29.58704452,-104.36832109999999,29.58704452,-104.36832109999999,1,0,0,1
"101 NW RENFRO ST STE 106,BURLESON,TX,76028-4178",0.5,0.5,0.0,0.0,0.0,0.0,1.0,1.0,0.0,0.0,32.54309559,-97.32506908,32.54309559,-97.32506908,1,0,0,1
"101 PARKING WAY ST STE B,LAKE JACKSON,TX,77566-5220",3.0769230769230766,1.125,0.0,0.0,0.0,0.0,6.1538461538461515,2.25,0.0,0.0,29.03937318,-95.44886951,29.03937318,-95.44886951,1,0,0,1
"101 S COIT RD STE 34,RICHARDSON,TX,75080-5746",2.0,1.0,0.0,0.0,0.0,0.0,4.0,2.0,0.0,0.0,32.94940445,-96.76881076,32.94940445,-96.76881076,1,0,0,1
"101 SEAGRAVES RD,BROWNFIELD,TX,79316-5447",2.9261904761904765,1.2575757575757576,0.0,0.0,0.0,0.0,5.852380952380952,2.515151515151515,0.0,0.0,33.17362064,-102.2757708,33.17362064,-102.2757708,1,0,0,1
"101 W SPRING CREEK PKWY STE 732,PLANO,TX,75023-4631",2.5,0.5,0.023809523809523808,0.020408163265306117,0.3666666666666665,0.038461538461538464,5.0,1.0,0.047619047619047616,0.040816326530612235,33.05745548,-96.69477267,33.05745548,-96.69477267,1,0,0,1
"101 WILSON DR STE 107,FLORESVILLE,TX,78114-2854",1.1428571428571428,0.06666666666666668,0.0,0.0,0.0,0.0,2.2857142857142856,0.13333333333333336,0.0,0.0,29.16215713,-98.17548951,29.16215713,-98.17548951,1,0,0,1
"1010 W AUDIE MURPHY PKWY,FARMERSVILLE,TX,75442-2523",1.0,1.0,0.0,0.0,0.0,0.0,2.0,2.0,0.0,0.0,33.1577953,-96.37500751,33.1577953,-96.37500751,1,0,0,1
"10100 BEECHNUT ST STE 110,HOUSTON,TX,77072-5042",1.0,0.5,0.0,0.0,0.0,0.0,2.0,1.0,0.0,0.0,29.68976232,-95.55909709999999,29.68976232,-95.55909709999999,1,0,0,1
"1011 E ENNIS AVE STE A,ENNIS,TX,75119-4352",0.16666666666666666,5.295833333333333,0.0,0.0,0.0,0.0,0.3333333333333333,10.591666666666667,0.0,0.0,32.3326256,-96.61753629,32.3326256,-96.61753629,1,0,0,1
"1011 N HIGHWAY 77 STE 105,WAXAHACHIE,TX,75165-1798",4.019047619047618,3.009600557394675,0.0,0.0,0.2,0.3666666666666667,8.038095238095236,6.01920111478935,0.0,0.0,32.41439996,-96.84142601,32.41439996,-96.84142601,1,0,0,1
"10118 GRANT RD,HOUSTON,TX,77070-4508",1.0,0.1,0.0,0.0,0.0,0.0,2.0,0.2,0.0,0.0,29.96738542,-95.56928063,29.96738542,-95.56928063,1,0,0,1
"1012 BAYBROOK MALL,FRIENDSWOOD,TX,77546-2744",0.75,4.775959171547408,0.0,0.0,0.0,0.0,1.5,9.551918343094815,0.0,0.0,29.53971051,-95.14936992,29.53971051,-95.14936992,1,0,0,1
"1012 E ENNIS AVE STE C,ENNIS,TX,75119-4350",2.362760733418628,5.142875937922975,0.0,0.05555555555555555,0.0,0.4233100233100233,4.725521466837256,10.28575187584595,0.0,0.1111111111111111,32.33293982,-96.61730111,32.33293982,-96.61730111,1,0,0,1
"1012 E ENNIS AVE,ENNIS,TX,75119-4345",0.5545805357876297,0.2470238095238095,0.0,0.0,0.0,0.0,1.1091610715752591,0.49404761904761896,0.0,0.0,32.33293982,-96.61730111,32.33293982,-96.61730111,1,0,0,1
"10123 LOUETTA RD STE 900,HOUSTON,TX,77070-2190",1.4105680868838764,1.5048061973680418,0.0,0.06623931623931624,0.12142857142857146,0.2467948717948717,2.8211361737677527,3.009612394736084,0.0,0.13247863247863248,30.00053952,-95.56081925,30.00053952,-95.56081925,1,0,0,1
"10128 HAMMERLY BLVD,HOUSTON,TX,77080-5010",3.3547008547008548,2.3583333333333334,0.0,0.0,0.07142857142857142,0.05263157894736842,6.7094017094017095,4.716666666666667,0.0,0.0,29.8128127,-95.54349468,29.8128127,-95.54349468,1,0,0,1
"1013 DAIRY ASHFORD RD,HOUSTON,TX,77079-4602",1.7376373626373631,1.887301587301588,0.0,0.0,0.0,0.0,3.4752747252747263,3.774603174603176,0.0,0.0,29.77829941,-95.60649419,29.77829941,-95.60649419,1,0,0,1
"1013 W UNIVERSITY AVE STE 345,GEORGETOWN,TX,78628-5345",3.7982558139534883,0.3333333333333333,0.0,0.0,0.0,0.3333333333333333,7.596511627906978,0.6666666666666666,0.0,0.0,30.63292248,-97.69580974,30.63292248,-97.69580974,1,0,0,1
"10134 S HIGHWAY 6,SUGAR LAND,TX,77498-4938",1.3125,0.11490683229813665,0.0,0.0,0.0,0.0,2.625,0.2298136645962733,0.0,0.0,29.66717352,-95.64330047,29.66717352,-95.64330047,1,0,0,1
"10139 HAMMERLY BLVD,HOUSTON,TX,77080-5014",2.0357142857142856,0.3666666666666665,0.0,0.0,0.0,0.0,4.071428571428571,0.733333333333333,0.0,0.0,29.81260149,-95.54402249,29.81260149,-95.54402249,1,0,0,1
"1015 E HENRIETTA AVE,KINGSVILLE,TX,78363-4733",1.65,1.6666666666666663,0.0,0.0,0.0,0.0,3.3,3.3333333333333326,0.0,0.0,27.51886052,-97.85567216,27.51886052,-97.85567216,1,0,0,1
"1015 E IRVING BLVD,IRVING,TX,75060-4350",1.6011904761904765,1.0766233766233766,0.0,0.0,0.0,0.0,3.202380952380953,2.153246753246753,0.0,0.0,32.81108413,-96.9331882,32.81108413,-96.9331882,1,0,0,1
"1015 W 34TH ST,AUSTIN,TX,78705-2008",2.8123015873015875,1.6896297115337362,1.8456709956709958,0.7076080781963136,0.16666666666666666,0.18055555555555555,5.624603174603175,3.3792594230674724,3.6913419913419916,1.415216156392627,30.30304672,-97.74552505,30.30304672,-97.74552505,1,0,0,1
"1017 E TRINITY MILLS RD STE 102,CARROLLTON,TX,75006-1458",0.6666666666666666,1.0,0.0,0.0,0.0,0.0,1.3333333333333333,2.0,0.0,0.0,32.98382749,-96.90874198,32.98382749,-96.90874198,1,0,0,1
"1017 FORT WORTH ST STE 100,GRAND PRAIRIE,TX,75050-5404",3.296460892049127,1.414492336292117,0.0,0.0,0.14285714285714285,0.06666666666666668,6.592921784098254,2.828984672584234,0.0,0.0,32.74322251,-97.01774002,32.74322251,-97.01774002,1,0,0,1
"1017 W MAIN ST,TOMBALL,TX,77375-5525",0.0,0.0,0.0,0.0,0.5,0.3333333333333333,0.0,0.0,0.0,0.0,30.09278151,-95.62543651,30.09278151,-95.62543651,1,0,0,1
"10175 GATEWAY BLVD W STE 304,EL PASO,TX,79925-7618",0.5,0.0,0.0,0.0,1.0,0.5,1.0,0.0,0.0,0.0,31.75727335,-106.352166,31.75727335,-106.352166,1,0,0,1
"1018 FABENS RD,FABENS,TX,79838",2.418693693693694,0.4777777777777778,0.0,0.0,1.0,0.0,4.837387387387388,0.9555555555555556,0.0,0.0,31.50814143,-106.15114390000001,31.50814143,-106.15114390000001,1,0,0,1
"1018 N ZANG BLVD STE 150,DALLAS,TX,75208-4141",0.5,0.5,0.0,0.0,0.0,0.0,1.0,1.0,0.0,0.0,32.75527631,-96.82350844,32.75527631,-96.82350844,1,0,0,1
"10185 WESTVIEW DR,HOUSTON,TX,77043-4401",3.015151515151515,1.5,0.0,0.0,0.07142857142857142,0.165,6.03030303030303,3.0,0.0,0.0,29.79073452,-95.54868972,29.79073452,-95.54868972,1,0,0,1
"102 BABCOCK RD STE 101,SAN ANTONIO,TX,78201-3960",3.208333333333333,2.119047619047619,0.0,0.0,0.0,0.0,6.416666666666666,4.238095238095238,0.0,0.0,29.47202976,-98.5341445,29.47202976,-98.5341445,1,0,0,1
"102 N 7TH ST,ALPINE,TX,79830-4606",0.3333333333333333,0.5,0.0,0.0,0.0,0.0,0.6666666666666666,1.0,0.0,0.0,30.36658944,-103.6679184,30.36658944,-103.6679184,1,0,0,1
"102 PALO ALTO RD STE 400,SAN ANTONIO,TX,78211-3793",1.0833333333333333,0.0,0.7,0.6666666666666666,0.0,0.0,2.1666666666666665,0.0,1.4,1.3333333333333333,29.35344499,-98.55224301,29.35344499,-98.55224301,1,0,0,1
"102 W EL DORADO BLVD STE C1,FRIENDSWOOD,TX,77546-6516",2.166666666666667,1.7596491228070177,0.0,0.0,1.5,1.0,4.333333333333334,3.5192982456140363,0.0,0.0,29.551767699999996,-95.15659392,29.551767699999996,-95.15659392,1,0,0,1
"1020 FLOWER MOUND RD STE 110,FLOWER MOUND,TX,75028-3440",2.0,0.5833333333333333,0.0,0.0,0.0,0.0,4.0,1.1666666666666663,0.0,0.0,33.01036198,-97.04409578,33.01036198,-97.04409578,1,0,0,1
"10200 BOULDER LN STE 300,AUSTIN,TX,78726-1889",1.5666666666666669,0.05555555555555555,0.0,0.0,0.0,0.0,3.1333333333333337,0.1111111111111111,0.0,0.0,30.42850045,-97.8420898,30.42850045,-97.8420898,1,0,0,1
"1021 SW 3RD ST,GRAND PRAIRIE,TX,75051-3070",1.5,0.16666666666666666,0.0,0.0,0.0,0.0,3.0,0.3333333333333333,0.0,0.0,32.73258613,-97.00584081,32.73258613,-97.00584081,1,0,0,1
"10210 SCYENE RD,DALLAS,TX,75227-4930",2.0,1.0,0.0,0.0,0.0,0.0,4.0,2.0,0.0,0.0,32.76221649,-96.64738952,32.76221649,-96.64738952,1,0,0,1
"10215 SCYENE RD,DALLAS,TX,75227-4931",1.0018115942028984,1.722222222222222,0.0,0.0,0.0,0.0,2.003623188405797,3.444444444444444,0.0,0.0,32.76241047,-96.64735347,32.76241047,-96.64735347,1,0,0,1
"10216 BEECHNUT ST,HOUSTON,TX,77072-5016",3.0,2.0,0.0,0.0,0.0,0.0,6.0,4.0,0.0,0.0,29.68948867,-95.56216042,29.68948867,-95.56216042,1,0,0,1
"1022 PASADENA BLVD STE C,PASADENA,TX,77506-4764",1.0,1.0,0.0,0.0,0.0,0.0,2.0,2.0,0.0,0.0,29.69498674,-95.20106511,29.69498674,-95.20106511,1,0,0,1
"10220 LOUETTA RD STE 400,HOUSTON,TX,77070-2180",2.533333333333333,1.0833333333333333,0.0,0.0,0.0,0.0,5.066666666666666,2.1666666666666665,0.0,0.0,29.99881273,-95.56458388,29.99881273,-95.56458388,1,0,0,1
"10223 BROADWAY ST STE D1,PEARLAND,TX,77584-7881",2.25,1.1428571428571428,0.0,0.16666666666666666,0.0,0.0,4.5,2.2857142857142856,0.0,0.3333333333333333,29.55601552,-95.37990499,29.55601552,-95.37990499,1,0,0,1
"1023 N MOUND ST STE D,NACOGDOCHES,TX,75961-4453",2.0,2.25,0.0,0.0,0.05882352941176471,0.0,4.0,4.5,0.0,0.0,31.61182494,-94.64951623,31.61182494,-94.64951623,1,0,0,1
"1024 S MAIN ST,MC GREGOR,TX,76657-1636",2.5,0.3333333333333333,0.0,0.0,0.0,0.0,5.0,0.6666666666666666,0.0,0.0,31.43285088,-97.40236633,31.43285088,-97.40236633,1,0,0,1
"10245 KEMPWOOD DR STE C,HOUSTON,TX,77043-1840",0.125,0.5833333333333333,0.0,0.0,0.0,0.0,0.25,1.1666666666666663,0.0,0.0,29.82259077,-95.546176,29.82259077,-95.546176,1,0,0,1
"1025 S MASON RD STE B,KATY,TX,77450-3840",6.411512464144042,10.550232287436863,0.03333333333333333,0.02325581395348837,1.4095238095238094,2.1778973950026583,12.823024928288085,21.100464574873726,0.06666666666666668,0.04651162790697674,29.765196000000003,-95.75150033,29.765196000000003,-95.75150033,1,0,0,1
"1025 S MASON RD UNIT B,KATY,TX,77450-3840",0.06666666666666668,0.1111111111111111,0.0,0.0,0.0,0.0,0.13333333333333336,0.2222222222222222,0.0,0.0,29.765196000000003,-95.75150033,29.765196000000003,-95.75150033,1,0,0,1
"1026 E WHEATLAND RD,DUNCANVILLE,TX,75116-4914",2.0,0.9166666666666666,1.6428571428571428,2.174242424242424,0.0,0.0,4.0,1.8333333333333333,3.2857142857142856,4.348484848484848,32.64745249,-96.88641338,32.64745249,-96.88641338,1,0,0,1
"1027 MAIN ST STE A,PASADENA,TX,77506-4500",0.3333333333333333,0.5,0.0,0.0,0.0,0.0,0.6666666666666666,1.0,0.0,0.0,29.69468036,-95.20929987,29.69468036,-95.20929987,1,0,0,1
"103 E 28TH AVE,PAMPA,TX,79065-3016",3.6022682647253585,2.1072542180278755,0.0,0.0,0.0,0.0,7.204536529450718,4.214508436055752,0.0,0.0,35.56921049,-100.96492049999999,35.56921049,-100.96492049999999,1,0,0,1
"103 E NEVADA ST,SEYMOUR,TX,76380-2144",0.5,0.5,0.0,0.0,0.0,0.0,1.0,1.0,0.0,0.0,33.59218999,-99.26155947,33.59218999,-99.26155947,1,0,0,1
"103 E OVILLA RD STE A,RED OAK,TX,75154-2490",0.8111111111111111,2.4958333333333336,1.0,0.16666666666666666,0.0,0.0,1.6222222222222222,4.991666666666667,2.0,0.3333333333333333,32.53175046,-96.81865351,32.53175046,-96.81865351,1,0,0,1
"103 E OVILLA RD,RED OAK,TX,75154-2490",1.8333333333333333,0.0,0.0,0.0,0.1,0.07692307692307693,3.6666666666666665,0.0,0.0,0.0,32.53175046,-96.81865351,32.53175046,-96.81865351,1,0,0,1
"103 FLUOR DANIEL DR,SUGAR LAND,TX,77478-3995",2.0,1.0,2.0,1.1,0.0,0.0,4.0,2.0,4.0,2.2,29.60453489,-95.62748474,29.60453489,-95.62748474,1,0,0,1
"103 N BRENTWOOD STE 400,LUFKIN,TX,75904-7147",6.255585871283548,5.596840104340105,0.0,0.0,0.19642857142857145,0.16124887690925427,12.511171742567095,11.19368020868021,0.0,0.0,31.29837299,-94.72901617,31.29837299,-94.72901617,1,0,0,1
"1030 N CARRIER PKWY,GRAND PRAIRIE,TX,75050-3301",1.7916666666666663,0.6573934837092732,0.0,0.0,0.0,0.0,3.5833333333333326,1.3147869674185464,0.0,0.0,32.75506837,-97.01806104,32.75506837,-97.01806104,1,0,0,1
"1030 NORWOOD PARK BLVD STE 324,AUSTIN,TX,78753-6609",3.296192907334212,3.896461184154684,0.07142857142857142,0.1142857142857143,0.0,0.0,6.592385814668424,7.792922368309367,0.14285714285714285,0.2285714285714286,30.33882687,-97.69270722,30.33882687,-97.69270722,1,0,0,1
"1030 NORWOOD PARK BLVD,AUSTIN,TX,78753-6600",1.9739468864468863,0.4085497835497836,0.0,0.0,0.0,0.0,3.9478937728937726,0.8170995670995672,0.0,0.0,30.33882687,-97.69270722,30.33882687,-97.69270722,1,0,0,1
"1030 W ARKANSAS LN STE 210,ARLINGTON,TX,76013-6377",2.545432426111692,3.9230224947731887,0.0,0.0,0.049249249249249255,0.04129129129129129,5.090864852223384,7.846044989546377,0.0,0.0,32.70643649,-97.11945279999999,32.70643649,-97.11945279999999,1,0,0,1
"10325 LAKE JUNE RD STE 500,DALLAS,TX,75217-5304",3.9804385390123938,2.512966611725888,0.5619453044375645,0.4675925925925926,0.35,0.2720238095238096,7.9608770780247875,5.025933223451776,1.1238906088751293,0.9351851851851852,32.734827,-96.64574036,32.734827,-96.64574036,1,0,0,1
"10325 LAKE JUNE RD STE 700,DALLAS,TX,75217-5320",4.662351241945513,4.345237648325592,0.023809523809523808,0.06559187726729221,0.15347222222222226,0.31383636936584003,9.324702483891024,8.690475296651183,0.047619047619047616,0.13118375453458442,32.73418052,-96.64653249,32.73418052,-96.64653249,1,0,0,1
"1034 N WILLIS ST,ABILENE,TX,79603-4622",3.707413419913419,3.7008411609030807,0.060606060606060615,0.05882352941176471,0.0,0.0,7.414826839826838,7.401682321806161,0.12121212121212124,0.11764705882352942,32.46217304,-99.76410342,32.46217304,-99.76410342,1,0,0,1
"1035 HICKORY CREEK BLVD STE 110,HICKORY CREEK,TX,75065-7552",0.2833333333333333,3.4483945483945484,0.0,0.0,0.0,0.0,0.5666666666666667,6.896789096789098,0.0,0.0,33.128172,-97.04377581,33.128172,-97.04377581,1,0,0,1
"1036 TOWN EAST MALL,MESQUITE,TX,75150-4116",2.914285714285714,0.7583333333333333,0.0,0.0,0.0,0.2,5.828571428571428,1.5166666666666666,0.0,0.0,32.80848262,-96.62074702,32.80848262,-96.62074702,1,0,0,1
"10360 HIGHWAY 6 STE C,MISSOURI CITY,TX,77459-4730",0.2,0.5,0.0,0.0,0.0,0.0,0.4,1.0,0.0,0.0,29.53121373,-95.50892311,29.53121373,-95.50892311,1,0,0,1
"104 S MAIN ST,JACKSBORO,TX,76458-2318",0.07692307692307693,0.07142857142857142,0.0,0.0,0.0,0.0,0.15384615384615385,0.14285714285714285,0.0,0.0,33.21805651,-98.15885442,33.21805651,-98.15885442,1,0,0,1
"104 S PARK DR,BROWNWOOD,TX,76801-5918",1.0,1.625,0.0,0.0,0.0,0.0,2.0,3.25,0.0,0.0,31.680588399999998,-98.9954135,31.680588399999998,-98.9954135,1,0,0,1
"104 W 3RD ST,QUANAH,TX,79252-4034",2.0,2.5,0.0,0.0,0.0,0.0,4.0,5.0,0.0,0.0,34.29781081,-99.73972594,34.29781081,-99.73972594,1,0,0,1
"104 W CAMP WISDOM RD,DUNCANVILLE,TX,75116-3327",4.6729999831249005,3.9086020010025604,0.07644110275689223,0.08313573691641503,0.1701388888888889,0.3418292661087368,9.345999966249801,7.817204002005121,0.15288220551378445,0.16627147383283006,32.66185008,-96.90729767,32.66185008,-96.90729767,1,0,0,1
"10407 NORTH FWY STE B,HOUSTON,TX,77037-1136",1.3333333333333333,0.4,0.0,0.0,0.0,0.0,2.6666666666666665,0.8,0.0,0.0,29.91828383,-95.41303645,29.91828383,-95.41303645,1,0,0,1
"10424 INTERSTATE 10 E STE 300,BAYTOWN,TX,77523-1201",1.3095238095238095,0.6825396825396826,0.0,0.0,0.0,0.0,2.619047619047619,1.3650793650793651,0.0,0.0,29.8209673,-94.89775071,29.8209673,-94.89775071,1,0,0,1
"10435 GREENBOUGH DR STE 300,STAFFORD,TX,77477-5034",3.25,0.3333333333333333,0.0,0.0,0.0,0.0,6.5,0.6666666666666666,0.0,0.0,29.62115944,-95.56233482,29.62115944,-95.56233482,1,0,0,1
"1045 NORWOOD PARK BLVD STE 103,AUSTIN,TX,78753-6671",1.4761904761904758,1.0909090909090908,0.0,0.0,0.0,0.0,2.952380952380952,2.1818181818181817,0.0,0.0,30.337649900000002,-97.69231529,30.337649900000002,-97.69231529,1,0,0,1
"105 BELLVUE DR,FORT WORTH,TX,76134-5416",2.079210372960373,1.1450757575757575,0.0,0.0,0.0,0.0,4.158420745920746,2.290151515151515,0.0,0.0,32.64113849,-97.322562,32.64113849,-97.322562,1,0,0,1
"105 E MILLER ST,DILLEY,TX,78017-3924",0.5,0.5,0.0,0.0,0.0,0.0,1.0,1.0,0.0,0.0,28.66894443,-99.16897835,28.66894443,-99.16897835,1,0,0,1
"105 N CESAR CHAVEZ RD STE 2,SAN JUAN,TX,78589-4504",0.125,3.9,0.0,0.0,0.0,0.0,0.25,7.8,0.0,0.0,26.18618427,-98.13505298,26.18618427,-98.13505298,1,0,0,1
"105 S CESAR CHAVEZ RD STE 2,SAN JUAN,TX,78589-5203",2.8972222222222217,3.3557539682539685,0.0,0.0,0.0,0.0,5.794444444444442,6.711507936507938,0.0,0.0,26.18587096,-98.13510086,26.18587096,-98.13510086,1,0,0,1
"105 US HIGHWAY 287 N,RHOME,TX,76078",1.1666666666666667,0.07692307692307693,0.0,0.0,0.0,0.0,2.333333333333333,0.15384615384615385,0.0,0.0,33.04550116,-97.47180964,33.04550116,-97.47180964,1,0,0,1
"1050 N WESTMORELAND RD,DALLAS,TX,75211-2444",1.3333333333333333,0.5833333333333333,0.0,0.0,0.0,0.0,2.6666666666666665,1.1666666666666663,0.0,0.0,32.75556363,-96.87398081,32.75556363,-96.87398081,1,0,0,1
"10501 GATEWAY BLVD W STE 107,EL PASO,TX,79925-7956",2.0234126984126983,0.6235731773850969,0.0,0.0,0.0,0.0,4.046825396825397,1.2471463547701938,0.0,0.0,31.75356436,-106.3461884,31.75356436,-106.3461884,1,0,0,1
"10510 MONTWOOD DR STE D,EL PASO,TX,79935-2703",2.333333333333333,0.14285714285714285,0.0,0.0,0.0,0.0,4.666666666666666,0.2857142857142857,0.0,0.0,31.77200252,-106.3356301,31.77200252,-106.3356301,1,0,0,1
"10510 W PARMER LN STE 100,AUSTIN,TX,78717-4876",1.7057109557109558,1.3952847805788982,0.775,0.95,0.0,0.0,3.4114219114219115,2.7905695611577963,1.55,1.9,30.49611525,-97.77454405,30.49611525,-97.77454405,1,0,0,1
"10515 BELLAIRE BLVD STE K,HOUSTON,TX,77072-5235",2.5666666666666664,3.894444444444445,1.0,0.0,0.0625,0.0,5.133333333333333,7.78888888888889,2.0,0.0,29.70390057,-95.56674008,29.70390057,-95.56674008,1,0,0,1
"1055 CYPRESS CREEK PKWY,HOUSTON,TX,77090-2523",2.492756760148065,3.9935499064690414,0.03333333333333333,0.02325581395348837,1.1838235294117647,0.3301282051282051,4.98551352029613,7.987099812938082,0.06666666666666668,0.04651162790697674,30.01569654,-95.44758191,30.01569654,-95.44758191,1,0,0,1
"1055 FM 1960 RD,HOUSTON,TX,77073-2011",0.9744569757727652,2.7828138095840687,0.0,0.0,0.0,0.16666666666666666,1.9489139515455305,5.565627619168137,0.0,0.0,30.02495293,-95.41355153,30.02495293,-95.41355153,1,0,0,1
"1055 SW WILSHIRE BLVD STE 101A,BURLESON,TX,76028-8727",0.14285714285714285,3.6576742506319975,0.0,0.0,0.0,0.0,0.2857142857142857,7.315348501263995,0.0,0.0,32.5274513,-97.34157853,32.5274513,-97.34157853,1,0,0,1
"10550 W BELLFORT ST STE 140,HOUSTON,TX,77031-1934",1.0909090909090908,0.05555555555555555,0.0,0.0,0.0,0.0,2.1818181818181817,0.1111111111111111,0.0,0.0,29.65361249,-95.56430401,29.65361249,-95.56430401,1,0,0,1
"10555 PEARLAND PKWY STE L,HOUSTON,TX,77089-2676",0.16666666666666666,0.06666666666666668,0.0,0.0,0.0,0.0,0.3333333333333333,0.13333333333333336,0.0,0.0,29.59784061,-95.26615090000001,29.59784061,-95.26615090000001,1,0,0,1
"10581 S HIGHWAY 6 STE 105,SUGAR LAND,TX,77498-4907",0.5769230769230769,0.575,0.0,0.0,0.5,0.0,1.1538461538461535,1.15,0.0,0.0,29.66208826,-95.64363349999999,29.66208826,-95.64363349999999,1,0,0,1
"106 E CORPUS CHRISTI ST STE C,BEEVILLE,TX,78102-5631",1.5,0.5,0.0,0.0,0.0,0.0,3.0,1.0,0.0,0.0,28.4022645,-97.74754874,28.4022645,-97.74754874,1,0,0,1
"106 E CORPUS CHRISTI ST,BEEVILLE,TX,78102-5600",0.09090909090909093,0.5,0.0,0.0,0.0,0.0,0.18181818181818185,1.0,0.0,0.0,28.4022645,-97.74754874,28.4022645,-97.74754874,1,0,0,1
"106 E MAIN ST,GRAND PRAIRIE,TX,75050-5721",2.8623426041136164,5.229319134879939,0.1859164678239012,0.1780237602818248,0.17752525252525253,0.2912626589097177,5.724685208227233,10.458638269759877,0.3718329356478024,0.3560475205636496,32.74551544,-97.0032323,32.74551544,-97.0032323,1,0,0,1
"106 SHULT DR STE A,COLUMBUS,TX,78934-3019",0.07692307692307693,1.2170995670995672,0.0,0.5,0.0,0.0,0.15384615384615385,2.4341991341991345,0.0,1.0,29.69431791,-96.54261884,29.69431791,-96.54261884,1,0,0,1
"106 TRULY PLZ,CLEVELAND,TX,77327-4889",3.3423633749291644,3.798695347704299,0.0,0.0,0.1,0.18253968253968253,6.6847267498583305,7.597390695408598,0.0,0.0,30.33470783,-95.09587813,30.33470783,-95.09587813,1,0,0,1
"106 W GRAY ST STE B,HOUSTON,TX,77019-5509",1.0909090909090908,1.457972582972583,0.0,0.16312509499924002,0.7208333333333333,3.044723294723295,2.1818181818181817,2.915945165945166,0.0,0.32625018999848004,29.75320388,-95.37897653,29.75320388,-95.37897653,1,0,0,1
"1060 N MAIN ST STE 103,EULESS,TX,76039-3366",1.4761904761904765,2.0416666666666665,0.0,0.0,0.0,0.0,2.952380952380953,4.083333333333333,0.0,0.0,32.85019894,-97.08256928,32.85019894,-97.08256928,1,0,0,1
"10603 BELLAIRE BLVD STE B102,HOUSTON,TX,77072-5222",3.5,1.0,0.0,0.0,0.0,0.0,7.0,2.0,0.0,0.0,29.70384953,-95.56805208,29.70384953,-95.56805208,1,0,0,1
"10603 FUQUA ST STE D,HOUSTON,TX,77089-2630",1.0,1.0,0.0,0.0,0.0,0.0,2.0,2.0,0.0,0.0,29.61151149,-95.227281,29.61151149,-95.227281,1,0,0,1
"10611 GARLAND RD STE 205,DALLAS,TX,75218-4807",0.125,0.06666666666666668,0.0,0.0,0.0,0.0,0.25,0.13333333333333336,0.0,0.0,32.84391849,-96.68984976,32.84391849,-96.68984976,1,0,0,1
"10614 WESTHEIMER RD,HOUSTON,TX,77042-3405",2.1111111111111107,1.0,0.0,0.0,0.0,0.0,4.2222222222222205,2.0,0.0,0.0,29.73696046,-95.56398322,29.73696046,-95.56398322,1,0,0,1
"10620 SABO RD STE A,HOUSTON,TX,77089-1656",1.0,1.0,0.0,0.0,0.0,0.0,2.0,2.0,0.0,0.0,29.61479471,-95.22546053,29.61479471,-95.22546053,1,0,0,1
"10630 CULEBRA RD,SAN ANTONIO,TX,78251-1320",4.025385300184204,2.758273013799129,0.03225806451612903,0.0,0.5013237210817856,0.5809474670887714,8.050770600368407,5.516546027598258,0.06451612903225806,0.0,29.49253304,-98.70083108,29.49253304,-98.70083108,1,0,0,1
"10670 N LOOP DR,SOCORRO,TX,79927-4613",1.125,0.1111111111111111,0.0,0.0,0.0,0.0,2.25,0.2222222222222222,0.0,0.0,31.65372906,-106.26923629999999,31.65372906,-106.26923629999999,1,0,0,1
"10680 JONES RD STE 800,HOUSTON,TX,77065-5701",1.2,0.2,0.0,0.0,0.0,0.0,2.4,0.4,0.0,0.0,29.92838361,-95.58472175,29.92838361,-95.58472175,1,0,0,1
"107 N 1ST ST STE A,GARLAND,TX,75040-6558",1.5,1.0,0.023809523809523808,0.020408163265306117,0.3666666666666665,1.0697115384615383,3.0,2.0,0.047619047619047616,0.040816326530612235,32.9124593,-96.6308642,32.9124593,-96.6308642,1,0,0,1
"107 N 1ST ST STE B,GARLAND,TX,75040-6558",0.3686868686868687,3.466062592378382,0.5333333333333333,0.2,0.0,0.0,0.7373737373737373,6.932125184756764,1.0666666666666669,0.4,32.9124593,-96.6308642,32.9124593,-96.6308642,1,0,0,1
"107 S 1ST ST,GARLAND,TX,75040-7219",0.0,0.8084421546040363,0.0,0.0,0.5,0.0,0.0,1.6168843092080727,0.0,0.0,32.91197926,-96.63087253,32.91197926,-96.63087253,1,0,0,1
"107 YALE ST STE 300,HOUSTON,TX,77007-3754",3.2625,3.4053571428571434,0.0,0.0,0.0,0.0,6.525,6.810714285714287,0.0,0.0,29.77342149,-95.39867265,29.77342149,-95.39867265,1,0,0,1
"10703 E CRYSTAL FALLS PKWY,LEANDER,TX,78641-2259",3.0,1.0,0.0,0.0,0.0,0.0,6.0,2.0,0.0,0.0,30.56134044,-97.83367115,30.56134044,-97.83367115,1,0,0,1
"1071 W ROUND GROVE RD STE 800,LEWISVILLE,TX,75067-7924",1.25,0.9655913978494624,0.0,0.0,0.0,0.0,2.5,1.9311827956989247,0.0,0.0,33.00595548,-97.01744405,33.00595548,-97.01744405,1,0,0,1
"10710 ELDORADO PKWY STE 140,FRISCO,TX,75035-5929",1.25,0.3333333333333333,0.0,0.0,0.0,0.0,2.5,0.6666666666666666,0.0,0.0,33.1746713,-96.78739419,33.1746713,-96.78739419,1,0,0,1
"1072 FEDERAL RD,HOUSTON,TX,77015-4804",6.714472730785393,3.9598336626335024,0.1111111111111111,0.0627275736511089,0.3297711060868955,0.4565255401229621,13.428945461570786,7.919667325267005,0.2222222222222222,0.1254551473022178,29.77227737,-95.21508581,29.77227737,-95.21508581,1,0,0,1
"10750 BARKER CYPRESS RD STE 111,CYPRESS,TX,77433-2282",1.8333333333333333,1.0111111111111108,1.0,0.0,0.0,0.0,3.6666666666666665,2.0222222222222217,2.0,0.0,29.93729879,-95.68095468,29.93729879,-95.68095468,1,0,0,1
"10760 N LOOP DR STE A3,SOCORRO,TX,79927-4689",1.0,0.7833333333333333,0.0,0.0,0.0,0.0,2.0,1.5666666666666669,0.0,0.0,31.65233067,-106.268056,31.65233067,-106.268056,1,0,0,1
"108 E US HIGHWAY 80 STE 190,FORNEY,TX,75126-8698",2.0,1.0,0.0,0.0,0.0,0.0,4.0,2.0,0.0,0.0,32.7549142,-96.46518449,32.7549142,-96.46518449,1,0,0,1
"108 W 2ND ST,MULESHOE,TX,79347-3629",2.0,0.25,0.0,0.0,0.0,0.0,4.0,0.5,0.0,0.0,34.22683408,-102.725048,34.22683408,-102.725048,1,0,0,1
"1080 FM 3009,SCHERTZ,TX,78154-2726",2.283333333333333,1.0666666666666669,0.4583333333333333,1.2083333333333333,0.0,0.0,4.566666666666666,2.1333333333333337,0.9166666666666666,2.4166666666666665,29.56876098,-98.25913220000001,29.56876098,-98.25913220000001,1,0,0,1
"10801 N MOPAC EXPY BLDG 2 # 130,AUSTIN,TX,78759-5459",0.0,0.0,0.0,0.0,0.3333333333333333,2.5,0.0,0.0,0.0,0.0,30.39723252,-97.73142507,30.39723252,-97.73142507,1,0,0,1
"10804 S POST OAK RD STE 100,HOUSTON,TX,77035-3100",0.16666666666666666,1.0,0.0,0.0,0.0,0.0,0.3333333333333333,2.0,0.0,0.0,29.66343146,-95.46422326,29.66343146,-95.46422326,1,0,0,1
"10806 W BELLFORT ST,HOUSTON,TX,77099-4751",4.25,1.0833333333333333,0.0,0.0,0.0,0.0,8.5,2.1666666666666665,0.0,0.0,29.65509354,-95.56923539,29.65509354,-95.56923539,1,0,0,1
"10830 BELLAIRE BLVD,HOUSTON,TX,77072-2736",5.921881684295872,5.010994458791797,0.5131313131313131,0.06492248062015503,0.4688375350140056,0.23012820512820514,11.843763368591745,10.021988917583592,1.0262626262626262,0.12984496124031006,29.70400947,-95.57029344,29.70400947,-95.57029344,1,0,0,1
"10842 POTRANCO RD STE 115,SAN ANTONIO,TX,78251-3346",1.363722796811032,0.6811826245649777,0.0,0.0,0.2,0.0,2.727445593622064,1.3623652491299554,0.0,0.0,29.43560753,-98.70863383,29.43560753,-98.70863383,1,0,0,1
"10851 GATEWAY BLVD S STE B,EL PASO,TX,79934-3618",1.0,0.14285714285714285,0.0,0.0,0.0,0.0,2.0,0.2857142857142857,0.0,0.0,31.93134343,-106.4242219,31.93134343,-106.4242219,1,0,0,1
"10857 KUYKENDAHL RD STE 100,THE WOODLANDS,TX,77382-2936",2.0,0.5,0.0,0.0,0.0,0.0,4.0,1.0,0.0,0.0,30.17669975,-95.53723302,30.17669975,-95.53723302,1,0,0,1
"10857 KUYKENDAHL RD STE 150,THE WOODLANDS,TX,77382-2937",1.0,0.0,0.0,0.0,1.25,0.05882352941176471,2.0,0.0,0.0,0.0,30.17669975,-95.53723302,30.17669975,-95.53723302,1,0,0,1
"10865 SHAENFIELD RD STE 1108,SAN ANTONIO,TX,78254-9617",1.25,1.4047619047619049,0.0,0.0,0.0,0.0,2.5,2.8095238095238098,0.0,0.0,29.51992302,-98.70681172,29.51992302,-98.70681172,1,0,0,1
"109 E AVENUE J,ROBSTOWN,TX,78380-2347",3.3051948051948052,1.933333333333333,1.0,0.0,0.0,0.0,6.6103896103896105,3.866666666666666,2.0,0.0,27.79987711,-97.66631704,27.79987711,-97.66631704,1,0,0,1
"109 E LORRAIN ST,ANGLETON,TX,77515-3245",1.0,0.5,0.0,0.0,0.0,0.0,2.0,1.0,0.0,0.0,29.17598048,-95.43157334,29.17598048,-95.43157334,1,0,0,1
"109 N 4TH AVE,TEAGUE,TX,75860-1601",1.0,1.5,0.0,0.0,0.0,0.0,2.0,3.0,0.0,0.0,31.62752312,-96.28405309,31.62752312,-96.28405309,1,0,0,1
"109 S 6TH ST,ALAMO,TX,78516-2541",3.1333333333333333,2.1111111111111107,0.0,0.0,0.0,0.0,6.2666666666666675,4.2222222222222205,0.0,0.0,26.18154926,-98.11405227,26.18154926,-98.11405227,1,0,0,1
"1090 N MAIN ST,VIDOR,TX,77662-4357",1.0,1.0,0.0,0.0,0.0,0.0,2.0,2.0,0.0,0.0,30.13768491,-94.01610926,30.13768491,-94.01610926,1,0,0,1
"10900 LAKELINE MALL DR STE 250,AUSTIN,TX,78717-5939",1.1111111111111112,0.16666666666666666,0.0,0.0,0.0,0.0,2.2222222222222223,0.3333333333333333,0.0,0.0,30.47450154,-97.7963127,30.47450154,-97.7963127,1,0,0,1
"10901 GARLAND RD,DALLAS,TX,75218-2613",2.8148415308681534,3.1121250658631583,0.0,0.0,0.027027027027027032,0.09444444444444446,5.629683061736307,6.2242501317263175,0.0,0.0,32.84574269,-96.68764155,32.84574269,-96.68764155,1,0,0,1
"10904 SCARSDALE BLVD STE 100,HOUSTON,TX,77089-6034",1.5269230769230768,0.5,0.0,0.0,0.0,0.0,3.0538461538461537,1.0,0.0,0.0,29.58559147,-95.2123864,29.58559147,-95.2123864,1,0,0,1
"10905 WURZBACH RD,SAN ANTONIO,TX,78230-2501",1.625,0.75,1.5909090909090908,0.31666666666666665,0.0,0.0,3.25,1.5,3.1818181818181817,0.6333333333333333,29.54069689,-98.55249051,29.54069689,-98.55249051,1,0,0,1
"10909 WEBB CHAPEL RD STE 121,DALLAS,TX,75229-3739",0.9700611445292296,12.767783456923986,0.0,0.0,0.043478260869565216,0.6198483551424728,1.9401222890584595,25.535566913847973,0.0,0.0,32.8972078,-96.87110406,32.8972078,-96.87110406,1,0,0,1
"10909 WEBB CHAPEL RD,DALLAS,TX,75229-3739",4.3006549006549015,1.1464285714285714,0.0,0.0,0.0,0.0,8.601309801309803,2.2928571428571427,0.0,0.0,32.8972078,-96.87110406,32.8972078,-96.87110406,1,0,0,1
"10911 EAST FWY,HOUSTON,TX,77029-1911",2.747985347985348,3.2294685058742387,0.07692307692307693,0.1654126766985864,0.02325581395348837,0.0,5.495970695970696,6.4589370117484775,0.15384615384615385,0.3308253533971728,29.77417188,-95.23664129999999,29.77417188,-95.23664129999999,1,0,0,1
"10917 SCARSDALE BLVD,HOUSTON,TX,77089-6024",1.0,1.0,0.0,0.0,0.0,0.0,2.0,2.0,0.0,0.0,29.58597349,-95.2123532,29.58597349,-95.2123532,1,0,0,1
"10928 EAST FWY,JACINTO CITY,TX,77029-1912",2.0,0.3333333333333333,0.0,0.0,0.0,0.0,4.0,0.6666666666666666,0.0,0.0,29.77330594,-95.23617041,29.77330594,-95.23617041,1,0,0,1
"10950 BISSONNET ST STE 260,HOUSTON,TX,77099-1718",0.725,0.476984126984127,0.0,0.0,0.0,0.0,1.45,0.953968253968254,0.0,0.0,29.67442945,-95.57244116,29.67442945,-95.57244116,1,0,0,1
"10961 NORTH FWY STE 104,HOUSTON,TX,77037-1139",2.3833333333333333,1.7992424242424243,0.0,0.0,0.0,0.0,4.766666666666667,3.5984848484848486,0.0,0.0,29.92539737,-95.41256561,29.92539737,-95.41256561,1,0,0,1
"110 CHURCH ST,MARLIN,TX,76661-2809",0.7238095238095238,0.14351851851851852,0.0,0.0,0.2,0.07142857142857142,1.4476190476190476,0.28703703703703703,0.0,0.0,31.308525500000002,-96.89669002,31.308525500000002,-96.89669002,1,0,0,1
"110 LEE ST,WICHITA FALLS,TX,76301-1128",1.0,0.35,0.0,0.0,0.0,0.0,2.0,0.7,0.0,0.0,33.92060382,-98.49244773,33.92060382,-98.49244773,1,0,0,1
"110 N HIGHWAY 175 STE 106,SEAGOVILLE,TX,75159-1843",1.8694908814589664,0.7888888888888889,0.0,0.0,0.0,0.01818181818181818,3.7389817629179327,1.5777777777777775,0.0,0.0,32.64775424,-96.53537779999999,32.64775424,-96.53537779999999,1,0,0,1
"110 N HIGHWAY 175,SEAGOVILLE,TX,75159-1843",0.03333333333333333,0.08333333333333333,0.0,0.0,0.0,0.0,0.06666666666666668,0.16666666666666666,0.0,0.0,32.64775424,-96.53537779999999,32.64775424,-96.53537779999999,1,0,0,1
"110 N INTERSTATE 35 STE 380,ROUND ROCK,TX,78681-5014",5.195991561181434,0.5,0.0,0.0,0.25,0.0,10.391983122362868,1.0,0.0,0.0,30.50855774,-97.68627059999999,30.50855774,-97.68627059999999,1,0,0,1
"110 PROFESSIONAL PARK DR,VICTORIA,TX,77904-2351",3.0,2.0,0.0,0.0,0.0,0.0,6.0,4.0,0.0,0.0,28.84116172,-96.98670423,28.84116172,-96.98670423,1,0,0,1
"1100 E BARDIN RD STE 120,ARLINGTON,TX,76018-1290",1.3333333333333333,0.1,0.0,0.0,0.0,0.0,2.6666666666666665,0.2,0.0,0.0,32.67253398,-97.0906098,32.67253398,-97.0906098,1,0,0,1
"1100 LOWES BLVD STE 100,KILLEEN,TX,76542-5491",2.63395952693496,7.1510270927104225,0.0,0.8428792941950836,0.1748663101604278,1.2034188034188034,5.26791905386992,14.302054185420847,0.0,1.6857585883901671,31.09213179,-97.73184766,31.09213179,-97.73184766,1,0,0,1
"1100 W PIONEER DR,IRVING,TX,75061-7213",1.880952380952381,0.3333333333333333,0.0,0.0,0.0,0.0,3.761904761904762,0.6666666666666666,0.0,0.0,32.8212577,-96.95955378,32.8212577,-96.95955378,1,0,0,1
"1100 W REYNOSA AVE,DE LEON,TX,76444-1630",1.0,0.29166666666666663,0.0,0.0,0.0,0.0,2.0,0.5833333333333333,0.0,0.0,32.11109307,-98.54642858,32.11109307,-98.54642858,1,0,0,1
"11000 FONDREN RD STE B105,HOUSTON,TX,77096-5525",0.0,0.0,0.5476190476190477,0.038461538461538464,0.0,0.0,0.0,0.0,1.0952380952380951,0.07692307692307693,29.66019643,-95.50859359,29.66019643,-95.50859359,1,0,0,1
"11000 GARLAND RD,DALLAS,TX,75218-2615",1.4166666666666663,0.5475580232092837,0.0,0.0,0.0,0.0,2.8333333333333326,1.0951160464185674,0.0,0.0,32.8463575,-96.68655409,32.8463575,-96.68655409,1,0,0,1
"11001 FONDREN RD STE B,HOUSTON,TX,77096-5676",2.0,0.9166666666666664,0.0,0.0,0.0,0.0,4.0,1.8333333333333328,0.0,0.0,29.66032702,-95.50838188,29.66032702,-95.50838188,1,0,0,1
"11007 JONES RD,HOUSTON,TX,77070-6301",3.3212102225260116,7.848142343823742,1.0333333333333334,0.17603359173126615,0.24264705882352944,1.8440885128385127,6.642420445052023,15.696284687647484,2.066666666666667,0.3520671834625323,29.93368583,-95.58497516,29.93368583,-95.58497516,1,0,0,1
"1101 JAMES ST,ROSENBERG,TX,77471-3146",1.0,1.0,0.0,0.0,0.0,0.0,2.0,2.0,0.0,0.0,29.55682825,-95.81756139,29.55682825,-95.81756139,1,0,0,1
"1101 N MAIN ST STE 100,EULESS,TX,76039-2730",1.636654262527529,11.938220746128767,0.03225806451612903,0.0,0.6759810082390728,2.8498043046956085,3.273308525055058,23.876441492257534,0.06451612903225806,0.0,32.852277,-97.08258523,32.852277,-97.08258523,1,0,0,1
"1101 N MAIN ST,EULESS,TX,76039-2730",0.7648719493878388,2.7388896720210747,0.0,0.0,0.3734848484848485,0.18046398046398046,1.5297438987756775,5.4777793440421485,0.0,0.0,32.852277,-97.08258523,32.852277,-97.08258523,1,0,0,1
"1101 STONE ST STE 106,KILGORE,TX,75662-5814",2.0051587301587297,0.8928571428571428,0.0,0.0,0.0,0.0,4.010317460317459,1.7857142857142856,0.0,0.0,32.39208239,-94.86742876,32.39208239,-94.86742876,1,0,0,1
"1102 BARCLAY ST,SAN ANTONIO,TX,78207-7161",4.309523809523808,3.3626373626373627,0.25,0.0,0.0,0.0,8.619047619047617,6.725274725274725,0.5,0.0,29.40966271,-98.54303034,29.40966271,-98.54303034,1,0,0,1
"1102 N 16TH ST,ORANGE,TX,77630-3606",1.0,1.0,0.0,0.0,0.0,0.0,2.0,2.0,0.0,0.0,30.10079677,-93.74718926,30.10079677,-93.74718926,1,0,0,1
"11020 AIRLINE DR,HOUSTON,TX,77037-1112",3.4521811521811525,2.2047527910685805,0.07692307692307693,0.08333333333333333,0.0,0.0,6.904362304362304,4.409505582137161,0.15384615384615385,0.16666666666666666,29.91616305,-95.40525042,29.91616305,-95.40525042,1,0,0,1
"1103 ROCK PRAIRIE RD STE 1001,COLLEGE STATION,TX,77845-8344",0.0,0.0,1.6666666666666663,0.3333333333333333,0.0,0.0,0.0,0.0,3.3333333333333326,0.6666666666666666,30.57836214,-96.29974771,30.57836214,-96.29974771,1,0,0,1
"1103 S JOSEY LN STE 707,CARROLLTON,TX,75006-7389",2.7963140362053407,5.491400297918818,0.0,0.0,0.0,0.0,5.592628072410681,10.982800595837636,0.0,0.0,32.95253242,-96.89017733,32.95253242,-96.89017733,1,0,0,1
"1103 W STAN SCHLUETER LOOP,KILLEEN,TX,76549",1.453968253968254,0.3016806722689076,0.5714285714285714,0.4745421245421245,0.0,0.0,2.9079365079365083,0.6033613445378152,1.1428571428571428,0.949084249084249,31.07827199,-97.75880934,31.07827199,-97.75880934,1,0,0,1
"1104 18TH ST,HONDO,TX,78861-1833",2.0,0.5,0.0,0.0,0.0,0.0,4.0,1.0,0.0,0.0,29.3483135,-99.14083152,29.3483135,-99.14083152,1,0,0,1
"1104 JEFFERSON AVE,SEGUIN,TX,78155-5910",1.0,0.1314194577352472,0.0,0.05555555555555555,0.0,0.0,2.0,0.2628389154704944,0.0,0.1111111111111111,29.56630051,-97.98257266,29.56630051,-97.98257266,1,0,0,1
"1104 W SAM HOUSTON BLVD STE A,PHARR,TX,78577-5104",2.0,3.3805305805305808,0.0,0.375,0.0,0.0,4.0,6.7610611610611615,0.0,0.75,26.18993334,-98.19987991,26.18993334,-98.19987991,1,0,0,1
"1104 W SAM HOUSTON BLVD,PHARR,TX,78577-5104",1.885353535353536,1.2075757575757575,0.26785714285714285,0.0,0.0,0.0,3.770707070707072,2.415151515151515,0.5357142857142857,0.0,26.18993334,-98.19987991,26.18993334,-98.19987991,1,0,0,1
"11041 SHADOW CREEK PKWY STE 125,PEARLAND,TX,77584-7405",1.0,0.0,0.3333333333333333,0.3333333333333333,1.0,1.0,2.0,0.0,0.6666666666666666,0.6666666666666666,29.58025334,-95.39074286,29.58025334,-95.39074286,1,0,0,1
"11049 FM 1960 RD W STE A,HOUSTON,TX,77065-4978",2.083333333333333,1.0196078431372548,0.0,0.0,0.0,0.0,4.166666666666666,2.0392156862745097,0.0,0.0,29.9302386,-95.58930624,29.9302386,-95.58930624,1,0,0,1
"1105 E JAMES ST,BAYTOWN,TX,77520-5821",2.0,1.0,0.0,0.0,0.0,0.0,4.0,2.0,0.0,0.0,29.73152035,-94.9548884,29.73152035,-94.9548884,1,0,0,1
"1106 BROADNAX ST,DAINGERFIELD,TX,75638-1030",1.3333333333333333,0.2,1.0,0.0,0.0,0.0,2.6666666666666665,0.4,2.0,0.0,33.040683,-94.72578822,33.040683,-94.72578822,1,0,0,1
"1106 N MECHANIC ST,EL CAMPO,TX,77437-3030",0.5,1.5504329004329005,0.0,0.5,0.0,0.0,1.0,3.100865800865801,0.0,1.0,29.20563552,-96.27705674,29.20563552,-96.27705674,1,0,0,1
"1107 GESSNER RD STE A,HOUSTON,TX,77055-6042",2.25,0.4444444444444444,0.0,0.0,0.0,0.0,4.5,0.8888888888888888,0.0,0.0,29.78884408,-95.54465341,29.78884408,-95.54465341,1,0,0,1
"1108 N MECHANIC ST,EL CAMPO,TX,77437-3030",5.172377622377622,3.924540043290044,0.0,0.75,0.0,0.0,10.344755244755245,7.849080086580088,0.0,1.5,29.20575252,-96.27715672,29.20575252,-96.27715672,1,0,0,1
"1108 W PARKER RD STE 112,PLANO,TX,75075-2245",0.09090909090909093,0.06666666666666668,0.0,0.0,0.0,0.0,0.18181818181818185,0.13333333333333336,0.0,0.0,33.04088457,-96.71742572,33.04088457,-96.71742572,1,0,0,1
"1109 NORTHWEST HWY,GARLAND,TX,75041-5833",4.7,3.75,0.0,0.0,0.0,0.0,9.4,7.5,0.0,0.0,32.86296752,-96.64435584,32.86296752,-96.64435584,1,0,0,1
"111 N ASH ST,PEARSALL,TX,78061-3201",1.0,1.0,0.0,0.0,0.0,0.0,2.0,2.0,0.0,0.0,28.89253398,-99.09394321,28.89253398,-99.09394321,1,0,0,1
"111 S MILLER ST,BRECKENRIDGE,TX,76424-4355",0.25,0.25,0.0,0.0,0.0,0.0,0.5,0.5,0.0,0.0,32.75479766,-98.90755366,32.75479766,-98.90755366,1,0,0,1
"1110 E PARKER RD STE 110,PLANO,TX,75074-5363",5.532283433123831,4.585652140754701,0.06547619047619048,0.13576731586378346,0.1868055555555556,0.2471697026991733,11.064566866247661,9.171304281509402,0.13095238095238096,0.2715346317275669,33.03726078,-96.69827223,33.03726078,-96.69827223,1,0,0,1
"1110 W WILLIAM CANNON DR STE 401,AUSTIN,TX,78745-5498",2.0625,2.5768115942028977,0.0,0.0,0.3333333333333333,0.4884615384615385,4.125,5.153623188405796,0.0,0.0,30.19935232,-97.79373759,30.19935232,-97.79373759,1,0,0,1
"11100 PARKFIELD DR,AUSTIN,TX,78758-4263",1.0,1.59775641025641,0.0,0.0,0.0,0.0,2.0,3.19551282051282,0.0,0.0,30.38319846,-97.69768705,30.38319846,-97.69768705,1,0,0,1
"11102 S HIGHWAY 6 STE 104,SUGAR LAND,TX,77498-4972",3.1,0.16666666666666666,0.0,0.0,0.0,0.0,6.2,0.3333333333333333,0.0,0.0,29.65298153,-95.64938625,29.65298153,-95.64938625,1,0,0,1
"1111 S IRVING HEIGHTS DR,IRVING,TX,75060-6237",2.7693921561178376,5.443789256261827,0.1859164678239012,0.1780237602818248,0.17752525252525253,0.1575091575091575,5.538784312235675,10.887578512523653,0.3718329356478024,0.3560475205636496,32.80153031,-96.92572266,32.80153031,-96.92572266,1,0,0,1
"1111 S STEMMONS FWY,LEWISVILLE,TX,75067-5359",0.8396270396270396,7.419285079822112,0.03225806451612903,0.08888888888888888,0.1111111111111111,1.3666666666666667,1.679254079254079,14.838570159644224,0.06451612903225806,0.17777777777777776,33.03133416,-96.99490092,33.03133416,-96.99490092,1,0,0,1
"1111 W ADOUE ST,ALVIN,TX,77511-2718",0.5,0.6,0.0,0.0,0.0,0.0,1.0,1.2,0.0,0.0,29.42005747,-95.25514105,29.42005747,-95.25514105,1,0,0,1
"1111 W AIRPORT FWY STE 121,IRVING,TX,75062-6204",1.9426115998696645,6.742474323062559,0.0,0.3333333333333333,0.0,0.0,3.8852231997393285,13.484948646125117,0.0,0.6666666666666666,32.83739604,-96.96030245,32.83739604,-96.96030245,1,0,0,1
"1111 W AIRPORT FWY STE 201,IRVING,TX,75062-6213",3.4206349206349205,1.1461251167133522,0.14090909090909093,0.2756410256410257,0.0,0.0,6.841269841269841,2.2922502334267043,0.28181818181818186,0.5512820512820514,32.83732404,-96.96030245,32.83732404,-96.96030245,1,0,0,1
"1111 W FRANKFORD RD STE 101,CARROLLTON,TX,75007-4921",0.09090909090909093,0.16666666666666666,0.0,0.0,0.0,0.0,0.18181818181818185,0.3333333333333333,0.0,0.0,32.99761596,-96.91258337,32.99761596,-96.91258337,1,0,0,1
"1112 S LAKE ST,FORT WORTH,TX,76104-4309",1.0,0.5,0.0,0.0,0.0,0.0,2.0,1.0,0.0,0.0,32.732459999999996,-97.33943663,32.732459999999996,-97.33943663,1,0,0,1
"11122 AIRLINE DR STE A,HOUSTON,TX,77037-1114",1.0,0.14285714285714285,0.0,0.0,0.0,0.0,2.0,0.2857142857142857,0.0,0.0,29.91763085,-95.4057637,29.91763085,-95.4057637,1,0,0,1
"11125 LA QUINTA PL,EL PASO,TX,79936-5253",3.0,0.55,0.0,0.0,0.0,0.0,6.0,1.1,0.0,0.0,31.755882500000002,-106.31873200000001,31.755882500000002,-106.31873200000001,1,0,0,1
"1113 MAIN ST,BASTROP,TX,78602-3218",2.0,2.7,0.0,0.0,0.0,0.0,4.0,5.4,0.0,0.0,30.11248883,-97.3200297,30.11248883,-97.3200297,1,0,0,1
"11130 GULF FWY STE 310,HOUSTON,TX,77034-3553",2.0,1.0,0.0,0.0,0.0,0.0,4.0,2.0,0.0,0.0,29.63402451,-95.23637329,29.63402451,-95.23637329,1,0,0,1
"1114 14TH ST N,TEXAS CITY,TX,77590-5413",1.0,0.0,1.0,0.5,0.0,0.0,2.0,0.0,2.0,1.0,29.39564644,-94.91452092,29.39564644,-94.91452092,1,0,0,1
"1114 E SEMINARY DR,FORT WORTH,TX,76115-2830",2.6666666666666665,1.1761904761904758,0.0,0.0,0.0,0.0,5.333333333333333,2.352380952380952,0.0,0.0,32.68431406,-97.3144179,32.68431406,-97.3144179,1,0,0,1
"1114 N WASHINGTON AVE,LIVINGSTON,TX,77351-2336",0.8333333333333333,1.0,0.0,0.0,0.0,0.0,1.6666666666666663,2.0,0.0,0.0,30.717009,-94.93301001,30.717009,-94.93301001,1,0,0,1
"1114 SILBER RD STE F,HOUSTON,TX,77055-7142",1.8849871905363893,3.531453444299744,0.03225806451612903,0.0,0.22083333333333333,1.371046046046046,3.7699743810727786,7.062906888599487,0.06451612903225806,0.0,29.78933416,-95.46804181,29.78933416,-95.46804181,1,0,0,1
"11149 RESEARCH BLVD STE 270,AUSTIN,TX,78759-5227",2.0,0.5,1.2222222222222223,0.0,0.0,0.0,4.0,1.0,2.4444444444444446,0.0,30.40728327,-97.74474169,30.40728327,-97.74474169,1,0,0,1
"1115 PROFESSIONAL DR,BROWNSVILLE,TX,78520-6462",1.3333333333333333,0.5,0.09090909090909093,0.14285714285714285,0.0,0.0,2.6666666666666665,1.0,0.18181818181818185,0.2857142857142857,25.91828768,-97.51372692,25.91828768,-97.51372692,1,0,0,1
"1115 US HIGHWAY 259 S,HENDERSON,TX,75654-3629",1.0,0.7,0.0,0.0,0.0,0.0,2.0,1.4,0.0,0.0,32.13784987,-94.78663672,32.13784987,-94.78663672,1,0,0,1
"1116 E 8TH ST STE 4,WESLACO,TX,78596-7288",0.9333333333333332,0.0,0.25,0.3333333333333333,0.0,0.0,1.8666666666666665,0.0,0.5,0.6666666666666666,26.15198052,-97.97966066,26.15198052,-97.97966066,1,0,0,1
"1116 N MEADOWS DR,GRANBURY,TX,76048-1717",0.0,0.0,1.0,0.5,0.0,0.0,0.0,0.0,2.0,1.0,32.4314398,-97.80072641,32.4314398,-97.80072641,1,0,0,1
"1116 S 10TH AVE,EDINBURG,TX,78539-5514",0.5333333333333333,0.4011494252873563,0.0,0.0,0.0,0.0,1.0666666666666669,0.8022988505747126,0.0,0.0,26.29105175,-98.16539292,26.29105175,-98.16539292,1,0,0,1
"1116 W MAIN ST STE B,GUN BARREL CITY,TX,75156-5318",0.07692307692307693,0.517156862745098,1.0,0.0,0.0,0.0,0.15384615384615385,1.034313725490196,2.0,0.0,32.33091505,-96.13227411,32.33091505,-96.13227411,1,0,0,1
"11165 LA QUINTA PL,EL PASO,TX,79936-5221",0.9166666666666664,1.5833333333333333,0.5,1.8638888888888887,0.0,0.0,1.8333333333333328,3.1666666666666665,1.0,3.7277777777777774,31.755882500000002,-106.31873200000001,31.755882500000002,-106.31873200000001,1,0,0,1
"1117 W DE LA ROSA ST,DEL RIO,TX,78840-6224",2.0,0.4934782608695653,0.0,0.0,0.0,0.0,4.0,0.9869565217391306,0.0,0.0,29.36474912,-100.8841488,29.36474912,-100.8841488,1,0,0,1
"112 GULF ST,CIBOLO,TX,78108",1.3611111111111112,0.8611111111111112,0.7916666666666666,0.7083333333333333,0.0,0.0,2.7222222222222223,1.7222222222222223,1.5833333333333333,1.4166666666666663,29.56371626,-98.23714117,29.56371626,-98.23714117,1,0,0,1
"112 HIGHWAY 146 S STE C,LA PORTE,TX,77571-4824",0.7399331662489557,1.8340856926534679,0.0,0.0,0.0,0.0,1.4798663324979109,3.6681713853069358,0.0,0.0,29.66412541,-95.02981365,29.66412541,-95.02981365,1,0,0,1
"112 HIGHWAY 146 S UNIT C,LA PORTE,TX,77571-4824",0.043478260869565216,0.16666666666666666,0.0,0.0,0.0,0.0,0.08695652173913042,0.3333333333333333,0.0,0.0,29.66412541,-95.02981365,29.66412541,-95.02981365,1,0,0,1
"112 W HOUSE ST,ALVIN,TX,77511-2811",0.7,0.1111111111111111,0.0,0.0,0.0,0.0,1.4,0.2222222222222222,0.0,0.0,29.41864748,-95.24454202,29.41864748,-95.24454202,1,0,0,1
"112 W US HIGHWAY 82,NEW BOSTON,TX,75570-2804",1.5,0.5,0.0,0.0,0.0,0.0,3.0,1.0,0.0,0.0,33.46159548,-94.4197023,33.46159548,-94.4197023,1,0,0,1
"1120 E PARKER RD STE 105,PLANO,TX,75074-5374",5.52569791072597,4.5130281066302524,0.3829143974305265,0.3909867232447878,0.26085858585858585,0.18154761904761904,11.05139582145194,9.026056213260505,0.7658287948610529,0.7819734464895756,33.03722743,-96.69835204,33.03722743,-96.69835204,1,0,0,1
"1120 E PIONEER PKWY STE 100,ARLINGTON,TX,76010-6400",0.1111111111111111,0.03448275862068965,0.0,0.0,0.0,0.0,0.2222222222222222,0.0689655172413793,0.0,0.0,32.70789452,-97.09255259999999,32.70789452,-97.09255259999999,1,0,0,1
"1120 S HENDERSON ST,FORT WORTH,TX,76104-4430",1.0,1.0,0.0,0.0,0.0,0.0,2.0,2.0,0.0,0.0,32.73232474,-97.33770413,32.73232474,-97.33770413,1,0,0,1
"11200 LAKELINE MALL DR STE B1,CEDAR PARK,TX,78613-1502",1.4444444444444444,1.0625,0.0,0.0,0.0,0.0,2.888888888888889,2.125,0.0,0.0,30.47187243,-97.80339933,30.47187243,-97.80339933,1,0,0,1
"11207 FUQUA ST,HOUSTON,TX,77089-2514",1.0,1.0,0.0,0.0,0.0,0.0,2.0,2.0,0.0,0.0,29.6137364,-95.2192189,29.6137364,-95.2192189,1,0,0,1
"1121 AVENUE E,DEL RIO,TX,78840-3915",2.0,1.0,0.0,0.0,0.0,0.0,4.0,2.0,0.0,0.0,29.37433571,-100.90298299999999,29.37433571,-100.90298299999999,1,0,0,1
"1121 FLOWER MOUND RD STE 500,FLOWER MOUND,TX,75028-3251",0.16666666666666666,2.283333333333333,0.0,0.0,0.0,0.0,0.3333333333333333,4.566666666666666,0.0,0.0,33.01061362,-97.04539824,33.01061362,-97.04539824,1,0,0,1
"1121 LAKE AIR DR,WACO,TX,76710-4417",2.0,0.14285714285714285,0.14285714285714285,0.3333333333333333,0.0,0.0,4.0,0.2857142857142857,0.2857142857142857,0.6666666666666666,31.53168778,-97.18631981,31.53168778,-97.18631981,1,0,0,1
"11218 AIRLINE DR,HOUSTON,TX,77037-1116",1.8448411667451918,2.0851065114223006,0.05833333333333333,0.0454780361757106,0.0,0.0,3.6896823334903837,4.170213022844601,0.11666666666666665,0.0909560723514212,29.91905969,-95.40629185,29.91905969,-95.40629185,1,0,0,1
"1122 S CLOSNER BLVD,EDINBURG,TX,78539-5662",2.2694444444444444,0.8,0.0,0.6428571428571428,0.0,0.0,4.538888888888889,1.6,0.0,1.2857142857142856,26.29071011,-98.16428327,26.29071011,-98.16428327,1,0,0,1
"1123 E 9TH ST STE 10A,MISSION,TX,78572-4404",2.5,0.5,0.0,0.0,0.0,0.0,5.0,1.0,0.0,0.0,26.21331629,-98.31282671,26.21331629,-98.31282671,1,0,0,1
"11230 WEST AVE STE 3205,SAN ANTONIO,TX,78213-1389",1.0,1.0,0.0,0.0,0.0,0.0,2.0,2.0,0.0,0.0,29.54221804,-98.51309307,29.54221804,-98.51309307,1,0,0,1
"11233 SHADOW CREEK PKWY STE 120,PEARLAND,TX,77584-7345",2.2357142857142858,0.03333333333333333,0.08333333333333333,0.027777777777777776,0.55,1.1796568627450978,4.471428571428572,0.06666666666666668,0.16666666666666666,0.05555555555555555,29.58005636,-95.39227601,29.58005636,-95.39227601,1,0,0,1
"11233 SHADOW CREEK PKWY STE 121,PEARLAND,TX,77584-7345",0.0,0.0,0.0,0.0,0.25,0.05882352941176471,0.0,0.0,0.0,0.0,29.58005636,-95.39227601,29.58005636,-95.39227601,1,0,0,1
"11233 SHADOW CREEK PKWY,PEARLAND,TX,77584-7345",0.0,0.03333333333333333,0.0,0.027777777777777776,0.5,0.17965686274509807,0.0,0.06666666666666668,0.0,0.05555555555555555,29.58005636,-95.39227601,29.58005636,-95.39227601,1,0,0,1
"1124 E 8TH ST,WESLACO,TX,78596-7152",3.3916666666666666,1.690909090909091,0.14285714285714285,0.125,0.0,0.0,6.783333333333332,3.381818181818182,0.2857142857142857,0.25,26.15194342,-97.97915056,26.15194342,-97.97915056,1,0,0,1
"1124 N VELASCO ST STE C,ANGLETON,TX,77515-3161",1.1666666666666667,0.8935897435897435,0.0,0.0,0.0,0.0,2.333333333333333,1.7871794871794868,0.0,0.0,29.17729806,-95.43257859,29.17729806,-95.43257859,1,0,0,1
"11241 VETERANS MEMORIAL DR,HOUSTON,TX,77067-3757",8.066273375112049,8.244712701455658,0.03333333333333333,0.02325581395348837,0.4532679738562092,0.4353535353535354,16.132546750224098,16.489425402911316,0.06666666666666668,0.04651162790697674,29.94516197,-95.4658655,29.94516197,-95.4658655,1,0,0,1
"1125 W FM 544 STE 50,WYLIE,TX,75098-4965",1.0,0.0,0.14285714285714285,0.08333333333333333,0.0,0.0,2.0,0.0,0.2857142857142857,0.16666666666666666,33.00741152,-96.55247395,33.00741152,-96.55247395,1,0,0,1
"11255 GARLAND RD STE 1410,DALLAS,TX,75218-2572",4.8090365898112,4.115609501965047,0.06547619047619048,0.046723952738990326,0.15347222222222226,0.2984517539812247,9.6180731796224,8.231219003930095,0.13095238095238096,0.09344790547798064,32.84775767,-96.68517158,32.84775767,-96.68517158,1,0,0,1
"11281 FONDREN RD STE B,HOUSTON,TX,77096-5507",0.3428571428571429,0.7825396825396824,0.0,0.0,0.0,0.0,0.6857142857142858,1.5650793650793648,0.0,0.0,29.65635176,-95.50831435,29.65635176,-95.50831435,1,0,0,1
"113 CIRCLE WAY ST,LAKE JACKSON,TX,77566-5233",1.808333333333333,0.7807019999057204,0.0,0.0,0.0,0.0,3.616666666666666,1.5614039998114408,0.0,0.0,29.04221051,-95.45156405,29.04221051,-95.45156405,1,0,0,1
"11302 BROADWAY ST STE 104,PEARLAND,TX,77584-9792",2.4860350690374915,1.7981718095840842,0.1125,0.26047286047286045,0.2117063492063492,0.12179487179487178,4.972070138074983,3.5963436191681684,0.225,0.5209457209457209,29.55564148,-95.39448266,29.55564148,-95.39448266,1,0,0,1
"11307 VETERANS MEMORIAL DR,HOUSTON,TX,77067-3755",3.0,1.0,0.0,0.0,0.0,0.0,6.0,2.0,0.0,0.0,29.94616882,-95.46663377,29.94616882,-95.46663377,1,0,0,1
"11309 BANDERA RD STE 101,SAN ANTONIO,TX,78250-2602",0.125,0.0,0.0,0.0,0.0,0.3409090909090909,0.25,0.0,0.0,0.0,29.54875846,-98.66236568,29.54875846,-98.66236568,1,0,0,1
"1134 CULEBRA RD STE 109,SAN ANTONIO,TX,78201-6080",1.0666666666666669,0.15892857142857142,0.0,0.0,0.0,0.0,2.1333333333333337,0.31785714285714284,0.0,0.0,29.44528858,-98.52621416,29.44528858,-98.52621416,1,0,0,1
"11365 MONTWOOD DR STE B,EL PASO,TX,79936-3867",1.0,0.7,0.0,0.0,0.0,0.0,2.0,1.4,0.0,0.0,31.76900455,-106.2995006,31.76900455,-106.2995006,1,0,0,1
"1139 S BROADWAY ST,SULPHUR SPRINGS,TX,75482-4839",1.5,0.25,0.0,0.0,0.0,0.0,3.0,0.5,0.0,0.0,33.12037353,-95.59629231,33.12037353,-95.59629231,1,0,0,1
"1139 W BRAKER LN STE 201,AUSTIN,TX,78758-4115",1.2,0.0,0.8333333333333333,0.21666666666666667,0.0,0.0,2.4,0.0,1.6666666666666663,0.43333333333333335,30.38459148,-97.69259988,30.38459148,-97.69259988,1,0,0,1
"11399 VETERANS MEMORIAL DR STE A,HOUSTON,TX,77067-3800",0.8333333333333333,1.9166666666666663,0.0,0.0,0.0,0.0,1.6666666666666663,3.8333333333333326,0.0,0.0,29.94749686,-95.46765737,29.94749686,-95.46765737,1,0,0,1
"11400 GULF FWY STE H,HOUSTON,TX,77034-3549",1.7173742923742925,6.033728036827713,0.0,0.3894230769230769,0.0,0.0,3.434748584748585,12.067456073655428,0.0,0.7788461538461539,29.63131161,-95.23340286,29.63131161,-95.23340286,1,0,0,1
"11403 CHIMNEY ROCK RD,HOUSTON,TX,77035-2903",0.75,1.2361111111111112,1.0,0.0,0.0,0.0,1.5,2.4722222222222223,2.0,0.0,29.65761629,-95.47642144,29.65761629,-95.47642144,1,0,0,1
"1141 W US HIGHWAY 77 STE G,SAN BENITO,TX,78586-4398",3.8841834588930864,4.581502505318559,0.3088148410729056,0.3613967731614791,0.32793855661577065,0.5889163846198273,7.768366917786173,9.163005010637118,0.6176296821458112,0.7227935463229582,26.14548132,-97.63642655,26.14548132,-97.63642655,1,0,0,1
"11411 E NORTHWEST HWY STE 101,DALLAS,TX,75218-1445",0.75,0.42424242424242425,0.0,0.0,0.0,0.0,1.5,0.8484848484848485,0.0,0.0,32.86446249,-96.681933,32.86446249,-96.681933,1,0,0,1
"11415 BELLAIRE BLVD STE C,HOUSTON,TX,77072-2573",0.37777777777777777,0.21496924128503075,1.0,0.0,0.0,0.0,0.7555555555555555,0.4299384825700615,2.0,0.0,29.70366647,-95.58024274,29.70366647,-95.58024274,1,0,0,1
"11416 N FM 620 RD STE K,AUSTIN,TX,78726-1165",2.333333333333333,1.7992424242424243,0.0,0.0,0.0,0.0,4.666666666666666,3.5984848484848486,0.0,0.0,30.45345558,-97.82796128,30.45345558,-97.82796128,1,0,0,1
"1144 AIRPORT BLVD STE 240,AUSTIN,TX,78702-3165",2.8622155622155625,1.653647741147741,0.0,0.1111111111111111,0.0,0.0,5.724431124431125,3.307295482295482,0.0,0.2222222222222222,30.27136595,-97.69728105,30.27136595,-97.69728105,1,0,0,1
"1144 W OAKLAWN RD,PLEASANTON,TX,78064-3958",1.0909090909090908,0.20202020202020204,0.7083333333333333,0.3916666666666667,0.0,0.0,2.1818181818181817,0.4040404040404041,1.4166666666666663,0.7833333333333334,28.95427316,-98.49517321,28.95427316,-98.49517321,1,0,0,1
"11441 FM 1960,HUFFMAN,TX,77336-4466",1.3333333333333333,0.25,0.0,0.0,0.0,0.0,2.6666666666666665,0.5,0.0,0.0,30.01992529,-95.10405768,30.01992529,-95.10405768,1,0,0,1
"11455 FALLBROOK DR STE 202,HOUSTON,TX,77065-4267",1.0,0.0,1.5833333333333333,0.8666666666666667,0.0,0.0,2.0,0.0,3.1666666666666665,1.7333333333333334,29.92579254,-95.59176202,29.92579254,-95.59176202,1,0,0,1
"1147 CLEAR LAKE CITY BLVD,HOUSTON,TX,77062-8102",2.0,1.0,0.0,0.0,0.0,0.0,4.0,2.0,0.0,0.0,29.58182885,-95.15518171,29.58182885,-95.15518171,1,0,0,1
"115 N DIXIE DR STE 200,LAKE JACKSON,TX,77566-5958",1.0,0.0,0.0,0.0,0.3333333333333333,0.3333333333333333,2.0,0.0,0.0,0.0,29.02397717,-95.42198889,29.02397717,-95.42198889,1,0,0,1
"115 N DIXIE DR STE 300,LAKE JACKSON,TX,77566-5958",0.5,0.3333333333333333,0.0,0.0,0.0,0.0,1.0,0.6666666666666666,0.0,0.0,29.02401815,-95.42135512,29.02401815,-95.42135512,1,0,0,1
"115 N DIXIE DR STE 310,LAKE JACKSON,TX,77566-5958",0.0,0.0,1.0,1.0,0.0,0.0,0.0,0.0,2.0,2.0,29.02479235,-95.42143332,29.02479235,-95.42143332,1,0,0,1
"115 SUNDANCE PKWY STE 100,ROUND ROCK,TX,78681-7917",0.0,0.6666666666666666,0.0,0.0,0.3333333333333333,0.0,0.0,1.3333333333333333,0.0,0.0,30.48347885,-97.67842743,30.48347885,-97.67842743,1,0,0,1
"115 W SEMINARY DR STE 101,FORT WORTH,TX,76115-2603",2.1479166666666663,3.7666666666666666,0.0,0.0,0.0,0.14583333333333331,4.2958333333333325,7.533333333333332,0.0,0.0,32.68442782,-97.32670168,32.68442782,-97.32670168,1,0,0,1
"1150 E ELDORADO PKWY STE 100,LITTLE ELM,TX,75068-5502",2.980952380952381,4.283333333333333,0.0,0.0,0.25,0.0,5.961904761904763,8.566666666666666,0.0,0.0,33.16878948,-96.92013143,33.16878948,-96.92013143,1,0,0,1
"1150 N INTERSTATE 35 STE 300,ROUND ROCK,TX,78681-4269",2.628787878787879,0.9575757575757576,0.0,0.0,0.0,0.0,5.257575757575758,1.9151515151515155,0.0,0.0,30.51784703,-97.68903166,30.51784703,-97.68903166,1,0,0,1
"1150 W KIEST BLVD # 200,DALLAS,TX,75224-3231",1.4047619047619049,0.3533153396311291,0.0,0.0,0.0,0.0,2.8095238095238098,0.7066306792622582,0.0,0.0,32.704965,-96.84114462,32.704965,-96.84114462,1,0,0,1
"11501 CUSTER RD STE 100,FRISCO,TX,75035-8791",0.05263157894736842,0.05882352941176471,0.0,0.0,0.0,0.0,0.10526315789473684,0.11764705882352942,0.0,0.0,33.17461962,-96.73307326,33.17461962,-96.73307326,1,0,0,1
"11501 N SAM HOUSTON PKWY E STE C,HUMBLE,TX,77396-4635",0.1111111111111111,0.07142857142857142,0.0,0.0,0.0,0.0,0.2222222222222222,0.14285714285714285,0.0,0.0,29.93479445,-95.21516186,29.93479445,-95.21516186,1,0,0,1
"11501 SOCORRO RD,SOCORRO,TX,79927-3060",0.5,1.6428571428571428,1.0,0.0,0.0,0.0,1.0,3.2857142857142856,2.0,0.0,31.61511958,-106.2834257,31.61511958,-106.2834257,1,0,0,1
"11509 VETERANS MEMORIAL DR STE 800,HOUSTON,TX,77067-2628",2.0102564102564098,2.2777888777888777,0.3333333333333333,0.0,0.0,0.0,4.02051282051282,4.555577755577756,0.6666666666666666,0.0,29.94941673,-95.46913625,29.94941673,-95.46913625,1,0,0,1
"11510 BARKER CYPRESS RD STE 300,CYPRESS,TX,77433-6860",2.25,0.2575757575757576,0.0,0.0,0.0,0.0,4.5,0.5151515151515152,0.0,0.0,29.94325578,-95.67807466,29.94325578,-95.67807466,1,0,0,1
"11510 GULF FWY STE I,HOUSTON,TX,77034-3573",0.5,0.8333333333333333,0.0,0.0,0.0,0.0,1.0,1.6666666666666663,0.0,0.0,29.62930786,-95.23117243,29.62930786,-95.23117243,1,0,0,1
"11525 JUPITER RD STE 103,DALLAS,TX,75218-2579",1.0909090909090908,0.07142857142857142,0.0,0.0,0.0,0.0,2.1818181818181817,0.14285714285714285,0.0,0.0,32.85093703,-96.68324617,32.85093703,-96.68324617,1,0,0,1
"11535A WEST AVE,SAN ANTONIO,TX,78213-1343",1.3419372294372294,0.16666666666666666,0.0,0.0,0.0,0.0,2.6838744588744587,0.3333333333333333,0.0,0.0,29.544605999999998,-98.51079703,29.544605999999998,-98.51079703,1,0,0,1
"1155 HIGHWAY 327 E,SILSBEE,TX,77656-5119",0.5833333333333333,0.25,0.0,0.0,0.0,0.0,1.1666666666666663,0.5,0.0,0.0,30.34062556,-94.16681106,30.34062556,-94.16681106,1,0,0,1
"11550 LOUETTA RD STE 400,HOUSTON,TX,77070-1369",1.0909090909090908,1.0588235294117647,0.0,0.0,0.0,0.0,2.1818181818181817,2.117647058823529,0.0,0.0,29.99677752,-95.59242083,29.99677752,-95.59242083,1,0,0,1
"1156 W MONTE CRISTO RD,EDINBURG,TX,78541-4541",2.610353535353535,3.66025641025641,0.2,0.14285714285714285,0.0,0.0,5.22070707070707,7.32051282051282,0.4,0.2857142857142857,26.34482185,-98.20882083,26.34482185,-98.20882083,1,0,0,1
"11560 FM 1960 RD W STE 200,HOUSTON,TX,77065-4257",0.1111111111111111,0.125,0.0,0.0,0.0,0.0,0.2222222222222222,0.25,0.0,0.0,29.92717333,-95.59448488,29.92717333,-95.59448488,1,0,0,1
"11590 GALM RD STE 105,SAN ANTONIO,TX,78254-4549",0.6,0.05,0.4583333333333333,0.525,1.0,0.0,1.2,0.1,0.9166666666666666,1.05,29.52708705,-98.72205737,29.52708705,-98.72205737,1,0,0,1
"11595 S WILCREST DR STE B,HOUSTON,TX,77099-4745",0.5769230769230769,0.5333333333333333,0.0,0.0,0.5,0.0,1.1538461538461535,1.0666666666666669,0.0,0.0,29.65325205,-95.57003189,29.65325205,-95.57003189,1,0,0,1
"116 E 1ST ST,CAMERON,TX,76520-3341",1.0,0.5,0.0,0.0,0.0,0.0,2.0,1.0,0.0,0.0,30.85037878,-96.97580362,30.85037878,-96.97580362,1,0,0,1
"116 S ARCHER ST,HENRIETTA,TX,76365-2746",0.5,0.5,0.0,0.0,0.0,0.0,1.0,1.0,0.0,0.0,33.81545725,-98.19839356,33.81545725,-98.19839356,1,0,0,1
"11600 BANDERA RD STE 126,SAN ANTONIO,TX,78250-6806",1.1,0.05,1.7083333333333333,1.1037037037037036,0.0,0.0,2.2,0.1,3.4166666666666665,2.207407407407408,29.55050635,-98.66357867,29.55050635,-98.66357867,1,0,0,1
"11602 VETERANS MEMORIAL DR,HOUSTON,TX,77067-2609",1.0,0.16666666666666666,0.0,0.0,0.0,0.0,2.0,0.3333333333333333,0.0,0.0,29.95071024,-95.47004777,29.95071024,-95.47004777,1,0,0,1
"11627 S HIGHWAY 6,SUGAR LAND,TX,77498-1302",1.6666666666666663,0.25,0.0,0.0,0.0,0.0,3.3333333333333326,0.5,0.0,0.0,29.64657877,-95.65149402,29.64657877,-95.65149402,1,0,0,1
"1164 HIGHWAY 327 E,SILSBEE,TX,77656-5120",2.5,2.0,0.25,0.0,0.0,0.0,5.0,4.0,0.5,0.0,30.34036848,-94.1624235,30.34036848,-94.1624235,1,0,0,1
"1165 E MAIN ST STE A,ALICE,TX,78332-5046",3.7,2.833333333333333,0.0,0.0,0.0,0.0,7.4,5.666666666666666,0.0,0.0,27.75267816,-98.06207773,27.75267816,-98.06207773,1,0,0,1
"1166 N YARBROUGH DR,EL PASO,TX,79925-7902",2.4173926950242732,4.594985346769235,0.13942307692307693,0.13942307692307693,0.0,0.0,4.8347853900485465,9.18997069353847,0.27884615384615385,0.27884615384615385,31.75506786,-106.3430828,31.75506786,-106.3430828,1,0,0,1
"11680 PEBBLE HILLS BLVD STE 101-102,EL PASO,TX,79936-1090",1.0,0.3428571428571429,0.0,0.0,0.0,0.0,2.0,0.6857142857142858,0.0,0.0,31.78247152,-106.2859716,31.78247152,-106.2859716,1,0,0,1
"11682 SOUTHWEST FWY,HOUSTON,TX,77031-3612",1.3,1.2909090909090908,0.0,0.0,0.0,0.625,2.6,2.5818181818181816,0.0,0.0,29.65205988,-95.56826983,29.65205988,-95.56826983,1,0,0,1
"117 E GRIFFIN PKWY,MISSION,TX,78572-2909",5.794999357052912,4.032692981509033,0.6476801424382068,0.4346568464215524,0.5164666951439092,0.5264163846198273,11.589998714105823,8.065385963018066,1.2953602848764136,0.8693136928431048,26.22965155,-98.32307283,26.22965155,-98.32307283,1,0,0,1
"117 N GRAFTON ST,DUBLIN,TX,76446-1907",3.0,2.0,0.0,0.0,0.0,0.0,6.0,4.0,0.0,0.0,32.08544662,-98.34121948,32.08544662,-98.34121948,1,0,0,1
"117 SOUTHPOINT LOOP STE 400,LIVINGSTON,TX,77351-8899",3.841666666666667,3.207575757575757,0.0,0.0,0.5526315789473684,0.0,7.683333333333334,6.415151515151514,0.0,0.0,30.68993071,-94.94808549,30.68993071,-94.94808549,1,0,0,1
"117 W 2ND ST,DENVER CITY,TX,79323-3101",1.0,1.0,0.0,0.0,0.0,0.0,2.0,2.0,0.0,0.0,32.96574653,-102.83025129999999,32.96574653,-102.83025129999999,1,0,0,1
"117 W SINTON ST,SINTON,TX,78387-2552",1.25,0.35512820512820514,0.0,0.0,0.0,0.0,2.5,0.7102564102564103,0.0,0.0,28.03662901,-97.51072615,28.03662901,-97.51072615,1,0,0,1
"11723 S SAM HOUSTON PKWY E,HOUSTON,TX,77089-4764",2.0,1.0,0.0,0.0,0.0,0.0,4.0,2.0,0.0,0.0,29.60241949,-95.21274277,29.60241949,-95.21274277,1,0,0,1
"11729 EASTEX FWY,HOUSTON,TX,77039-6205",4.356376956376957,2.347945709261499,0.07692307692307693,0.08333333333333333,0.0,0.0,8.712753912753914,4.695891418522998,0.15384615384615385,0.16666666666666666,29.89226889,-95.31795347,29.89226889,-95.31795347,1,0,0,1
"1173 EDGEBROOK DR STE B,HOUSTON,TX,77034-1862",0.07692307692307693,21.767552567696143,0.0,0.9588787908549576,0.0,2.888888888888889,0.15384615384615385,43.535105135392286,0.0,1.9177575817099155,29.64209545,-95.24188543,29.64209545,-95.24188543,1,0,0,1
"11753 W BELLFORT ST STE 116,STAFFORD,TX,77477-1327",2.776194127509917,1.3838448101605998,0.10833333333333334,0.05,0.0,0.0,5.552388255019834,2.7676896203212005,0.21666666666666667,0.1,29.65725381,-95.58570185,29.65725381,-95.58570185,1,0,0,1
"11767 KATY FWY STE 505,HOUSTON,TX,77079-1768",0.5909090909090908,1.6145472582972582,0.0,0.16040100250626566,0.3333333333333333,2.520488721804512,1.1818181818181817,3.2290945165945164,0.0,0.3208020050125313,29.78417249,-95.59358999,29.78417249,-95.59358999,1,0,0,1
"1180 SETON PKWY STE 425,KYLE,TX,78640-6180",0.0,0.0,0.9444444444444444,0.2777777777777778,0.0,0.0,0.0,0.0,1.8888888888888888,0.5555555555555556,30.01147985,-97.85354454,30.01147985,-97.85354454,1,0,0,1
"11803 GRANT RD STE 202,CYPRESS,TX,77429-4022",1.0,0.25,0.0,0.0,0.0,0.0,2.0,0.5,0.0,0.0,29.97655749,-95.60232178,29.97655749,-95.60232178,1,0,0,1
"11828 RING DR STE 102,MANOR,TX,78653-2106",5.514004096262161,2.7525793650793653,0.0,0.0,0.0625,0.0,11.028008192524322,5.505158730158732,0.0,0.0,30.34144545,-97.52543546,30.34144545,-97.52543546,1,0,0,1
"11831 CULEBRA RD STE 101,SAN ANTONIO,TX,78253-4578",3.111372837688627,0.9324786324786324,0.07142857142857142,0.10317460317460317,0.9777777777777779,0.3246753246753247,6.222745675377254,1.8649572649572648,0.14285714285714285,0.20634920634920634,29.50235836,-98.72612493,29.50235836,-98.72612493,1,0,0,1
"11850 BISSONNET ST STE O,HOUSTON,TX,77099-1995",1.1111111111111112,2.125,0.0,0.0,0.0,0.0,2.2222222222222223,4.25,0.0,0.0,29.67524945,-95.58576944,29.67524945,-95.58576944,1,0,0,1
"11851 FM 423 STE 500,LITTLE ELM,TX,75068-6704",1.0,0.0,0.5,0.5,0.0,0.0,2.0,0.0,1.0,1.0,33.19242568,-96.88621878,33.19242568,-96.88621878,1,0,0,1
"1188 N YARBROUGH DR STE A,EL PASO,TX,79925-7926",2.802631578947368,2.6690799396681752,0.0,0.0,0.5,0.5,5.605263157894736,5.338159879336351,0.0,0.0,31.75565651,-106.3426307,31.75565651,-106.3426307,1,0,0,1
"11880 FM 1960 RD W,HOUSTON,TX,77065-3840",2.0,1.0,0.0,0.0,0.0,0.0,4.0,2.0,0.0,0.0,29.9255053,-95.59732783,29.9255053,-95.59732783,1,0,0,1
"119 BUSINESS PARK BLVD STE 200,KENEDY,TX,78119-2063",2.8095238095238093,1.4294117647058822,0.08333333333333333,0.08333333333333333,0.0,0.0,5.61904761904762,2.8588235294117643,0.16666666666666666,0.16666666666666666,28.83384159,-97.86680977,28.83384159,-97.86680977,1,0,0,1
"119 SW LOOP 410 STE 109,SAN ANTONIO,TX,78245-2108",3.78889546727782,5.989576817592268,0.0,0.21755368814192344,1.010990301687976,0.8870753120753121,7.57779093455564,11.979153635184536,0.0,0.4351073762838469,29.43743786,-98.64346941,29.43743786,-98.64346941,1,0,0,1
"11900 BELLAIRE BLVD STE A,HOUSTON,TX,77072-2305",6.4197944885015845,4.4670692173665545,0.4797979797979798,0.06492248062015503,0.4197884416924664,0.5801282051282052,12.839588977003169,8.934138434733109,0.9595959595959596,0.12984496124031006,29.70380247,-95.58828997,29.70380247,-95.58828997,1,0,0,1
"11900 BELLAIRE BLVD,HOUSTON,TX,77072-2304",1.0332130144201082,16.62023893381597,0.03333333333333333,0.3194444444444444,0.0,2.4620275557775555,2.0664260288402163,33.24047786763194,0.06666666666666668,0.6388888888888888,29.70380247,-95.58828997,29.70380247,-95.58828997,1,0,0,1
"11901 TOEPPERWEIN RD STE 902,LIVE OAK,TX,78233-3158",0.0,0.0,0.0,0.0,0.5,0.5,0.0,0.0,0.0,0.0,29.54670116,-98.34256798,29.54670116,-98.34256798,1,0,0,1
"11921 BISSONNET ST,HOUSTON,TX,77099-1425",1.0,0.0,0.0625,0.07692307692307693,0.0,0.0,2.0,0.0,0.125,0.15384615384615385,29.67516256,-95.58800443,29.67516256,-95.58800443,1,0,0,1
"11939 EASTEX FWY STE I,HOUSTON,TX,77039-6173",1.9302525690683583,3.4786296291091685,0.0,0.0,1.0714285714285714,0.07142857142857142,3.8605051381367166,6.957259258218337,0.0,0.0,29.89706188,-95.31511477,29.89706188,-95.31511477,1,0,0,1
"11965 PELLICANO DR,EL PASO,TX,79936-6829",0.5833333333333333,1.8333333333333333,2.529004329004329,2.6245726495726496,1.0,0.0,1.1666666666666663,3.6666666666666665,5.058008658008658,5.249145299145298,31.73736001,-106.2907105,31.73736001,-106.2907105,1,0,0,1
"12 E GRANT ST,ROMA,TX,78584-8085",1.826190476190476,0.4,0.0,0.0,0.0,0.0,3.652380952380952,0.8,0.0,0.0,26.40298021,-99.01391607,26.40298021,-99.01391607,1,0,0,1
"120 E FM 544 STE 78,MURPHY,TX,75094-4035",0.5,0.0,0.75,1.8088235294117645,0.0,0.0,1.0,0.0,1.5,3.617647058823529,33.01140456,-96.61144165,33.01140456,-96.61144165,1,0,0,1
"120 ED SCHMIDT BLVD STE C,HUTTO,TX,78634-5559",0.8723776223776224,0.8460784313725491,0.775,0.2857142857142857,0.0,0.0,1.7447552447552448,1.6921568627450982,1.55,0.5714285714285714,30.54141008,-97.56242440000001,30.54141008,-97.56242440000001,1,0,0,1
"120 W CENTRAL TEXAS EXPY STE 200,HARKER HEIGHTS,TX,76548-7406",1.4761904761904765,1.2492063492063492,1.171037296037296,1.5112263184843828,0.0,0.0,2.952380952380953,2.4984126984126984,2.342074592074592,3.0224526369687656,31.07001497,-97.67048947,31.07001497,-97.67048947,1,0,0,1
"12000 WILCREST DR STE 207,HOUSTON,TX,77031-1908",0.0,0.0,1.0,0.5,0.0,0.0,0.0,0.0,2.0,1.0,29.64793929,-95.56565394,29.64793929,-95.56565394,1,0,0,1
"12001 RICHMOND AVE STE 1,HOUSTON,TX,77082-7682",1.6111111111111112,1.0011655011655012,0.0,0.0,0.0,0.0,3.2222222222222223,2.0023310023310024,0.0,0.0,29.73085898,-95.58982746,29.73085898,-95.58982746,1,0,0,1
"12003 US HIGHWAY 290 E STE 102,MANOR,TX,78653-4576",0.1111111111111111,0.1111111111111111,0.0,0.0,0.0,0.0,0.2222222222222222,0.2222222222222222,0.0,0.0,30.34905852,-97.54128938,30.34905852,-97.54128938,1,0,0,1
"1201 BARBARA JORDAN BLVD STE 1430,AUSTIN,TX,78723-3099",1.45,0.3611111111111111,0.9662393162393159,0.7761904761904761,0.0,0.2,2.9,0.7222222222222222,1.9324786324786318,1.5523809523809522,30.30678869,-97.7094834,30.30678869,-97.7094834,1,0,0,1
"1201 E PARKER RD STE 103,PLANO,TX,75074-5300",1.0,0.5,0.0,0.0,0.0,0.0,2.0,1.0,0.0,0.0,33.03770558,-96.69772444,33.03770558,-96.69772444,1,0,0,1
"1201 N BELL BLVD STE 102,CEDAR PARK,TX,78613-7018",2.5,7.533333333333332,0.0,0.0,0.25,0.0,5.0,15.066666666666665,0.0,0.0,30.52346443,-97.83130939,30.52346443,-97.83130939,1,0,0,1
"1201 N LAKELINE BLVD STE 300,CEDAR PARK,TX,78613-6780",1.5,0.3333333333333333,0.0,0.0,0.0,0.0,3.0,0.6666666666666666,0.0,0.0,30.516901899999997,-97.85221013,30.516901899999997,-97.85221013,1,0,0,1
"1201 S INTERSTATE 35 STE 318,ROUND ROCK,TX,78664-6651",2.265750915750916,2.9768120022915423,1.0,0.1111111111111111,0.0,0.0,4.531501831501832,5.953624004583085,2.0,0.2222222222222222,30.49931871,-97.68048481,30.49931871,-97.68048481,1,0,0,1
"1201 S JACKSON RD STE 12,PHARR,TX,78577-6860",3.4145085908243797,3.4584245821124937,0.0625,0.13942307692307693,0.0,0.0,6.8290171816487595,6.916849164224987,0.125,0.27884615384615385,26.18420693,-98.20655036,26.18420693,-98.20655036,1,0,0,1
"1201 S W S YOUNG DR STE D,KILLEEN,TX,76543-4887",0.0,0.0,1.5,1.5,0.0,0.0,0.0,0.0,3.0,3.0,31.10217265,-97.71914162,31.10217265,-97.71914162,1,0,0,1
"1202 W BITTERS RD BLDG 5,SAN ANTONIO,TX,78216-7852",0.0,0.0,0.0,0.0,1.0,1.0,0.0,0.0,0.0,0.0,29.57851878,-98.51116518,29.57851878,-98.51116518,1,0,0,1
"1203 E CENTRAL TEXAS EXPY,KILLEEN,TX,76541-9126",1.0,1.0,0.0,0.0,0.0,0.0,2.0,2.0,0.0,0.0,31.09455706,-97.72949557,31.09455706,-97.72949557,1,0,0,1
"1203 N RAUL LONGORIA RD STE L,SAN JUAN,TX,78589-3742",0.16666666666666666,2.583333333333333,0.0,0.0,0.0,0.0,0.3333333333333333,5.166666666666666,0.0,0.0,26.20269422,-98.15320312,26.20269422,-98.15320312,1,0,0,1
"1203 N RAUL LONGORIA RD,SAN JUAN,TX,78589-3741",1.0166666666666666,0.7499999999999999,0.0,0.0,0.0,0.0,2.033333333333333,1.4999999999999998,0.0,0.0,26.20269422,-98.15320312,26.20269422,-98.15320312,1,0,0,1
"1203 W DOGWOOD ST,WOODVILLE,TX,75979-4756",1.0,3.0,0.0,0.0,0.0,0.0,2.0,6.0,0.0,0.0,30.77763053,-94.42864333,30.77763053,-94.42864333,1,0,0,1
"12033 HIGHWAY 6 STE 100,FRESNO,TX,77545-8902",1.025,0.015873015873015872,0.0,0.0,0.0,0.0,2.05,0.031746031746031744,0.0,0.0,29.51937515,-95.48421015,29.51937515,-95.48421015,1,0,0,1
"12039 ANTOINE DR STE 110,HOUSTON,TX,77066-4457",0.1,0.09090909090909093,0.0,0.0,0.0,0.0,0.2,0.18181818181818185,0.0,0.0,29.95990204,-95.48028216,29.95990204,-95.48028216,1,0,0,1
"1204 HOOKS AVE,DONNA,TX,78537-3342",1.0,1.0,0.0,0.0,0.0,0.0,2.0,2.0,0.0,0.0,26.17032196,-98.05067527,26.17032196,-98.05067527,1,0,0,1
"1204 N JOSEY LN,CARROLLTON,TX,75006-6117",4.478795650679988,4.463671306171738,0.023809523809523808,0.08313573691641503,1.3129960317460316,0.3845094462889171,8.957591301359976,8.927342612343477,0.047619047619047616,0.16627147383283006,32.95673138,-96.89005772,32.95673138,-96.89005772,1,0,0,1
"1204 WOODHAVEN BLVD,FORT WORTH,TX,76112-2376",0.7020362030442675,4.3066125541125535,0.0,0.0,0.0,0.0,1.4040724060885348,8.613225108225107,0.0,0.0,32.76235297,-97.24012727,32.76235297,-97.24012727,1,0,0,1
"1205 CLEAR LAKE CITY BLVD,HOUSTON,TX,77062-8105",2.0,2.0,0.0,0.0,0.0,0.0,4.0,4.0,0.0,0.0,29.58230972,-95.15377836,29.58230972,-95.15377836,1,0,0,1
"1205 E ALTON GLOOR BLVD,BROWNSVILLE,TX,78526-3831",2.393290043290043,3.017063492063492,0.0,0.0,0.0,0.0,4.786580086580086,6.034126984126984,0.0,0.0,25.98008442,-97.49673452,25.98008442,-97.49673452,1,0,0,1
"1205 LAKE RD,LA MARQUE,TX,77568-5205",2.833333333333333,2.333333333333333,0.0,0.0,0.0,0.0,5.666666666666666,4.666666666666666,0.0,0.0,29.36799033,-94.97961844,29.36799033,-94.97961844,1,0,0,1
"1205 W MCDERMOTT DR,ALLEN,TX,75013-6305",3.280901442671702,1.703773874156833,0.0,0.25,0.0,0.06666666666666668,6.561802885343404,3.407547748313666,0.0,0.5,33.10064654,-96.69515255,33.10064654,-96.69515255,1,0,0,1
"12052 EAST FWY,HOUSTON,TX,77029-1916",7.036022412000003,5.258103067736959,0.26865079365079364,0.3500404070165738,0.4479978354978355,0.13247863247863248,14.072044824000006,10.516206135473917,0.5373015873015873,0.7000808140331476,29.77074793,-95.22427931,29.77074793,-95.22427931,1,0,0,1
"1206 E MAIN ST STE 107,ALLEN,TX,75002-3983",0.5,1.0,0.0,0.0,0.0,0.0,1.0,2.0,0.0,0.0,33.10014148,-96.64090199,33.10014148,-96.64090199,1,0,0,1
"1206 LOONEY ST,BROWNWOOD,TX,76801-1818",1.7397878284949222,2.67974490229194,1.0,0.0,0.0,0.0,3.4795756569898444,5.35948980458388,2.0,0.0,31.72962451,-98.98117601,31.72962451,-98.98117601,1,0,0,1
"1208 E BETHANY DR STE 7,ALLEN,TX,75002-3683",1.0,0.06666666666666668,0.0,0.0,0.0,0.0,2.0,0.13333333333333336,0.0,0.0,33.08542522,-96.64528237,33.08542522,-96.64528237,1,0,0,1
"1208 S EXPRESSWAY 83 STE B,HARLINGEN,TX,78552-3222",0.5769799443712488,3.224538947972208,0.0,0.08333333333333333,0.03571428571428571,0.5999180999181,1.1539598887424976,6.449077895944416,0.0,0.16666666666666666,26.18064604,-97.71396912,26.18064604,-97.71396912,1,0,0,1
"1209 W 5TH ST STE 100,AUSTIN,TX,78703-5292",0.0,0.0,0.0,0.0,1.0,1.0,0.0,0.0,0.0,0.0,30.27187078,-97.75871373,30.27187078,-97.75871373,1,0,0,1
"1209 W BLUFF ST,WOODVILLE,TX,75979-4739",2.083333333333333,0.5833333333333333,0.0,0.0,0.0,0.0,4.166666666666666,1.1666666666666663,0.0,0.0,30.7752255,-94.42917102,30.7752255,-94.42917102,1,0,0,1
"121 EASTGATE PLZ,BELLMEAD,TX,76705-2868",2.2857558139534886,0.7933062880324544,0.0,0.0,1.0,0.05732946298984035,4.571511627906976,1.5866125760649088,0.0,0.0,31.58676506,-97.10517970000001,31.58676506,-97.10517970000001,1,0,0,1
"121 N GREENVILLE AVE STE M,ALLEN,TX,75002-2252",1.5681677037694384,0.2574054490614183,0.0,0.0,0.0,0.0,3.1363354075388767,0.5148108981228366,0.0,0.0,33.10347985,-96.65986647,33.10347985,-96.65986647,1,0,0,1
"121 N RICE ST,HAMILTON,TX,76531-1857",2.0,2.0,0.0,0.0,0.0,0.0,4.0,4.0,0.0,0.0,31.70448602,-98.12384107,31.70448602,-98.12384107,1,0,0,1
"121 W AVENUE B,MULESHOE,TX,79347-3611",1.0,1.0,0.0,0.0,0.0,0.0,2.0,2.0,0.0,0.0,34.22552159,-102.7248737,34.22552159,-102.7248737,1,0,0,1
"1210 DOUGLASS RD,NACOGDOCHES,TX,75964-4904",1.0,1.6761904761904762,0.047619047619047616,0.0,0.0,0.0,2.0,3.3523809523809525,0.09523809523809523,0.0,31.60660916,-94.66797361,31.60660916,-94.66797361,1,0,0,1
"1210 E 8TH ST STE 2,WESLACO,TX,78596-7120",1.0,1.0,0.0,0.0,0.0,0.0,2.0,2.0,0.0,0.0,26.15192861,-97.97768322,26.15192861,-97.97768322,1,0,0,1
"1210 GREGORY ST STE 3,TAFT,TX,78390-3045",1.5,2.0,0.0,0.0,0.0,0.0,3.0,4.0,0.0,0.0,27.97473884,-97.38490524,27.97473884,-97.38490524,1,0,0,1
"12101 GREENVILLE AVE STE 101,DALLAS,TX,75243-9329",2.9821428571428568,1.6302928318244323,0.0,0.05882352941176471,0.25,0.3666666666666667,5.9642857142857135,3.2605856636488646,0.0,0.11764705882352942,32.91268953,-96.74558898,32.91268953,-96.74558898,1,0,0,1
"1211 S MAIN ST STE 100,KELLER,TX,76248-0819",2.5,1.5,0.0,0.0,0.0,0.0,5.0,3.0,0.0,0.0,32.91372229,-97.25559928,32.91372229,-97.25559928,1,0,0,1
"1212 BENT OAKS CT STE 100,DENTON,TX,76210-8061",1.5469444444444445,0.0,1.3477124183006537,0.3333333333333333,0.0,0.0,3.093888888888889,0.0,2.6954248366013074,0.6666666666666666,33.17217319,-97.11204677,33.17217319,-97.11204677,1,0,0,1
"12121 RICHMOND AVE STE 316,HOUSTON,TX,77082-2437",1.0,0.0,0.0,0.0,0.0625,0.1,2.0,0.0,0.0,0.0,29.73055957,-95.59312979,29.73055957,-95.59312979,1,0,0,1
"12121 RICHMOND AVE STE 426,HOUSTON,TX,77082-2457",1.0909090909090908,0.08333333333333333,1.0,0.0,0.0,0.0,2.1818181818181817,0.16666666666666666,2.0,0.0,29.73055957,-95.59312979,29.73055957,-95.59312979,1,0,0,1
"12125 HIGHWAY 6 STE D,FRESNO,TX,77545-8844",0.2464646464646465,6.54932100063679,0.025,0.022222222222222227,0.0,0.0,0.492929292929293,13.09864200127358,0.05,0.04444444444444445,29.51854499,-95.48260035,29.51854499,-95.48260035,1,0,0,1
"1213 MAIN ST UNIT A,PASADENA,TX,77506-4506",0.8383838383838385,5.0746329853780585,0.0,0.0,0.0625,0.16124887690925427,1.6767676767676767,10.149265970756117,0.0,0.0,29.69166586,-95.20925985,29.69166586,-95.20925985,1,0,0,1
"12134 VETERANS MEMORIAL DR,HOUSTON,TX,77067-1004",1.0,0.5,0.0,0.0,0.0,0.0,2.0,1.0,0.0,0.0,29.96263361,-95.4791365,29.96263361,-95.4791365,1,0,0,1
"1214 DIXIELAND RD STE 4,HARLINGEN,TX,78552-3314",1.3762626262626263,11.713195488195488,0.6428571428571428,0.375,0.5,0.4360119047619048,2.7525252525252526,23.426390976390977,1.2857142857142856,0.75,26.18094625,-97.72099409,26.18094625,-97.72099409,1,0,0,1
"1214 E HOUSTON ST,CLEVELAND,TX,77327-4754",4.766666666666667,4.8883049905969465,1.0,0.0,0.0,0.0,9.533333333333333,9.776609981193893,2.0,0.0,30.34104854,-95.07324052,30.34104854,-95.07324052,1,0,0,1
"1215 DOCTORS DR,TYLER,TX,75701-2126",0.0,0.0,0.0,0.0,1.0,1.0,0.0,0.0,0.0,0.0,32.33953454,-95.28692425,32.33953454,-95.28692425,1,0,0,1
"1215 FRY RD STE D,KATY,TX,77449-3434",2.702020202020201,3.375,0.08596491228070174,0.05,0.0,0.0,5.404040404040402,6.75,0.1719298245614035,0.1,29.78765875,-95.71901209999999,29.78765875,-95.71901209999999,1,0,0,1
"12168 BELLAIRE BLVD STE 100,HOUSTON,TX,77072-2642",15.067137437725673,8.432329598506067,0.0,0.0,0.07142857142857142,0.05263157894736842,30.13427487545135,16.864659197012134,0.0,0.0,29.70373246,-95.59479447,29.70373246,-95.59479447,1,0,0,1
"12175 NACOGDOCHES RD,SAN ANTONIO,TX,78217-2334",1.3333333333333333,2.0772347535505427,0.0,0.0,0.0,0.0,2.6666666666666665,4.154469507101085,0.0,0.0,29.55041316,-98.40814802,29.55041316,-98.40814802,1,0,0,1
"12185 NEW WORLD DR STE 201,EL PASO,TX,79936-6396",1.3333333333333333,0.2719298245614035,0.0,0.0,0.0,0.0,2.6666666666666665,0.543859649122807,0.0,0.0,31.75407247,-106.26881270000001,31.75407247,-106.26881270000001,1,0,0,1
"12185 NEW WORLD DR,EL PASO,TX,79936-6396",0.0625,1.5662393162393162,0.0,0.0,0.0,0.0,0.125,3.1324786324786325,0.0,0.0,31.75407247,-106.26881270000001,31.75407247,-106.26881270000001,1,0,0,1
"122 SOUTHMORE AVE,PASADENA,TX,77502-1018",0.3666666666666667,1.5333333333333332,0.0,0.0,0.0,0.0,0.7333333333333334,3.0666666666666664,0.0,0.0,29.69073617,-95.2094093,29.69073617,-95.2094093,1,0,0,1
"1220 N JOSEY LN STE 106,CARROLLTON,TX,75006-6149",3.0,2.833333333333333,0.0,0.0,0.0,0.0,6.0,5.666666666666666,0.0,0.0,32.95741407,-96.89003024,32.95741407,-96.89003024,1,0,0,1
"1220 N VELASCO ST,ANGLETON,TX,77515-3197",1.5,2.5,0.0,0.0,0.0,0.0,3.0,5.0,0.0,0.0,29.18026597,-95.43277971,29.18026597,-95.43277971,1,0,0,1
"1221 W BEN WHITE BLVD STE 112B,AUSTIN,TX,78704-6888",3.0,1.0,0.0,0.0,0.0,0.0,6.0,2.0,0.0,0.0,30.22737251,-97.77890164,30.22737251,-97.77890164,1,0,0,1
"12215 GRANT RD STE A,CYPRESS,TX,77429-5963",1.0,1.8333333333333333,0.0,0.0,0.0,0.0,2.0,3.6666666666666665,0.0,0.0,29.98217766,-95.60894255,29.98217766,-95.60894255,1,0,0,1
"12220 JONES RD STE C,HOUSTON,TX,77070-5266",2.0,1.7575757575757576,0.0,0.0,0.0,0.0,4.0,3.515151515151515,0.0,0.0,29.95091652,-95.58486552,29.95091652,-95.58486552,1,0,0,1
"12225 BEE CAVE PKWY STE 100,BEE CAVE,TX,78738-6382",0.0,0.2,0.1111111111111111,0.8928571428571428,0.0,0.0,0.0,0.4,0.2222222222222222,1.7857142857142856,30.3071716,-97.93198974,30.3071716,-97.93198974,1,0,0,1
"12225 FM 2244 RD # 100,BEE CAVE,TX,78738-5310",0.0,0.0,0.3111111111111111,0.16666666666666666,0.0,0.0,0.0,0.0,0.6222222222222222,0.3333333333333333,30.30637752,-97.93139895,30.30637752,-97.93139895,1,0,0,1
"12225 FM 2244 RD STE 100,BEE CAVE,TX,78738-5310",0.0,1.0031746031746032,0.3111111111111111,4.595587790345856,0.0,0.2,0.0,2.0063492063492063,0.6222222222222222,9.191175580691713,30.30632748,-97.93149894,30.30632748,-97.93149894,1,0,0,1
"12225 FM 2244 RD,BEE CAVE,TX,78738-5310",1.2857142857142856,0.0,0.671037296037296,0.0,0.0,0.2,2.5714285714285707,0.0,1.342074592074592,0.0,30.30637752,-97.93139895,30.30637752,-97.93139895,1,0,0,1
"12234 SHADOW CREEK PKWY STE 3108,PEARLAND,TX,77584-7332",0.7101449275362319,0.8333333333333333,0.0,0.0,0.0,0.0,1.420289855072464,1.6666666666666663,0.0,0.0,29.57722193,-95.41885754,29.57722193,-95.41885754,1,0,0,1
"1225 W 43RD ST,HOUSTON,TX,77018-4203",1.125,0.021739130434782608,0.0,0.0,0.0,0.0,2.25,0.043478260869565216,0.0,0.0,29.8281911,-95.43099838,29.8281911,-95.43099838,1,0,0,1
"1226 MUSEUM SQUARE DR STE 300,SUGAR LAND,TX,77479-3702",1.0,0.3333333333333333,0.0,0.0,0.0,0.0,2.0,0.6666666666666666,0.0,0.0,29.59539232,-95.65054214,29.59539232,-95.65054214,1,0,0,1
"1227 MUSEUM SQUARE DR STE D,SUGAR LAND,TX,77479-4630",0.16666666666666666,0.5317460317460317,0.0,0.0,0.0,0.0,0.3333333333333333,1.0634920634920637,0.0,0.0,29.59453769,-95.65045043,29.59453769,-95.65045043,1,0,0,1
"1227 SW MILITARY DR,SAN ANTONIO,TX,78221-1536",0.0,0.0,0.2,0.0,0.0,0.6428571428571428,0.0,0.0,0.4,0.0,29.35669646,-98.51172325,29.35669646,-98.51172325,1,0,0,1
"123 S MILE RD # 3,PALMHURST,TX,78572-6182",0.9166666666666666,0.5333333333333333,0.0,0.0,0.0,0.0,1.8333333333333333,1.0666666666666669,0.0,0.0,26.20144188,-98.33256456,26.20144188,-98.33256456,1,0,0,1
"123 W SOUTHMORE AVE,PASADENA,TX,77502-1001",2.4642857142857144,1.4317460317460315,0.0,0.0,0.0,0.0,4.928571428571429,2.863492063492063,0.0,0.0,29.69071689,-95.21281075,29.69071689,-95.21281075,1,0,0,1
"1230 N MASON RD STE 1000,KATY,TX,77449-3031",1.5,1.0,0.0,0.0,1.0,1.0,3.0,2.0,0.0,0.0,29.78717458,-95.75173087,29.78717458,-95.75173087,1,0,0,1
"12300 INWOOD RD STE 220,DALLAS,TX,75244-8025",0.0,0.0,1.0,0.3333333333333333,0.0,0.0,0.0,0.0,2.0,0.6666666666666666,32.91579547,-96.81830929,32.91579547,-96.81830929,1,0,0,1
"1231 WILLIAM D TATE AVE STE 400,GRAPEVINE,TX,76051-8674",0.25,1.0,0.0,0.0,0.0,0.0,0.5,2.0,0.0,0.0,32.9286892,-97.08546869,32.9286892,-97.08546869,1,0,0,1
"12311 NACOGDOCHES RD STE 107,SAN ANTONIO,TX,78217-2139",1.625,0.09090909090909093,0.0,0.0,0.0,0.0,3.25,0.18181818181818185,0.0,0.0,29.55235658,-98.40522923,29.55235658,-98.40522923,1,0,0,1
"12311 NACOGDOCHES RD STE 206,SAN ANTONIO,TX,78217-2140",0.09090909090909093,0.5,0.0,0.0,0.0,0.0,0.18181818181818185,1.0,0.0,0.0,29.55235658,-98.40522923,29.55235658,-98.40522923,1,0,0,1
"12335 HYMEADOW DR STE 250,AUSTIN,TX,78750-1948",3.611111111111111,2.5768115942028977,0.0,0.0,2.1666666666666665,2.4884615384615385,7.222222222222222,5.153623188405796,0.0,0.0,30.45540283,-97.79629328,30.45540283,-97.79629328,1,0,0,1
"1234 NORTHWEST HWY,GARLAND,TX,75041-5834",1.0,0.0,1.0625,1.0476190476190477,0.0,0.0,2.0,0.0,2.125,2.095238095238096,32.86365968,-96.64561775,32.86365968,-96.64561775,1,0,0,1
"12343 BARKER CYPRESS RD STE 110,CYPRESS,TX,77429-5757",1.3333333333333333,0.24707602339181284,0.0,0.0,0.2,0.0,2.6666666666666665,0.4941520467836257,0.0,0.0,29.95751097,-95.67202222,29.95751097,-95.67202222,1,0,0,1
"12355 POTRANCO RD STE 105,SAN ANTONIO,TX,78253-5847",0.20192307692307693,3.0357142857142856,0.0,0.0,0.0,0.0,0.40384615384615385,6.071428571428571,0.0,0.0,29.42966147,-98.73817508,29.42966147,-98.73817508,1,0,0,1
"12355 POTRANCO RD,SAN ANTONIO,TX,78253-5846",3.733333333333333,1.2494569757727652,0.0,0.0,0.0,0.0,7.466666666666666,2.4989139515455303,0.0,0.0,29.42966147,-98.73817508,29.42966147,-98.73817508,1,0,0,1
"12371 EDGEMERE BLVD STE 206,EL PASO,TX,79938-4878",1.6666666666666663,1.6428571428571428,0.0,0.0,0.0,0.0,3.3333333333333326,3.2857142857142856,0.0,0.0,31.79243145,-106.26124420000001,31.79243145,-106.26124420000001,1,0,0,1
"12388 FM 423 STE 100,FRISCO,TX,75033-4961",1.0,1.5,0.0,0.0,0.0,0.0,2.0,3.0,0.0,0.0,33.18126328,-96.8871291,33.18126328,-96.8871291,1,0,0,1
"12398 FM 423 STE 1900,FRISCO,TX,75033-0105",0.0,0.0,0.5,1.5,0.0,0.0,0.0,0.0,1.0,3.0,33.18120444,-96.88715923,33.18120444,-96.88715923,1,0,0,1
"12398 FM 423 STE 200,FRISCO,TX,75033-0157",0.0,0.0,0.0,0.0,0.09090909090909093,0.09090909090909093,0.0,0.0,0.0,0.0,33.18116446,-96.88727918,33.18116446,-96.88727918,1,0,0,1
"124 CLUBVIEW DR,LEVELLAND,TX,79336-6304",2.0,1.0,0.0,0.0,0.0,0.0,4.0,2.0,0.0,0.0,33.57576805,-102.3698921,33.57576805,-102.3698921,1,0,0,1
"124 FRANKLIN ST STE A,ANTHONY,TX,79821-7377",1.1666666666666667,0.09090909090909093,0.0,0.0,0.0,0.0,2.333333333333333,0.18181818181818185,0.0,0.0,31.9986975,-106.60488329999998,31.9986975,-106.60488329999998,1,0,0,1
"1240 KELLER PKWY STE 110,KELLER,TX,76248-3687",1.0,1.0,0.0,0.0,0.0,0.0,2.0,2.0,0.0,0.0,32.9341905,-97.22345069,32.9341905,-97.22345069,1,0,0,1
"1243 E RED BIRD LN,DALLAS,TX,75241-2008",2.6,2.083333333333333,0.0,0.0,0.0,0.0,5.2,4.166666666666666,0.0,0.0,32.67504833,-96.80436594,32.67504833,-96.80436594,1,0,0,1
"12430 STATE HIGHWAY 249 STE R,HOUSTON,TX,77086-3340",0.09090909090909093,1.4294584500466851,0.0,0.0,0.0,0.0,0.18181818181818185,2.8589169000933703,0.0,0.0,29.91071944,-95.47914442,29.91071944,-95.47914442,1,0,0,1
"12430 STATE HIGHWAY 249,HOUSTON,TX,77086-3338",0.7337662337662338,0.36993464052287583,0.0,0.0,0.0,0.0,1.4675324675324677,0.7398692810457517,0.0,0.0,29.91071944,-95.47914442,29.91071944,-95.47914442,1,0,0,1
"12432 FM 1960 RD W,HOUSTON,TX,77065-4809",0.5909090909090909,0.6666666666666666,0.5,0.0,0.0,0.0,1.181818181818182,1.3333333333333333,1.0,0.0,29.92219509,-95.60418336,29.92219509,-95.60418336,1,0,0,1
"12445 EAST FWY # 200,HOUSTON,TX,77015-5522",1.5,0.5,0.0,0.0,0.0,0.0,3.0,1.0,0.0,0.0,29.77082744,-95.21616178,29.77082744,-95.21616178,1,0,0,1
"12450 EAST FWY STE 140,HOUSTON,TX,77015-5559",1.5,0.8333333333333333,0.0,0.0,0.0,0.0,3.0,1.6666666666666663,0.0,0.0,29.77000453,-95.21618349,29.77000453,-95.21618349,1,0,0,1
"12485 TIMBERLAND BLVD STE 703,FORT WORTH,TX,76244-6429",0.0,0.0,0.5,0.5,0.0,0.0,0.0,0.0,1.0,1.0,32.95398526,-97.2818643,32.95398526,-97.2818643,1,0,0,1
"1249 W BAY AREA BLVD,WEBSTER,TX,77598-3832",2.052631578947368,2.6969548425430783,0.08596491228070174,0.05,0.0,0.0,4.105263157894736,5.3939096850861565,0.1719298245614035,0.1,29.53922999,-95.14378226,29.53922999,-95.14378226,1,0,0,1
"125 E LAS MILPAS RD STE D,PHARR,TX,78577-9866",0.043478260869565216,0.16227106227106228,0.0,0.0,0.5,0.0,0.08695652173913042,0.3245421245421245,0.0,0.0,26.11587028,-98.19575599,26.11587028,-98.19575599,1,0,0,1
"125 E MAIN ST,OLNEY,TX,76374-1921",3.0,2.0,0.0,0.0,0.0,0.0,6.0,4.0,0.0,0.0,33.37061652,-98.75290402,33.37061652,-98.75290402,1,0,0,1
"125 ED SCHMIDT BLVD STE 240,HUTTO,TX,78634-5588",0.0,0.0,0.25,0.1,0.0,0.0,0.0,0.0,0.5,0.2,30.54118602,-97.56260228,30.54118602,-97.56260228,1,0,0,1
"125 SW MILITARY DR,SAN ANTONIO,TX,78221-1650",1.2,0.1,2.0,3.0388888888888888,0.16666666666666666,0.16666666666666666,2.4,0.2,4.0,6.0777777777777775,29.35678761,-98.49213261,29.35678761,-98.49213261,1,0,0,1
"125 W INTERSTATE 30 STE H,ROYSE CITY,TX,75189-7513",0.34077380952380953,1.2844988344988344,0.0,0.0,0.0,0.0,0.6815476190476191,2.568997668997669,0.0,0.0,32.96776551,-96.33374902,32.96776551,-96.33374902,1,0,0,1
"125 W SUNSET RD,SAN ANTONIO,TX,78209-2632",0.2909090909090909,0.2337662337662338,1.9166666666666663,0.5166666666666667,0.0,0.0,0.5818181818181818,0.4675324675324676,3.8333333333333326,1.0333333333333334,29.50727349,-98.46719438,29.50727349,-98.46719438,1,0,0,1
"1250 E PIONEER PKWY STE 200,ARLINGTON,TX,76010-6422",6.202360489610817,4.92797105173033,0.6942033689536935,0.4335016835016835,0.25,0.20535714285714285,12.404720979221635,9.85594210346066,1.388406737907387,0.8670033670033671,32.70789948,-97.09139916,32.70789948,-97.09139916,1,0,0,1
"1250 GARTH RD STE B,BAYTOWN,TX,77520-2424",6.199533177687948,3.201606629204772,0.16374269005847952,0.03641178417742469,0.35060443942022884,0.34413237772979977,12.399066355375895,6.4032132584095445,0.32748538011695905,0.07282356835484938,29.74160227,-94.98015606,29.74160227,-94.98015606,1,0,0,1
"12501 CANYON FALLS BLVD STE F,WILLIS,TX,77318-5809",1.0,0.04,0.0,0.0,0.0,0.0,2.0,0.08,0.0,0.0,30.42026013,-95.49809074,30.42026013,-95.49809074,1,0,0,1
"1251 PIN OAK RD STE 103,KATY,TX,77494-5659",0.4197802197802198,0.7825396825396824,0.0,0.0,0.0,0.0,0.8395604395604396,1.5650793650793648,0.0,0.0,29.77261964,-95.81810382,29.77261964,-95.81810382,1,0,0,1
"1251 W CAMPBELL RD STE 200,RICHARDSON,TX,75080-2964",0.125,0.04,1.0,0.0,0.0,0.0,0.25,0.08,2.0,0.0,32.97811753,-96.76273004,32.97811753,-96.76273004,1,0,0,1
"1256 W EXCHANGE PKWY STE 100,ALLEN,TX,75013-7043",1.0,0.2,0.0,0.0,0.0,0.0,2.0,0.4,0.0,0.0,33.11548545,-96.69683216,33.11548545,-96.69683216,1,0,0,1
"12584 N BEACH ST STE 150,FORT WORTH,TX,76244-4250",4.945991561181434,1.0,0.0,0.0,0.0,0.0,9.891983122362868,2.0,0.0,0.0,32.95542557,-97.28117104,32.95542557,-97.28117104,1,0,0,1
"12586 WESTHEIMER RD STE C,HOUSTON,TX,77077-5866",1.0714285714285714,0.0,0.07692307692307693,0.08333333333333333,0.0,0.0,2.142857142857143,0.0,0.15384615384615385,0.16666666666666666,29.73634161,-95.60526466,29.73634161,-95.60526466,1,0,0,1
"12589 WESTHEIMER RD,HOUSTON,TX,77077-5807",3.616779361448903,9.627525578919977,0.2335497835497836,0.31829437527054205,0.3854978354978356,0.3555555555555556,7.233558722897806,19.255051157839954,0.4670995670995672,0.6365887505410841,29.73602801,-95.60543356,29.73602801,-95.60543356,1,0,0,1
"1259 W EXCHANGE PKWY STE 130,ALLEN,TX,75013-7107",0.3333333333333333,0.16666666666666666,1.0,0.0,0.0,0.0,0.6666666666666666,0.3333333333333333,2.0,0.0,33.11514317,-96.6962248,33.11514317,-96.6962248,1,0,0,1
"126 N INTERNATIONAL RD STE A,GARLAND,TX,75042-6515",1.167832167832168,0.7794117647058824,0.0,0.0,0.0,0.0,2.3356643356643363,1.5588235294117647,0.0,0.0,32.91480886,-96.67231004,32.91480886,-96.67231004,1,0,0,1
"12601 WESTHEIMER RD STE B,HOUSTON,TX,77077-5707",3.5835025196009176,9.233669750393233,0.03333333333333333,0.18992248062015504,0.05882352941176471,1.1563186813186812,7.167005039201835,18.467339500786466,0.06666666666666668,0.3798449612403101,29.736059499999996,-95.60630249,29.736059499999996,-95.60630249,1,0,0,1
"12601 WESTHEIMER RD,HOUSTON,TX,77077-5707",3.085610223110224,3.885451346932895,0.09090909090909093,0.06492248062015503,0.08333333333333333,0.18831168831168832,6.171220446220447,7.77090269386579,0.18181818181818185,0.12984496124031006,29.736059499999996,-95.60630249,29.736059499999996,-95.60630249,1,0,0,1
"12609 S GESSNER RD STE F,HOUSTON,TX,77071-2804",1.0398076259489302,0.7147383733061483,0.0,0.0,0.0,0.0,2.0796152518978603,1.4294767466122966,0.0,0.0,29.63818925,-95.52975075,29.63818925,-95.52975075,1,0,0,1
"12617 LOUETTA RD STE 204,CYPRESS,TX,77429-5212",1.125,0.09090909090909093,0.0,0.0,0.0,0.0,2.25,0.18181818181818185,0.0,0.0,29.99629952,-95.61552299,29.99629952,-95.61552299,1,0,0,1
"12620 WOODFOREST BLVD STE 420A,HOUSTON,TX,77015-3643",1.5,0.8333333333333333,0.0,0.0,0.0,0.0,3.0,1.6666666666666663,0.0,0.0,29.79114512,-95.20198985,29.79114512,-95.20198985,1,0,0,1
"12620 WOODFOREST BLVD STE 490,HOUSTON,TX,77015-3570",2.197484429138778,1.2851642494595783,0.0,0.0,0.2635594716484504,0.2380035505035505,4.394968858277556,2.5703284989191566,0.0,0.0,29.79114512,-95.20198985,29.79114512,-95.20198985,1,0,0,1
"12626 WOODFOREST BLVD STE 3,HOUSTON,TX,77015-3642",5.47021254888902,4.548845598845599,0.19548872180451127,0.0,0.0,0.0,10.94042509777804,9.097691197691198,0.3909774436090225,0.0,29.79117956,-95.20183197,29.79117956,-95.20183197,1,0,0,1
"12626 WOODFOREST BLVD STE Z,HOUSTON,TX,77015-3653",0.32702020202020204,14.590298275731039,0.0,0.9047008547008548,0.0,0.25,0.6540404040404041,29.180596551462077,0.0,1.8094017094017096,29.79117956,-95.20183197,29.79117956,-95.20183197,1,0,0,1
"12626 WOODFOREST BLVD,HOUSTON,TX,77015-3642",0.25,3.0315752109324587,0.0,0.238034188034188,0.0,0.125,0.5,6.0631504218649175,0.0,0.476068376068376,29.79117956,-95.20183197,29.79117956,-95.20183197,1,0,0,1
"12660 BEECHNUT ST STE 120,HOUSTON,TX,77072-3982",2.431089743589744,0.9330659536541892,0.0,0.0,0.0,0.0,4.862179487179488,1.8661319073083784,0.0,0.0,29.68909547,-95.602953,29.68909547,-95.602953,1,0,0,1
"12660 SANDPIPER DR STE 043,HOUSTON,TX,77035-5383",1.1736111111111112,0.27142857142857146,0.0,0.0,0.0,0.0,2.3472222222222223,0.5428571428571429,0.0,0.0,29.63935847,-95.50318359999999,29.63935847,-95.50318359999999,1,0,0,1
"12665 BISSONNET ST,HOUSTON,TX,77099-1331",2.4208592132505173,2.2759609671374377,0.0,0.0,0.0,0.0,4.841718426501035,4.551921934274875,0.0,0.0,29.67752689,-95.60142544,29.67752689,-95.60142544,1,0,0,1
"12700 MIDWAY RD STE 104,DALLAS,TX,75244-6301",1.6102564102564103,0.6666666666666667,0.0,0.0,0.2,0.0,3.2205128205128206,1.3333333333333337,0.0,0.0,32.92234166,-96.83806822,32.92234166,-96.83806822,1,0,0,1
"12700 MIDWAY RD,DALLAS,TX,75244-6301",0.07692307692307693,0.03571428571428571,0.0,0.0,0.0,0.0,0.15384615384615385,0.07142857142857142,0.0,0.0,32.92234166,-96.83806822,32.92234166,-96.83806822,1,0,0,1
"12700 N FEATHERWOOD DR STE 290,HOUSTON,TX,77034-4496",2.04,0.0,3.283333333333333,1.0,0.0,0.0,4.08,0.0,6.566666666666666,2.0,29.61912269,-95.21560814,29.61912269,-95.21560814,1,0,0,1
