idx,IKN_addr,general,pediatric,specialist,Y_lat,X_long,med_indicator,chip_indicator,hygienist_for_general,hygienist_for_pediatric
0,"#1 CLINIC DR.,BOYS RANCH,TX,79010",1.0,0.0,0.0,35.531195200000006,-102.2562362,1,0,2.0,0.0
1,"1 CLINIC DR,BOYS RANCH,TX,79010-0009",1.0,0.0,0.0,35.53548,-102.288131,1,0,2.0,0.0
2,"1 EUREKA CIR STE 103,WICHITA FALLS,TX,76308-2929",1.125,1.0,0.0,33.86981247,-98.52626162,1,0,2.25,2.0
3,"1 PROFESSIONAL PARK DR,WEBSTER,TX,77598-4123",0.0,1.0,0.0,29.54598467,-95.12776070000001,1,0,0.0,2.0
4,"100 CARLOS G PARKER BLVD NW STE 110,TAYLOR,TX,76574-7059",3.5414682539682545,0.0,0.0,30.60076252,-97.41798949,1,0,7.082936507936509,0.0
5,"100 E EBONY LN,EDINBURG,TX,78539-5648",1.4333333333333331,0.0,0.0,26.29048017,-98.16348914,1,0,2.8666666666666663,0.0
6,"100 E PECAN BLVD,MCALLEN,TX,78501-9555",0.5,0.0,0.3333333333333333,26.21643767,-98.21603376,1,0,1.0,0.0
7,"100 FORREST TER,MARSHALL,TX,75670-6804",1.0476190476190477,0.0,0.0,32.52800026,-94.37042982,1,0,2.095238095238096,0.0
8,"100 KINGS FORT PKWY STE 100,KAUFMAN,TX,75142-3544",2.0587662337662342,0.5284090909090909,0.0,32.57145415,-96.31060583,1,0,4.1175324675324685,1.056818181818182
9,"100 KINGS FORT PKWY,KAUFMAN,TX,75142-3536",0.5178571428571428,0.7477073365231259,0.16666666666666666,32.57145415,-96.31060583,1,0,1.0357142857142856,1.495414673046252
10,"100 MEDICAL CENTER BLVD STE 109,CONROE,TX,77304-2821",1.5555555555555556,0.045454545454545456,0.0,30.28791773,-95.46293517,1,0,3.111111111111111,0.09090909090909093
11,"100 MEDICAL CENTER BLVD STE 110,CONROE,TX,77304-2821",1.5055555555555555,0.0,0.0,30.28791773,-95.46293517,1,0,3.011111111111111,0.0
12,"100 N CENTRAL EXPY STE 1108,RICHARDSON,TX,75080-5328",1.0,0.3333333333333333,0.0,32.95108358,-96.73388517,1,0,2.0,0.6666666666666666
13,"100 N N ST,MIDLAND,TX,79701-6409",0.16666666666666666,0.0,0.0,31.99393028,-102.096813,1,0,0.3333333333333333,0.0
14,"100 S AMERICAS AVE,EL PASO,TX,79907-6901",0.75,1.0,0.0,31.67964865,-106.3128893,1,0,1.5,2.0
15,"100 S MAIN ST,LA FERIA,TX,78559-5005",2.2,0.0,0.0,26.15767679,-97.8240583,1,0,4.4,0.0
16,"100 SAN ELIZARIO RD STE M,CLINT,TX,79836-6738",0.3333333333333333,0.0,0.0,31.58721942,-106.23092369999999,1,0,0.6666666666666666,0.0
17,"100 SAN ELIZARIO RD UNIT M,CLINT,TX,79836-6738",2.0,0.0,0.0,31.58721942,-106.23092369999999,1,0,4.0,0.0
18,"100 W PIONEER PKWY STE 106,ARLINGTON,TX,76010-6111",2.0,0.0,0.0,32.70801951,-97.10897319,1,0,4.0,0.0
19,"100 WOLFE NURSERY RD STE 180,STEPHENVILLE,TX,76401-3767",2.585752740775624,1.0,0.0,32.20490577,-98.23868063,1,0,5.171505481551248,2.0
20,"1000 E CAMPBELL RD STE 116,RICHARDSON,TX,75081-1855",1.5,0.0,0.0,32.97521153,-96.70709491,1,0,3.0,0.0
21,"1000 E ELDORADO PKWY STE 130,LITTLE ELM,TX,75068-6475",1.6761904761904762,0.0,0.0,33.1688445,-96.92355905,1,0,3.3523809523809525,0.0
22,"1000 LEE DR,BAYTOWN,TX,77520-6980",1.0,0.0,0.0,29.72679097,-94.97838837,1,0,2.0,0.0
23,"1000 N FIELDER RD,ARLINGTON,TX,76012-3149",1.0,1.0,0.0,32.748489,-97.1317542,1,0,2.0,2.0
24,"1000 N MIDKIFF RD # B-6,MIDLAND,TX,79701-2101",0.9625526978468156,0.15725806451612906,0.0,32.00029409,-102.118602,1,0,1.9251053956936317,0.3145161290322581
25,"1000 N MIDKIFF RD STE 23,MIDLAND,TX,79701-2101",0.14285714285714285,0.0,0.0,32.00029409,-102.118602,1,0,0.2857142857142857,0.0
26,"1000 N MIDKIFF RD STE 6,MIDLAND,TX,79701-2133",0.06666666666666668,0.0,0.0,32.00029409,-102.118602,1,0,0.13333333333333336,0.0
27,"1000 N MIDKIFF RD STE 6B,MIDLAND,TX,79701-2133",1.1222095708155868,0.0,0.0,32.00029409,-102.118602,1,0,2.2444191416311736,0.0
28,"1000 N MIDKIFF RD STE B-6,MIDLAND,TX,79701-2101",2.605274118625732,0.18253968253968253,0.029411764705882363,32.00029409,-102.118602,1,0,5.210548237251464,0.36507936507936506
29,"1000 N MIDKIFF RD,MIDLAND,TX,79701-2101",0.02325581395348837,0.0,0.0,32.00029409,-102.118602,1,0,0.04651162790697674,0.0
30,"1000 N STATE HIGHWAY 289,PROSPER,TX,75078-8779",0.0,1.0,0.0,33.24579089,-96.78521024,1,0,0.0,2.0
31,"1000 S MIDKIFF RD # B6,MIDLAND,TX,79701-7132",0.1880341880341881,0.0,0.0,31.978692,-102.11153440000001,1,0,0.3760683760683762,0.0
32,"1000 W ROSEMEADE PKWY STE 100,CARROLLTON,TX,75007-6222",1.4677206851119895,1.0,0.0,33.01134418,-96.9118112,1,0,2.9354413702239786,2.0
33,"10000 HARWIN DR STE A,HOUSTON,TX,77036-1671",3.0,0.0,0.0,29.71782026,-95.53998693,1,0,6.0,0.0
34,"10001 S INTERSTATE 35 STE 350,AUSTIN,TX,78747-1705",1.0,0.07142857142857142,0.5333333333333333,30.15627679,-97.79022066,1,0,2.0,0.14285714285714285
35,"10001 S INTERSTATE 35,AUSTIN,TX,78747-1701",0.0,0.0,0.16666666666666666,30.15627679,-97.79022066,1,0,0.0,0.0
36,"10003 NW MILITARY HWY STE 3201,SAN ANTONIO,TX,78231-1892",0.5333333333333333,0.125,0.0,29.55486019,-98.53394016,1,0,1.0666666666666669,0.25
37,"10009 N LAMAR BLVD STE C,AUSTIN,TX,78753-4117",1.0,0.0,0.0,30.37002151,-97.69308563,1,0,2.0,0.0
38,"10009 N LAMAR BLVD,AUSTIN,TX,78753-4117",2.0,0.0,0.0,30.37002151,-97.69308563,1,0,4.0,0.0
39,"10009 N MACARTHUR BLVD STE 105,IRVING,TX,75063-5082",1.0,0.0,0.0,32.94146652,-96.95223574,1,0,2.0,0.0
40,"1001 E MILAM ST,MEXIA,TX,76667-2502",3.0769230769230766,0.0,0.2,31.68480495,-96.47124737,1,0,6.1538461538461515,0.0
41,"1001 HIGHLAND PARK AVE STE G,MISSION,TX,78572-4468",1.41025641025641,0.0,0.0,26.21458135,-98.31365209,1,0,2.82051282051282,0.0
42,"1001 NE GREEN OAKS BLVD STE 129,ARLINGTON,TX,76006-2300",1.0,0.0,0.0,32.78466745,-97.09434039,1,0,2.0,0.0
43,"1001 S 10TH ST STE S,MCALLEN,TX,78501-5045",0.7160159285159284,0.0,0.056547619047619034,26.19391414,-98.23164136,1,0,1.4320318570318569,0.0
44,"1001 S 10TH ST,MCALLEN,TX,78501-5049",0.7091123003193942,0.03225806451612903,0.15357142857142858,26.19391414,-98.23164136,1,0,1.4182246006387884,0.06451612903225806
45,"1001 S EGRET BAY BLVD STE 201,LEAGUE CITY,TX,77573-6016",0.125,0.0,0.0,29.51378096,-95.07190997,1,0,0.25,0.0
46,"1001 W HILDEBRAND AVE,SAN ANTONIO,TX,78201-4609",1.2380952380952381,1.0,0.0,29.466483500000002,-98.50976099,1,0,2.4761904761904763,2.0
47,"10017 MONROE DR,DALLAS,TX,75229-5704",1.1130952380952381,0.16666666666666666,0.0,32.881743,-96.8783427,1,0,2.2261904761904763,0.3333333333333333
48,"10019 MAIN ST STE A6,HOUSTON,TX,77025-5257",1.0,0.0,0.0,29.67602009,-95.42873006,1,0,2.0,0.0
49,"1002 N LOOP 336 W,CONROE,TX,77301-1154",3.983333333333333,0.0,0.0,30.33538694,-95.47082718,1,0,7.966666666666666,0.0
50,"1002 W BROWN ST,HEARNE,TX,77859-3063",0.4761904761904762,0.5,0.0,30.87189882,-96.59972420000001,1,0,0.9523809523809524,1.0
51,"1002 W SAM HOUSTON BLVD STE 6,PHARR,TX,78577-5198",0.3333333333333333,0.0,0.0,26.1896853,-98.19794652,1,0,0.6666666666666666,0.0
52,"10025 LAKE JUNE RD,DALLAS,TX,75217-3041",2.6698992673992668,0.0,0.0,32.73419352,-96.65113049,1,0,5.3397985347985335,0.0
53,"10039 DYER ST,EL PASO,TX,79924-4136",2.1666666666666665,0.0,0.0,31.90115201,-106.40760590000001,1,0,4.333333333333333,0.0
54,"1004 N TEXAS BLVD # B-1,WESLACO,TX,78596-4511",0.6014721350459891,0.05263157894736842,0.0,26.17160458,-97.99088034,1,0,1.202944270091978,0.10526315789473684
55,"1004 N TEXAS BLVD # B1,WESLACO,TX,78596-4511",0.09610983981693363,0.0,0.0,26.17160458,-97.99088034,1,0,0.19221967963386727,0.0
56,"1004 N TEXAS BLVD STE B-1,WESLACO,TX,78596-4511",2.490128414280319,0.09090909090909093,0.029411764705882363,26.17160458,-97.99088034,1,0,4.980256828560638,0.18181818181818185
57,"1004 N TEXAS BLVD STE B1,WESLACO,TX,78596-4511",0.3698292458265664,0.0,0.0,26.17160458,-97.99088034,1,0,0.7396584916531328,0.0
58,"1004 N TEXAS BLVD,WESLACO,TX,78596-4511",0.5921882711894827,0.0,0.0,26.17160458,-97.99088034,1,0,1.1843765423789654,0.0
59,"1005 E HIGHWAY 34,ITALY,TX,76651",1.0,0.0,0.0,32.18393472,-96.86436768,1,0,2.0,0.0
60,"1005 N 16TH ST,LAMESA,TX,79331-3151",3.0,0.0,0.0,32.74555892,-101.9643045,1,0,6.0,0.0
61,"1005 W 38TH ST STE 200,AUSTIN,TX,78705-1042",0.0,0.2,0.0,30.30517945,-97.74318483,1,0,0.0,0.4
62,"10058 LONG POINT RD,HOUSTON,TX,77055-4002",3.47198417079996,0.0,0.17142857142857146,29.79432017,-95.54247887,1,0,6.94396834159992,0.0
63,"1006 HOBBS HWY,SEMINOLE,TX,79360-3322",2.0,0.0,0.0,32.72022168,-102.655923,1,0,4.0,0.0
64,"1006 N WELLS ST,EDNA,TX,77957-2153",2.477027027027027,0.0,0.0,28.98907121,-96.65114034,1,0,4.954054054054054,0.0
65,"10065 ALMEDA GENOA RD STE J,HOUSTON,TX,77075-2417",0.07692307692307693,1.0,0.0,29.62774799,-95.23530922,1,0,0.15384615384615385,2.0
66,"10065 ALMEDA GENOA RD,HOUSTON,TX,77075-2417",0.07692307692307693,1.0333333333333334,0.0,29.62774799,-95.23530922,1,0,0.15384615384615385,2.066666666666667
67,"1007 S MAYS ST,ROUND ROCK,TX,78664-6725",1.0,0.0,0.0,30.49969556,-97.6760287,1,0,2.0,0.0
68,"1007 W MITCHELL ST STE 201,ARLINGTON,TX,76013-2504",0.0,1.0,0.0,32.72599048,-97.12107963,1,0,0.0,2.0
69,"1008 RANCH ROAD 620 S STE 201,LAKEWAY,TX,78734-5633",0.0,0.375,0.0,30.35338205,-97.96200812,1,0,0.0,0.75
70,"1008 RANCH ROAD 620 S,LAKEWAY,TX,78734-5631",0.0,0.125,0.0,30.35338205,-97.96200812,1,0,0.0,0.25
71,"1009 E SEMINARY DR,FORT WORTH,TX,76115-2735",4.6203172919272,0.17511520737327188,0.22702702702702704,32.68438251,-97.3169015,1,0,9.2406345838544,0.35023041474654376
72,"1009 E SEMINARY DR,FT WORTH,TX,76115-2735",0.4137426900584795,0.0,0.0,32.68438251,-97.3169015,1,0,0.827485380116959,0.0
73,"1009 SW ALSBURY BLVD,BURLESON,TX,76028-4081",2.0052777777777777,0.3477124183006536,0.0,32.54231489,-97.35685725,1,0,4.010555555555555,0.6954248366013072
74,"1009 W BUSINESS 190 STE 108,COPPERAS COVE,TX,76522-3886",0.8333333333333333,0.4,0.0,31.10343539,-97.92301114,1,0,1.6666666666666663,0.8
75,"101 AVENUE F N,BAY CITY,TX,77414-3167",0.5,0.0,0.0,29.00337318,-95.97229133,1,0,1.0,0.0
76,"101 E CORPORATE DR STE 120,LEWISVILLE,TX,75067-6601",1.3333333333333333,0.0,0.0,33.01213138,-96.99197546,1,0,2.6666666666666665,0.0
77,"101 E HIGH ST,TERRELL,TX,75160-2644",1.0,0.0,0.0,32.7383204,-96.27661871,1,0,2.0,0.0
78,"101 E RANDOL MILL RD STE 107,ARLINGTON,TX,76011-5800",1.0,1.0,0.0,32.750111499999996,-97.1061435,1,0,2.0,2.0
79,"101 E SOUTHWEST PKWY STE 103,LEWISVILLE,TX,75067-8753",0.25,0.0,0.0,33.01918348,-96.99254074,1,0,0.5,0.0
80,"101 JUNIORS PL,LA VERNIA,TX,78121-4886",1.0,1.0,0.0,29.35261769,-98.13256956,1,0,2.0,2.0
81,"101 N ERMA AVE,PRESIDIO,TX,79845-4466",0.8333333333333333,0.0,0.0,29.58704452,-104.36832109999999,1,0,1.6666666666666663,0.0
82,"101 NW RENFRO ST STE 106,BURLESON,TX,76028-4178",0.5,0.0,0.0,32.54309559,-97.32506908,1,0,1.0,0.0
83,"101 PARKING WAY ST STE B,LAKE JACKSON,TX,77566-5220",3.0769230769230766,0.0,0.0,29.03937318,-95.44886951,1,0,6.1538461538461515,0.0
84,"101 PARKLANE BLVD STE 301,SUGAR LAND,TX,77478-5522",3.0,0.0,0.0,29.62324055,-95.60412074,1,0,6.0,0.0
85,"101 S COIT RD STE 34,RICHARDSON,TX,75080-5746",2.0,0.0,0.0,32.94940445,-96.76881076,1,0,4.0,0.0
86,"101 SEAGRAVES RD,BROWNFIELD,TX,79316-5447",2.9261904761904765,0.0,0.0,33.17362064,-102.2757708,1,0,5.852380952380952,0.0
87,"101 W SPRING CREEK PKWY STE 732,PLANO,TX,75023-4631",2.5,0.023809523809523808,0.3666666666666665,33.05745548,-96.69477267,1,0,5.0,0.047619047619047616
88,"101 WILSON DR STE 107,FLORESVILLE,TX,78114-2854",1.1428571428571428,0.0,0.0,29.16215713,-98.17548951,1,0,2.2857142857142856,0.0
89,"1010 W AUDIE MURPHY PKWY,FARMERSVILLE,TX,75442-2523",1.0,0.0,0.0,33.1577953,-96.37500751,1,0,2.0,0.0
90,"10100 BEECHNUT ST STE 110,HOUSTON,TX,77072-5042",1.0,0.0,0.0,29.68976232,-95.55909709999999,1,0,2.0,0.0
91,"10101 BISSONNET ST STE B1,HOUSTON,TX,77036-7835",1.1428571428571428,0.0,0.0,29.67482056,-95.55625202,1,0,2.2857142857142856,0.0
92,"1011 E ENNIS AVE STE A,ENNIS,TX,75119-4352",0.16666666666666666,0.0,0.0,32.3326256,-96.61753629,1,0,0.3333333333333333,0.0
93,"1011 E ENNIS AVE,ENNIS,TX,75119-4351",0.953968253968254,1.0,0.0,32.3326256,-96.61753629,1,0,1.907936507936508,2.0
94,"1011 N HIGHWAY 77 STE 101,WAXAHACHIE,TX,75165-1798",0.3428571428571429,0.0,0.0,32.41439996,-96.84142601,1,0,0.6857142857142858,0.0
95,"1011 N HIGHWAY 77 STE 105,WAXAHACHIE,TX,75165-1798",4.019047619047618,0.0,0.2,32.41439996,-96.84142601,1,0,8.038095238095236,0.0
96,"10118 GRANT RD,HOUSTON,TX,77070-4508",1.0,0.0,0.0,29.96738542,-95.56928063,1,0,2.0,0.0
97,"1012 BAYBROOK MALL,FRIENDSWOOD,TX,77546-2744",0.75,0.0,0.0,29.53971051,-95.14936992,1,0,1.5,0.0
98,"1012 E ENNIS AVE STE C,ENNIS,TX,75119-4350",2.362760733418628,0.0,0.0,32.33293982,-96.61730111,1,0,4.725521466837256,0.0
99,"1012 E ENNIS AVE,ENNIS,TX,75119-4345",0.5545805357876297,0.0,0.0,32.33293982,-96.61730111,1,0,1.1091610715752591,0.0
100,"10121 LAKE JUNE RD STE 118,DALLAS,TX,75217-5345",2.3277777777777766,0.25882352941176473,0.0,32.73418746,-96.65013347,1,0,4.655555555555553,0.5176470588235295
101,"10123 LOUETTA RD STE 900,HOUSTON,TX,77070-2190",1.4105680868838764,0.0,0.12142857142857146,30.00053952,-95.56081925,1,0,2.8211361737677527,0.0
102,"10128 HAMMERLY BLVD,HOUSTON,TX,77080-5010",3.3547008547008548,0.0,0.07142857142857142,29.8128127,-95.54349468,1,0,6.7094017094017095,0.0
103,"1013 DAIRY ASHFORD RD,HOUSTON,TX,77079-4602",1.7376373626373631,0.0,0.0,29.77829941,-95.60649419,1,0,3.4752747252747263,0.0
104,"1013 W UNIVERSITY AVE STE 345,GEORGETOWN,TX,78628-5345",3.7982558139534883,0.0,0.0,30.63292248,-97.69580974,1,0,7.596511627906977,0.0
105,"10134 S HIGHWAY 6,SUGAR LAND,TX,77498-4938",1.3125,0.0,0.0,29.66717352,-95.64330047,1,0,2.625,0.0
106,"10139 HAMMERLY BLVD,HOUSTON,TX,77080-5014",2.0357142857142856,0.0,0.0,29.81260149,-95.54402249,1,0,4.071428571428571,0.0
107,"1015 E BRAKER LN # 2-3,AUSTIN,TX,78753-3449",2.0,0.0,0.0,30.37489468,-97.67161547,1,0,4.0,0.0
108,"1015 E HENRIETTA AVE,KINGSVILLE,TX,78363-4733",1.65,0.0,0.0,27.51886052,-97.85567216,1,0,3.3,0.0
109,"1015 E IRVING BLVD,IRVING,TX,75060-4350",1.6011904761904765,0.0,0.0,32.81108413,-96.9331882,1,0,3.202380952380953,0.0
110,"1015 SW 8TH AVE STE 2,AMARILLO,TX,79101-2031",1.0,0.0,0.0,35.20718268,-101.8495445,1,0,2.0,0.0
111,"1015 W 34TH ST,AUSTIN,TX,78705-2008",2.8123015873015875,1.8456709956709958,0.16666666666666666,30.30304672,-97.74552505,1,0,5.624603174603175,3.6913419913419916
112,"1016 E HEBRON PKWY STE 170,CARROLLTON,TX,75010-1021",0.3333333333333333,0.0,0.0,33.02102622,-96.91390394,1,0,0.6666666666666666,0.0
113,"10161 HIGHWAY 242,CONROE,TX,77385",0.5,0.0,0.0,30.20875357,-95.42510517,1,0,1.0,0.0
114,"1017  FORT WORTH ST  STE 100,GRAND PRAIRIE,TX,75050-5404",0.08333333333333333,0.0,0.0,32.74322251,-97.01774002,1,0,0.16666666666666666,0.0
115,"1017 E TRINITY MILLS RD STE 102,CARROLLTON,TX,75006-1458",0.6666666666666666,0.0,0.0,32.98382749,-96.90874198,1,0,1.3333333333333333,0.0
116,"1017 FORT WORTH ST STE 100,GRAND PRAIRIE,TX,75050-5404",3.296460892049127,0.0,0.14285714285714285,32.74322251,-97.01774002,1,0,6.592921784098254,0.0
117,"1017 W MAIN ST,TOMBALL,TX,77375-5525",0.0,0.0,0.5,30.09278151,-95.62543651,1,0,0.0,0.0
118,"10175 GATEWAY BLVD W # 304,EL PASO,TX,79925-7618",1.0,0.0,1.5,31.75727335,-106.352166,1,0,2.0,0.0
119,"10175 GATEWAY BLVD W STE 304,EL PASO,TX,79925-7618",0.5,0.0,1.0,31.75727335,-106.352166,1,0,1.0,0.0
120,"1018 FABENS RD,FABENS,TX,79838",2.418693693693694,0.0,1.0,31.50814143,-106.15114390000001,1,0,4.837387387387388,0.0
121,"1018 N ZANG BLVD STE 150,DALLAS,TX,75208-4141",0.5,0.0,0.0,32.75527631,-96.82350844,1,0,1.0,0.0
122,"1018 S WW WHITE RD,SAN ANTONIO,TX,78220-2531",0.2,0.0,0.0,29.4144365,-98.40549252,1,0,0.4,0.0
123,"10185 WESTVIEW DR,HOUSTON,TX,77043-4401",3.015151515151515,0.0,0.07142857142857142,29.79073452,-95.54868972,1,0,6.03030303030303,0.0
124,"102 BABCOCK RD STE 101,SAN ANTONIO,TX,78201-3960",3.208333333333333,0.0,0.0,29.47202976,-98.5341445,1,0,6.416666666666666,0.0
125,"102 N 7TH ST,ALPINE,TX,79830-4606",0.3333333333333333,0.0,0.0,30.36658944,-103.6679184,1,0,0.6666666666666666,0.0
126,"102 PALO ALTO RD STE 400,SAN ANTONIO,TX,78211-3793",1.0833333333333333,0.7,0.0,29.35344499,-98.55224301,1,0,2.1666666666666665,1.4
127,"102 W EL DORADO BLVD # C1,FRIENDSWOOD,TX,77546-6516",1.0434782608695652,0.0,0.0,29.551767699999996,-95.15659392,1,0,2.0869565217391304,0.0
128,"102 W EL DORADO BLVD STE C1,FRIENDSWOOD,TX,77546-6516",2.166666666666667,0.0,1.5,29.551767699999996,-95.15659392,1,0,4.333333333333334,0.0
129,"1020 FLOWER MOUND RD STE 110,FLOWER MOUND,TX,75028-3440",2.0,0.0,0.0,33.01036198,-97.04409578,1,0,4.0,0.0
130,"10200 BOULDER LN STE 300,AUSTIN,TX,78726-1889",1.5666666666666669,0.0,0.0,30.42850045,-97.8420898,1,0,3.1333333333333337,0.0
131,"1021 SW 3RD ST,GRAND PRAIRIE,TX,75051-3070",1.5,0.0,0.0,32.73258613,-97.00584081,1,0,3.0,0.0
132,"10210 SCYENE RD,DALLAS,TX,75227-4930",2.0,0.0,0.0,32.76221649,-96.64738952,1,0,4.0,0.0
133,"10215 SCYENE RD,DALLAS,TX,75227-4931",1.0018115942028984,0.0,0.0,32.76241047,-96.64735347,1,0,2.003623188405797,0.0
134,"10216 BEECHNUT ST,HOUSTON,TX,77072-5016",3.0,0.0,0.0,29.68948867,-95.56216042,1,0,6.0,0.0
135,"1022 PASADENA BLVD STE C,PASADENA,TX,77506-4764",1.0,0.0,0.0,29.69498674,-95.20106511,1,0,2.0,0.0
136,"10220 LOUETTA RD STE 400,HOUSTON,TX,77070-2180",2.533333333333333,0.0,0.0,29.99881273,-95.56458388,1,0,5.066666666666666,0.0
137,"10223 BROADWAY ST STE D1,PEARLAND,TX,77584-7881",2.25,0.0,0.0,29.55601552,-95.37990499,1,0,4.5,0.0
138,"1023 N EAST ST STE 100,RIO GRANDE CITY,TX,78582-2710",0.1111111111111111,0.0,0.0,26.386126399999995,-98.81572779,1,0,0.2222222222222222,0.0
139,"1023 N MOUND ST STE D,NACOGDOCHES,TX,75961-4453",2.0,0.0,0.05882352941176471,31.61182494,-94.64951623,1,0,4.0,0.0
140,"1024 S MAIN ST,MC GREGOR,TX,76657-1636",2.5,0.0,0.0,31.43285088,-97.40236633,1,0,5.0,0.0
141,"10245 KEMPWOOD DR STE C,HOUSTON,TX,77043-1840",0.125,0.0,0.0,29.82259077,-95.546176,1,0,0.25,0.0
142,"1025 S MASON RD STE B,KATY,TX,77450-3840",6.411512464144042,0.03333333333333333,1.4095238095238094,29.765196000000003,-95.75150033,1,0,12.823024928288085,0.06666666666666668
143,"1025 S MASON RD UNIT B,KATY,TX,77450-3840",0.06666666666666668,0.0,0.0,29.765196000000003,-95.75150033,1,0,0.13333333333333336,0.0
144,"1025 S MASON RD,KATY,TX,77450-3840",1.2900183150183149,0.0,0.1944444444444444,29.765196000000003,-95.75150033,1,0,2.5800366300366298,0.0
145,"1025 W HEBRON PKWY STE 114,CARROLLTON,TX,75010-1121",1.0,0.0,0.0,33.02031182,-96.91770599,1,0,2.0,0.0
146,"1026 E WHEATLAND RD,DUNCANVILLE,TX,75116-4914",2.0,1.6428571428571428,0.0,32.64745249,-96.88641338,1,0,4.0,3.2857142857142856
147,"10260 WESTHEIMER RD STE 540,HOUSTON,TX,77042-3129",1.0769230769230769,0.0,0.0,29.73700649,-95.55553443,1,0,2.1538461538461537,0.0
148,"1027 MAIN ST STE A,PASADENA,TX,77506-4500",0.3333333333333333,0.0,0.0,29.69468036,-95.20929987,1,0,0.6666666666666666,0.0
149,"103 E 28TH AVE,PAMPA,TX,79065-3016",3.6022682647253585,0.0,0.0,35.56921049,-100.96492049999999,1,0,7.204536529450718,0.0
150,"103 E NEVADA ST,SEYMOUR,TX,76380-2144",0.5,0.0,0.0,33.59218999,-99.26155947,1,0,1.0,0.0
151,"103 E OVILLA RD STE A,RED OAK,TX,75154-2490",0.8111111111111111,1.0,0.0,32.53175046,-96.81865351,1,0,1.6222222222222222,2.0
152,"103 E OVILLA RD UNIT A,RED OAK,TX,75154-2490",0.029411764705882363,0.0,0.0,32.53175046,-96.81865351,1,0,0.058823529411764726,0.0
153,"103 E OVILLA RD,RED OAK,TX,75154-2490",1.8333333333333333,0.0,0.1,32.53175046,-96.81865351,1,0,3.6666666666666665,0.0
154,"103 FLUOR DANIEL DR,SUGAR LAND,TX,77478-3995",2.0,2.0,0.0,29.60453489,-95.62748474,1,0,4.0,4.0
155,"103 N BRENTWOOD STE 400,LUFKIN,TX,75904-7147",6.255585871283548,0.0,0.19642857142857145,31.29837299,-94.72901617,1,0,12.511171742567095,0.0
156,"103 US HIGHWAY 281,MARBLE FALLS,TX,78654",0.0,2.0,0.0,30.565001000000002,-98.27439815,1,0,0.0,4.0
157,"103 W GIBSON ST STE 110,JASPER,TX,75951-4970",0.5,0.0,0.0,30.90873334,-94.00084245,1,0,1.0,0.0
158,"103 W US HIGHWAY 80 UNIT A,WHITE OAK,TX,75693-2003",1.4928571428571429,0.0,0.0,32.52063753,-94.86181666,1,0,2.9857142857142858,0.0
159,"1030 N CARRIER PKWY,GRAND PRAIRIE,TX,75050-3301",1.7916666666666663,0.0,0.0,32.75506837,-97.01806104,1,0,3.5833333333333326,0.0
160,"1030 NORWOOD PARK BLVD STE 324 # 324,AUSTIN,TX,78753-6609",0.14285714285714285,0.0,0.0,30.33882687,-97.69270722,1,0,0.2857142857142857,0.0
161,"1030 NORWOOD PARK BLVD STE 324,AUSTIN,TX,78753-6609",3.296192907334212,0.07142857142857142,0.0,30.33882687,-97.69270722,1,0,6.592385814668424,0.14285714285714285
162,"1030 NORWOOD PARK BLVD,AUSTIN,TX,78753-6600",1.9739468864468863,0.0,0.0,30.33882687,-97.69270722,1,0,3.9478937728937726,0.0
163,"1030 W ARKANSAS LN  STE 210,ARLINGTON,TX,76013-6377",0.037037037037037035,0.0,0.0,32.70643649,-97.11945279999999,1,0,0.07407407407407407,0.0
164,"1030 W ARKANSAS LN STE 210,ARLINGTON,TX,76013-6377",2.545432426111692,0.0,0.049249249249249255,32.70643649,-97.11945279999999,1,0,5.090864852223384,0.0
165,"1030 W ARKANSAS LN,ARLINGTON,TX,76013-6377",0.1111111111111111,0.0,0.0,32.70643649,-97.11945279999999,1,0,0.2222222222222222,0.0
166,"10304 BLACKHAWK BLVD,HOUSTON,TX,77089-2798",1.5,0.0,0.0,29.59362631,-95.24470239,1,0,3.0,0.0
167,"10311 N ELDRIDGE PKWY STE B7,HOUSTON,TX,77065-5369",0.16666666666666666,0.0,0.0,29.92291714,-95.60570793,1,0,0.3333333333333333,0.0
168,"10325 LAKE JUNE RD STE 500,DALLAS,TX,75217-5304",3.9804385390123938,0.5619453044375645,0.35,32.734827,-96.64574036,1,0,7.9608770780247875,1.1238906088751293
169,"10325 LAKE JUNE RD STE 700,DALLAS,TX,75217-5320",4.662351241945513,0.023809523809523808,0.15347222222222226,32.73418052,-96.64653249,1,0,9.324702483891024,0.047619047619047616
170,"10325 LAKE JUNE RD,DALLAS,TX,75217-5312",0.02631578947368421,0.0,0.03333333333333333,32.73418052,-96.64653249,1,0,0.05263157894736842,0.0
171,"10338 S PADRE ISLAND DR # 2,CORPUS CHRISTI,TX,78418-4451",1.0,0.0,0.0,27.66900295,-97.2831074,1,0,2.0,0.0
172,"1034 N WILLIS ST,ABILENE,TX,79603-4622",3.707413419913419,0.060606060606060615,0.0,32.46217304,-99.76410342,1,0,7.414826839826838,0.12121212121212124
173,"1035 HICKORY CREEK BLVD # 110,HICKORY CREEK,TX,75065-7552",0.4332579185520362,0.0,0.0,33.128172,-97.04377581,1,0,0.8665158371040724,0.0
174,"1035 HICKORY CREEK BLVD STE 110,HICKORY CREEK,TX,75065-7552",0.2833333333333333,0.0,0.0,33.128172,-97.04377581,1,0,0.5666666666666667,0.0
175,"1035 HICKORY CREEK BLVD,HICKORY CREEK,TX,75065-7552",0.4444444444444444,0.0,0.0,33.128172,-97.04377581,1,0,0.8888888888888888,0.0
176,"10350 S POST OAK RD STE H,HOUSTON,TX,77035-3319",1.0,0.0,0.0,29.66849775,-95.46284272,1,0,2.0,0.0
177,"1036 TOWN EAST MALL,MESQUITE,TX,75150-4116",2.914285714285714,0.0,0.0,32.80848262,-96.62074702,1,0,5.828571428571428,0.0
178,"10360 HIGHWAY 6 STE C,MISSOURI CITY,TX,77459-4730",0.2,0.0,0.0,29.53121373,-95.50892311,1,0,0.4,0.0
179,"104 E CAMP WISDOM RD,DUNCANVILLE,TX,75116-2702",0.020833333333333332,0.0,0.0,32.66186808,-96.90594258,1,0,0.041666666666666664,0.0
180,"104 S MAIN ST,JACKSBORO,TX,76458-2318",0.07692307692307693,0.0,0.0,33.21805651,-98.15885442,1,0,0.15384615384615385,0.0
181,"104 S PARK DR,BROWNWOOD,TX,76801-5918",1.0,0.0,0.0,31.680588399999998,-98.9954135,1,0,2.0,0.0
182,"104 W 3RD ST,QUANAH,TX,79252-4034",2.0,0.0,0.0,34.29781081,-99.73972594,1,0,4.0,0.0
183,"104 W CAMP WISDOM RD,DUNCANVILLE,TX,75116-3327",4.6729999831249005,0.07644110275689223,0.1701388888888889,32.66185008,-96.90729767,1,0,9.345999966249801,0.15288220551378445
184,"10407 NORTH FWY STE B,HOUSTON,TX,77037-1136",1.3333333333333333,0.0,0.0,29.91828383,-95.41303645,1,0,2.6666666666666665,0.0
185,"10407 NORTH FWY UNIT B,HOUSTON,TX,77037-1136",0.3333333333333333,0.0,0.0,29.91828383,-95.41303645,1,0,0.6666666666666666,0.0
186,"10411 VETERANS MEMORIAL DR,HOUSTON,TX,77038-1501",2.2580461205461195,0.1111111111111111,0.1938061938061938,29.92716951,-95.45197752,1,0,4.516092241092238,0.2222222222222222
187,"10424 INTERSTATE 10 E STE 300,BAYTOWN,TX,77523-1201",1.3095238095238095,0.0,0.0,29.8209673,-94.89775071,1,0,2.619047619047619,0.0
188,"10434 RICHMOND AVE,HOUSTON,TX,77042-5002",0.2,0.0,0.0,29.72773351,-95.55900205,1,0,0.4,0.0
189,"10435 GREENBOUGH DR STE 300,STAFFORD,TX,77477-5034",3.25,0.0,0.0,29.62115944,-95.56233482,1,0,6.5,0.0
190,"1045 NORWOOD PARK BLVD STE 103,AUSTIN,TX,78753-6671",1.4761904761904758,0.0,0.0,30.337649900000002,-97.69231529,1,0,2.952380952380952,0.0
191,"10455 N CENTRAL EXPY STE 113,DALLAS,TX,75231-2229",2.5319564734621363,0.0,0.0,32.88895109,-96.77016314,1,0,5.0639129469242725,0.0
192,"10497 TOWN AND COUNTRY WAY STE 410,HOUSTON,TX,77024-1130",1.0,0.0,0.0,29.78140549,-95.55549032,1,0,2.0,0.0
193,"105 BELLVUE DR,FORT WORTH,TX,76134-5416",2.079210372960373,0.0,0.0,32.64113849,-97.322562,1,0,4.158420745920746,0.0
194,"105 E MILLER ST,DILLEY,TX,78017-3924",0.5,0.0,0.0,28.66894443,-99.16897835,1,0,1.0,0.0
195,"105 N CESAR CHAVEZ RD # 2,SAN JUAN,TX,78589-4504",0.225,0.0,0.0,26.18618427,-98.13505298,1,0,0.45,0.0
196,"105 N CESAR CHAVEZ RD STE 2,SAN JUAN,TX,78589-4504",0.125,0.0,0.0,26.18618427,-98.13505298,1,0,0.25,0.0
197,"105 N CESAR CHAVEZ RD,SAN JUAN,TX,78589-4504",0.125,0.0,0.0,26.18618427,-98.13505298,1,0,0.25,0.0
198,"105 S CESAR CHAVEZ RD STE 2,SAN JUAN,TX,78589-5203",2.8972222222222217,0.0,0.0,26.18587096,-98.13510086,1,0,5.794444444444442,0.0
199,"105 US HIGHWAY 287 N,RHOME,TX,76078",1.1666666666666667,0.0,0.0,33.04550116,-97.47180964,1,0,2.333333333333333,0.0
200,"1050 N WESTMORELAND RD # 432B,DALLAS,TX,75211-2444",0.5,0.0,0.0,32.75556363,-96.87398081,1,0,1.0,0.0
201,"1050 N WESTMORELAND RD,DALLAS,TX,75211-2444",1.3333333333333333,0.0,0.0,32.75556363,-96.87398081,1,0,2.6666666666666665,0.0
202,"1050 SUNLAND PARK DR # B200,EL PASO,TX,79922-1326",1.4791666666666663,0.0,0.0,31.81357678,-106.5558085,1,0,2.9583333333333326,0.0
203,"1050 SUNLAND PARK DR,EL PASO,TX,79922-1326",1.125,0.0,0.0,31.81357678,-106.5558085,1,0,2.25,0.0
204,"10501 GATEWAY BLVD W STE 107,EL PASO,TX,79925-7956",2.0234126984126983,0.0,0.0,31.75356436,-106.3461884,1,0,4.046825396825397,0.0
205,"10510 MONTWOOD DR STE D,EL PASO,TX,79935-2703",2.333333333333333,0.0,0.0,31.77200252,-106.3356301,1,0,4.666666666666666,0.0
206,"10510 W PARMER LN STE 100,AUSTIN,TX,78717-4876",1.7057109557109558,0.775,0.0,30.49611525,-97.77454405,1,0,3.4114219114219115,1.55
207,"10515 BELLAIRE BLVD STE K,HOUSTON,TX,77072-5235",2.5666666666666664,1.0,0.0625,29.70390057,-95.56674008,1,0,5.133333333333333,2.0
208,"10515 BELLAIRE BLVD,HOUSTON,TX,77072-5234",1.5,0.0,0.0,29.70390057,-95.56674008,1,0,3.0,0.0
209,"1055 CYPRESS CREEK PKWY,HOUSTON,TX,77090-2523",2.492756760148065,0.03333333333333333,1.1838235294117647,30.01569654,-95.44758191,1,0,4.98551352029613,0.06666666666666668
210,"1055 FM 1960 RD,HOUSTON,TX,77073-2011",0.9744569757727652,0.0,0.0,30.02495293,-95.41355153,1,0,1.9489139515455305,0.0
211,"1055 SW WILSHIRE BLVD # 101,BURLESON,TX,76028-8727",0.8794105063947373,1.0,0.0,32.5274513,-97.34157853,1,0,1.7588210127894746,2.0
212,"1055 SW WILSHIRE BLVD STE 101A,BURLESON,TX,76028-8727",0.14285714285714285,0.0,0.0,32.5274513,-97.34157853,1,0,0.2857142857142857,0.0
213,"10550 W BELLFORT ST STE 140,HOUSTON,TX,77031-1934",1.0909090909090908,0.0,0.0,29.65361249,-95.56430401,1,0,2.1818181818181817,0.0
214,"10555 PEARLAND PKWY STE L,HOUSTON,TX,77089-2676",0.16666666666666666,0.0,0.0,29.59784061,-95.26615090000001,1,0,0.3333333333333333,0.0
215,"1055FM1960 RD W,HOUSTON,TX,77090",0.0,0.0,0.05882352941176471,30.02124550000001,-95.44165219,1,0,0.0,0.0
216,"10581 S HIGHWAY 6 STE 105,SUGAR LAND,TX,77498-4907",0.5769230769230769,0.0,0.5,29.66208826,-95.64363349999999,1,0,1.1538461538461535,0.0
217,"106 E CORPUS CHRISTI ST STE C,BEEVILLE,TX,78102-5631",1.5,0.0,0.0,28.4022645,-97.74754874,1,0,3.0,0.0
218,"106 E CORPUS CHRISTI ST,BEEVILLE,TX,78102-5600",0.09090909090909093,0.0,0.0,28.4022645,-97.74754874,1,0,0.18181818181818185,0.0
219,"106 E MAIN ST,GRAND PRAIRIE,TX,75050-5721",2.8623426041136164,0.1859164678239012,0.17752525252525253,32.74551544,-97.0032323,1,0,5.724685208227233,0.3718329356478024
220,"106 SHULT DR STE A,COLUMBUS,TX,78934-3019",0.07692307692307693,0.0,0.0,29.69431791,-96.54261884,1,0,0.15384615384615385,0.0
221,"106 SHULT DR,COLUMBUS,TX,78934-3016",2.9954545454545456,0.0,0.0,29.69431791,-96.54261884,1,0,5.990909090909091,0.0
222,"106 TRULY PLZ,CLEVELAND,TX,77327-4889",3.3423633749291644,0.0,0.1,30.33470783,-95.09587813,1,0,6.68472674985833,0.0
223,"106 W GRAY ST STE B,HOUSTON,TX,77019-5509",1.0909090909090908,0.0,0.7208333333333333,29.75320388,-95.37897653,1,0,2.1818181818181817,0.0
224,"106 W GRAY ST,HOUSTON,TX,77019-5509",0.4166666666666666,0.05833333333333333,1.0833333333333333,29.75320388,-95.37897653,1,0,0.8333333333333331,0.11666666666666665
225,"1060 N MAIN ST STE 103,EULESS,TX,76039-3366",1.4761904761904765,0.0,0.0,32.85019894,-97.08256928,1,0,2.952380952380953,0.0
226,"10603 BELLAIRE BLVD STE B102,HOUSTON,TX,77072-5222",3.5,0.0,0.0,29.70384953,-95.56805208,1,0,7.0,0.0
227,"10603 FUQUA ST STE D,HOUSTON,TX,77089-2630",1.0,0.0,0.0,29.61151149,-95.227281,1,0,2.0,0.0
228,"10603 FUQUA ST,HOUSTON,TX,77089-2630",1.0,0.0,0.0,29.61151149,-95.227281,1,0,2.0,0.0
229,"10611 GARLAND RD STE 205,DALLAS,TX,75218-4807",0.125,0.0,0.0,32.84391849,-96.68984976,1,0,0.25,0.0
230,"10614 WESTHEIMER RD,HOUSTON,TX,77042-3405",2.1111111111111107,0.0,0.0,29.73696046,-95.56398322,1,0,4.2222222222222205,0.0
231,"10620 SABO RD STE A,HOUSTON,TX,77089-1656",1.0,0.0,0.0,29.61479471,-95.22546053,1,0,2.0,0.0
232,"10630 CULEBRA RD,SAN ANTONIO,TX,78251-1320",4.025385300184204,0.03225806451612903,0.5013237210817856,29.49253304,-98.70083108,1,0,8.050770600368407,0.06451612903225806
233,"10650 CULEBRA RD STE 136,SAN ANTONIO,TX,78251-4950",1.0909090909090908,0.0,0.0,29.49287099,-98.70168266,1,0,2.1818181818181817,0.0
234,"10670 N LOOP DR,SOCORRO,TX,79927-4613",1.125,0.0,0.0,31.65372906,-106.26923629999999,1,0,2.25,0.0
235,"10680 JONES RD STE 800,HOUSTON,TX,77065-5701",1.2,0.0,0.0,29.92838361,-95.58472175,1,0,2.4,0.0
236,"107 CARLOS G PARKER BLVD NW,TAYLOR,TX,76574-7054",0.0,0.7,0.0,30.60024239,-97.41946582,1,0,0.0,1.4
237,"107 N 1ST ST STE A,GARLAND,TX,75040-6558",1.5,0.023809523809523808,0.3666666666666665,32.9124593,-96.6308642,1,0,3.0,0.047619047619047616
238,"107 N 1ST ST STE B,GARLAND,TX,75040-6558",0.3686868686868687,0.5333333333333333,0.0,32.9124593,-96.6308642,1,0,0.7373737373737373,1.0666666666666669
239,"107 N 1ST ST,GARLAND,TX,75040-6539",0.95,0.0,0.0,32.9124593,-96.6308642,1,0,1.9,0.0
240,"107 N CEDAR RIDGE DR STE 100,DUNCANVILLE,TX,75116-3181",2.0,0.0,0.0,32.65228799,-96.92581609999999,1,0,4.0,0.0
241,"107 S 1ST ST,GARLAND,TX,75040-7219",0.0,0.0,0.5,32.91197926,-96.63087253,1,0,0.0,0.0
242,"107 YALE ST STE 300,HOUSTON,TX,77007-3754",3.2625,0.0,0.0,29.77342149,-95.39867265,1,0,6.525,0.0
243,"107 YALE ST,HOUSTON,TX,77007-3753",1.0658119658119658,0.0,0.0,29.77342149,-95.39867265,1,0,2.131623931623932,0.0
244,"10701 W BELLFORT ST STE 194,HOUSTON,TX,77099-4778",1.0,0.0,0.0,29.65418238,-95.56696032,1,0,2.0,0.0
245,"10703 E CRYSTAL FALLS PKWY,LEANDER,TX,78641-2259",3.0,0.0,0.0,30.56134044,-97.83367115,1,0,6.0,0.0
246,"10705 GATEWAY BLVD W STE J,EL PASO,TX,79935-4921",1.1944444444444444,0.0,0.0,31.750971399999997,-106.3419871,1,0,2.3888888888888893,0.0
247,"1071 W ROUND GROVE RD STE 800,LEWISVILLE,TX,75067-7924",1.25,0.0,0.0,33.00595548,-97.01744405,1,0,2.5,0.0
248,"10710 ELDORADO PKWY STE 140,FRISCO,TX,75035-5929",1.25,0.0,0.0,33.1746713,-96.78739419,1,0,2.5,0.0
249,"1072 FEDERAL RD,HOUSTON,TX,77015-4804",6.714472730785393,0.1111111111111111,0.3297711060868955,29.77227737,-95.21508581,1,0,13.428945461570786,0.2222222222222222
250,"10720 FM-1960 W,HOUSTON,TX,77070",1.0,0.0,0.0,29.93497549,-95.58166015,1,0,2.0,0.0
251,"10722 POTRANCO RD STE 109,SAN ANTONIO,TX,78251-3315",0.1,0.0,0.0,29.43559502,-98.70423984,1,0,0.2,0.0
252,"10722 POTRANCO RD,SAN ANTONIO,TX,78251-3314",1.0,0.0,0.0,29.43559502,-98.70423984,1,0,2.0,0.0
253,"10750 BARKER CYPRESS RD STE 111,CYPRESS,TX,77433-2282",1.8333333333333333,1.0,0.0,29.93729879,-95.68095468,1,0,3.6666666666666665,2.0
254,"10760 N LOOP DR STE A3,SOCORRO,TX,79927-4689",1.0,0.0,0.0,31.65233067,-106.268056,1,0,2.0,0.0
255,"108 E US HIGHWAY 80 STE 190,FORNEY,TX,75126-8698",2.0,0.0,0.0,32.7549142,-96.46518449,1,0,4.0,0.0
256,"108 W 2ND ST,MULESHOE,TX,79347-3629",2.0,0.0,0.0,34.22683408,-102.725048,1,0,4.0,0.0
257,"1080 E CARTWRIGHT RD,MESQUITE,TX,75149-6621",0.03571428571428571,1.0,0.0,32.745089899999996,-96.58088007,1,0,0.07142857142857142,2.0
258,"1080 FM 3009,SCHERTZ,TX,78154-2726",2.283333333333333,0.4583333333333333,0.0,29.56876098,-98.25913220000001,1,0,4.566666666666666,0.9166666666666666
259,"10801 N MOPAC EXPY  BLDG 2,AUSTIN,TX,78759-5459",1.0,0.0,0.3333333333333333,30.39723252,-97.73142507,1,0,2.0,0.0
260,"10801 N MOPAC EXPY BLDG 2 # 130,AUSTIN,TX,78759-5459",0.0,0.0,0.3333333333333333,30.39723252,-97.73142507,1,0,0.0,0.0
261,"10804 HUFFMEISTER RD STE D,HOUSTON,TX,77065-3178",2.0,0.0,0.0,29.93150563,-95.62860079,1,0,4.0,0.0
262,"10804 S POST OAK RD STE 100,HOUSTON,TX,77035-3100",0.16666666666666666,0.0,0.0,29.66343146,-95.46422326,1,0,0.3333333333333333,0.0
263,"10806 W BELLFORT ST,HOUSTON,TX,77099-4751",4.25,0.0,0.0,29.65509354,-95.56923539,1,0,8.5,0.0
264,"10815 BEECHNUT ST STE 131,HOUSTON,TX,77072-4491",1.0,0.0,0.0,29.68858795,-95.56882858,1,0,2.0,0.0
265,"10815 VETERANS MEMORIAL DR STE 1000,HOUSTON,TX,77067-3845",1.25,0.0,0.0,29.94121652,-95.46282401,1,0,2.5,0.0
266,"10830 BELLAIRE BLVD,HOUSTON,TX,77072-2736",5.921881684295872,0.5131313131313131,0.4688375350140056,29.70400947,-95.57029344,1,0,11.843763368591745,1.0262626262626262
267,"10830 N CENTRAL EXPY STE 475,DALLAS,TX,75231-1000",0.25,0.0,0.0,32.89623363,-96.76869023,1,0,0.5,0.0
268,"10842 POTRANCO RD STE 115,SAN ANTONIO,TX,78251-3346",1.363722796811032,0.0,0.2,29.43560753,-98.70863383,1,0,2.727445593622064,0.0
269,"10842 POTRANCO RD,SAN ANTONIO,TX,78251-3307",0.14285714285714285,0.0,0.0,29.43560753,-98.70863383,1,0,0.2857142857142857,0.0
270,"10851 GATEWAY BLVD S STE B,EL PASO,TX,79934-3618",1.0,0.0,0.0,31.93134343,-106.4242219,1,0,2.0,0.0
271,"10857 KUYKENDAHL RD STE 100,THE WOODLANDS,TX,77382-2936",2.0,0.0,0.0,30.17669975,-95.53723302,1,0,4.0,0.0
272,"10857 KUYKENDAHL RD STE 150,THE WOODLANDS,TX,77382-2937",1.0,0.0,1.25,30.17669975,-95.53723302,1,0,2.0,0.0
273,"10865 SHAENFIELD RD STE 1108,SAN ANTONIO,TX,78254-9617",1.25,0.0,0.0,29.51992302,-98.70681172,1,0,2.5,0.0
274,"109 E AVENUE J,ROBSTOWN,TX,78380-2347",3.3051948051948052,1.0,0.0,27.79987711,-97.66631704,1,0,6.6103896103896105,2.0
275,"109 E LORRAIN ST,ANGLETON,TX,77515-3245",1.0,0.0,0.0,29.17598048,-95.43157334,1,0,2.0,0.0
276,"109 N 4TH AVE,TEAGUE,TX,75860-1601",1.0,0.0,0.0,31.62752312,-96.28405309,1,0,2.0,0.0
277,"109 S 6TH ST,ALAMO,TX,78516-2541",3.1333333333333333,0.0,0.0,26.18154926,-98.11405227,1,0,6.2666666666666675,0.0
278,"1090 N MAIN ST,VIDOR,TX,77662-4357",1.0,0.0,0.0,30.13768491,-94.01610926,1,0,2.0,0.0
279,"10900 LAKELINE MALL DR STE 250,AUSTIN,TX,78717-5939",1.1111111111111112,0.0,0.0,30.47450154,-97.7963127,1,0,2.2222222222222223,0.0
280,"10901 GARLAND RD,DALLAS,TX,75218-2613",2.8148415308681534,0.0,0.027027027027027032,32.84574269,-96.68764155,1,0,5.629683061736307,0.0
281,"10904 SCARSDALE BLVD STE 100,HOUSTON,TX,77089-6034",1.5269230769230768,0.0,0.0,29.58559147,-95.2123864,1,0,3.0538461538461537,0.0
282,"10905 WURZBACH RD,SAN ANTONIO,TX,78230-2501",1.625,1.5909090909090908,0.0,29.54069689,-98.55249051,1,0,3.25,3.1818181818181817
283,"10909 WEBB CHAPEL RD # 121 # 121,DALLAS,TX,75229-3739",0.11559139784946235,0.0,0.0,32.8972078,-96.87110406,1,0,0.2311827956989247,0.0
284,"10909 WEBB CHAPEL RD # 121,DALLAS,TX,75229-3739",2.6814807580394944,0.0,0.07782067782067782,32.8972078,-96.87110406,1,0,5.362961516078989,0.0
285,"10909 WEBB CHAPEL RD STE 121,DALLAS,TX,75229-3739",0.9700611445292296,0.0,0.043478260869565216,32.8972078,-96.87110406,1,0,1.9401222890584595,0.0
286,"10909 WEBB CHAPEL RD,DALLAS,TX,75229-3739",4.3006549006549015,0.0,0.0,32.8972078,-96.87110406,1,0,8.601309801309803,0.0
287,"10910 MARBACH RD,SAN ANTONIO,TX,78245",1.0769230769230769,0.0,0.0,29.40511266,-98.70309467,1,0,2.1538461538461537,0.0
288,"10911 BAMMEL NORTH HOUSTON RD STE 234,HOUSTON,TX,77086-1434",2.5,0.0,0.0,29.935709999999997,-95.49795568,1,0,5.0,0.0
289,"10911 EAST FWY,HOUSTON,TX,77029-1911",2.747985347985348,0.07692307692307693,0.02325581395348837,29.77417188,-95.23664129999999,1,0,5.495970695970696,0.15384615384615385
290,"10917 SCARSDALE BLVD,HOUSTON,TX,77089-6024",1.0,0.0,0.0,29.58597349,-95.2123532,1,0,2.0,0.0
291,"10925 BEECHNUT ST STE A110,HOUSTON,TX,77072-4351",1.0769230769230769,0.0,0.0,29.6880096,-95.57182718,1,0,2.1538461538461537,0.0
292,"10928 EAST FWY,JACINTO CITY,TX,77029-1912",2.0,0.0,0.0,29.77330594,-95.23617041,1,0,4.0,0.0
293,"10935 ROLATER RD,FRISCO,TX,75035",1.5,0.0,0.0,33.13865956,-96.7850104,1,0,3.0,0.0
294,"10936A NORTH FWY,HOUSTON,TX,77037-1108",2.4318181818181817,0.09108159392789376,0.0,29.92348822,-95.41177361,1,0,4.863636363636363,0.18216318785578756
295,"10950 BISSONNET ST STE 260,HOUSTON,TX,77099-1718",0.725,0.0,0.0,29.67442945,-95.57244116,1,0,1.45,0.0
296,"10961 NORTH FWY STE 104,HOUSTON,TX,77037-1139",2.3833333333333333,0.0,0.0,29.92539737,-95.41256561,1,0,4.766666666666667,0.0
297,"10978 MONTWOOD DR STE B,EL PASO,TX,79935-3030",0.25,0.0,0.0,31.768835499999998,-106.3203615,1,0,0.5,0.0
298,"110 CHURCH ST,MARLIN,TX,76661-2809",0.7238095238095238,0.0,0.2,31.308525500000002,-96.89669002,1,0,1.4476190476190476,0.0
299,"110 LEE ST,WICHITA FALLS,TX,76301-1128",1.0,0.0,0.0,33.92060382,-98.49244773,1,0,2.0,0.0
300,"110 N HIGHWAY 175 STE 106,SEAGOVILLE,TX,75159-1843",1.8694908814589664,0.0,0.0,32.64775424,-96.53537779999999,1,0,3.7389817629179327,0.0
301,"110 N HIGHWAY 175,SEAGOVILLE,TX,75159-1843",0.03333333333333333,0.0,0.0,32.64775424,-96.53537779999999,1,0,0.06666666666666668,0.0
302,"110 N INTERSTATE 35 STE 380,ROUND ROCK,TX,78681-5014",5.195991561181434,0.0,0.25,30.50855774,-97.68627059999999,1,0,10.391983122362868,0.0
303,"110 PROFESSIONAL PARK DR,VICTORIA,TX,77904-2351",3.0,0.0,0.0,28.84116172,-96.98670423,1,0,6.0,0.0
304,"110 W WILLIAM CANNON DR STE 401,AUSTIN,TX,78745-5689",1.0,0.0,0.0,30.1933428,-97.77937424,1,0,2.0,0.0
305,"1100 E BARDIN RD STE 120,ARLINGTON,TX,76018-1290",1.3333333333333333,0.0,0.0,32.67253398,-97.0906098,1,0,2.6666666666666665,0.0
306,"1100 E PLEASANT RUN RD STE 175,DESOTO,TX,75115-4293",1.2333333333333334,0.0,0.0,32.60412448,-96.83030233,1,0,2.466666666666667,0.0
307,"1100 LOWES BLVD # 100,KILLEEN,TX,76542-5491",0.7211911623493606,0.2857142857142857,0.0,31.09213179,-97.73184766,1,0,1.4423823246987213,0.5714285714285714
308,"1100 LOWES BLVD STE 100,KILLEEN,TX,76542-5491",2.63395952693496,0.0,0.1748663101604278,31.09213179,-97.73184766,1,0,5.26791905386992,0.0
309,"1100 LOWES BLVD,KILLEEN,TX,76542-5491",0.5600579975579976,0.0,0.1,31.09213179,-97.73184766,1,0,1.1201159951159951,0.0
310,"1100 W PIONEER DR,IRVING,TX,75061-7213",1.880952380952381,0.0,0.0,32.8212577,-96.95955378,1,0,3.761904761904762,0.0
311,"1100 W REYNOSA AVE,DE LEON,TX,76444-1630",1.0,0.0,0.0,32.11109307,-98.54642858,1,0,2.0,0.0
312,"11000 FONDREN RD STE 105,HOUSTON,TX,77096-5513",0.6666666666666666,0.1142857142857143,0.25,29.66019643,-95.50859359,1,0,1.3333333333333333,0.2285714285714286
313,"11000 FONDREN RD STE B105,HOUSTON,TX,77096-5525",0.0,0.5476190476190477,0.0,29.66019643,-95.50859359,1,0,0.0,1.0952380952380951
314,"11000 GARLAND RD,DALLAS,TX,75218-2615",1.4166666666666663,0.0,0.0,32.8463575,-96.68655409,1,0,2.8333333333333326,0.0
315,"11001 FONDREN RD STE B,HOUSTON,TX,77096-5676",2.0,0.0,0.0,29.66032702,-95.50838188,1,0,4.0,0.0
316,"11001 FONDREN RD,HOUSTON,TX,77096-5594",1.0,0.0,0.0,29.66032702,-95.50838188,1,0,2.0,0.0
317,"11007 JONES RD,HOUSTON,TX,77070-6301",3.3212102225260116,1.0333333333333334,0.24264705882352944,29.93368583,-95.58497516,1,0,6.642420445052023,2.066666666666667
318,"1101 JAMES ST,ROSENBERG,TX,77471-3146",1.0,0.0,0.0,29.55682825,-95.81756139,1,0,2.0,0.0
319,"1101 N MAIN ST # 100,EULESS,TX,76039-2730",1.0785867102246414,0.0,0.020833333333333332,32.852277,-97.08258523,1,0,2.1571734204492827,0.0
320,"1101 N MAIN ST STE 100,EULESS,TX,76039-2730",1.636654262527529,0.03225806451612903,0.6759810082390728,32.852277,-97.08258523,1,0,3.273308525055058,0.06451612903225806
321,"1101 N MAIN ST,EULESS,TX,76039-2730",0.7648719493878388,0.0,0.3734848484848485,32.852277,-97.08258523,1,0,1.5297438987756775,0.0
322,"1101 STONE ST STE 106,KILGORE,TX,75662-5814",2.0051587301587297,0.0,0.0,32.39208239,-94.86742876,1,0,4.010317460317459,0.0
323,"1102 BARCLAY ST,SAN ANTONIO,TX,78207-7161",4.309523809523808,0.25,0.0,29.40966271,-98.54303034,1,0,8.619047619047617,0.5
324,"1102 MAIN ST,TEXARKANA,TX,75501-4313",0.5,0.0,1.0,33.42941612,-94.04914435,1,0,1.0,0.0
325,"1102 N 16TH ST,ORANGE,TX,77630-3606",1.0,0.0,0.0,30.10079677,-93.74718926,1,0,2.0,0.0
326,"1102 PINEMONT DR STE A,HOUSTON,TX,77018-1323",1.0,0.0,0.0,29.840991499999998,-95.42298341,1,0,2.0,0.0
327,"11020 AIRLINE DR,HOUSTON,TX,77037-1112",3.4521811521811525,0.07692307692307693,0.0,29.91616305,-95.40525042,1,0,6.904362304362304,0.15384615384615385
328,"1103 ROCK PRAIRIE RD # 1001,COLLEGE STATION,TX,77845-8344",0.0,0.6666666666666666,0.0,30.57836214,-96.29974771,1,0,0.0,1.3333333333333333
329,"1103 ROCK PRAIRIE RD STE 1001,COLLEGE STATION,TX,77845-8344",0.0,1.6666666666666663,0.0,30.57836214,-96.29974771,1,0,0.0,3.3333333333333326
330,"1103 ROCK PRAIRIE RD UNIT 1001,COLLEGE STATION,TX,77845-8344",1.0,1.0,0.0,30.57836214,-96.29974771,1,0,2.0,2.0
331,"1103 S JOSEY LN STE 707,CARROLLTON,TX,75006-7389",2.7963140362053407,0.0,0.0,32.95253242,-96.89017733,1,0,5.592628072410681,0.0
332,"1103 S JOSEY LN,CARROLLTON,TX,75006-7680",1.4761904761904765,0.0,0.0,32.95253242,-96.89017733,1,0,2.952380952380953,0.0
333,"1103 W STAN SCHLUETER LOOP,KILLEEN,TX,76549",1.453968253968254,0.5714285714285714,0.0,31.07827199,-97.75880934,1,0,2.9079365079365083,1.1428571428571428
334,"1104 18TH ST,HONDO,TX,78861-1833",2.0,0.0,0.0,29.3483135,-99.14083152,1,0,4.0,0.0
335,"1104 JEFFERSON AVE,SEGUIN,TX,78155-5910",1.0,0.0,0.0,29.56630051,-97.98257266,1,0,2.0,0.0
336,"1104 W SAM HOUSTON BLVD STE A,PHARR,TX,78577-5104",2.0,0.0,0.0,26.18993334,-98.19987991,1,0,4.0,0.0
337,"1104 W SAM HOUSTON BLVD UNIT A,PHARR,TX,78577-5104",0.488034188034188,0.0,0.0,26.18993334,-98.19987991,1,0,0.976068376068376,0.0
338,"1104 W SAM HOUSTON BLVD,PHARR,TX,78577-5104",1.885353535353536,0.26785714285714285,0.0,26.18993334,-98.19987991,1,0,3.770707070707072,0.5357142857142857
339,"11041 SHADOW CREEK PKWY STE 125,PEARLAND,TX,77584-7405",1.0,0.3333333333333333,1.0,29.58025334,-95.39074286,1,0,2.0,0.6666666666666666
340,"11049 FM 1960 RD W STE A,HOUSTON,TX,77065-4978",2.083333333333333,0.0,0.0,29.9302386,-95.58930624,1,0,4.166666666666666,0.0
341,"1105 E JAMES ST,BAYTOWN,TX,77520-5821",2.0,0.0,0.0,29.73152035,-94.9548884,1,0,4.0,0.0
342,"1106 BROADNAX ST,DAINGERFIELD,TX,75638-1030",1.3333333333333333,1.0,0.0,33.040683,-94.72578822,1,0,2.6666666666666665,2.0
343,"1106 N MECHANIC ST # A,EL CAMPO,TX,77437-3030",0.5,0.0,0.0,29.20563552,-96.27705674,1,0,1.0,0.0
344,"1106 N MECHANIC ST,EL CAMPO,TX,77437-3030",0.5,0.0,0.0,29.20563552,-96.27705674,1,0,1.0,0.0
345,"1107 E MARSHALL AVE,LONGVIEW,TX,75601-5602",2.5,0.0,0.0,32.50325731,-94.72426512,1,0,5.0,0.0
346,"1107 GESSNER RD STE A,HOUSTON,TX,77055-6042",2.25,0.0,0.0,29.78884408,-95.54465341,1,0,4.5,0.0
347,"1107 W RANDOL MILL RD,ARLINGTON,TX,76012-2515",1.0,0.0,0.5,32.7501695,-97.12206359999999,1,0,2.0,0.0
348,"1108 N MECHANIC ST,EL CAMPO,TX,77437-3030",5.172377622377622,0.0,0.0,29.20575252,-96.27715672,1,0,10.344755244755245,0.0
349,"1108 W DICKINSON BLVD STE B,FORT STOCKTON,TX,79735-4201",1.0,0.0,0.0,30.89398863,-102.89012729999999,1,0,2.0,0.0
350,"1108 W PARKER RD STE 112,PLANO,TX,75075-2245",0.09090909090909093,0.0,0.0,33.04088457,-96.71742572,1,0,0.18181818181818185,0.0
351,"1109 NORTHWEST HWY,GARLAND,TX,75041-5833",4.7,0.0,0.0,32.86296752,-96.64435584,1,0,9.4,0.0
352,"111 N ASH ST,PEARSALL,TX,78061-3201",1.0,0.0,0.0,28.89253398,-99.09394321,1,0,2.0,0.0
353,"111 S MILLER ST,BRECKENRIDGE,TX,76424-4355",0.25,0.0,0.0,32.75479766,-98.90755366,1,0,0.5,0.0
354,"1110 E PARKER RD STE 110,PLANO,TX,75074-5363",5.532283433123831,0.06547619047619048,0.1868055555555556,33.03726078,-96.69827223,1,0,11.064566866247661,0.13095238095238096
355,"1110 E PARKER RD,PLANO,TX,75074-5362",0.030303030303030307,0.0,0.0,33.03726078,-96.69827223,1,0,0.060606060606060615,0.0
356,"1110 W WILLIAM CANNON DR STE 401,AUSTIN,TX,78745-5498",2.0625,0.0,0.3333333333333333,30.19935232,-97.79373759,1,0,4.125,0.0
357,"11100 PARKFIELD DR,AUSTIN,TX,78758-4263",1.0,0.0,0.0,30.38319846,-97.69768705,1,0,2.0,0.0
358,"11102 S HIGHWAY 6 STE 104,SUGAR LAND,TX,77498-4972",3.1,0.0,0.0,29.65298153,-95.64938625,1,0,6.2,0.0
359,"1111 S IRVING HEIGHTS DR,IRVING,TX,75060-6237",2.7693921561178376,0.1859164678239012,0.17752525252525253,32.80153031,-96.92572266,1,0,5.538784312235675,0.3718329356478024
360,"1111 S STEMMONS FWY,LEWISVILLE,TX,75067-5359",0.8396270396270396,0.03225806451612903,0.1111111111111111,33.03133416,-96.99490092,1,0,1.679254079254079,0.06451612903225806
361,"1111 W ADOUE ST,ALVIN,TX,77511-2718",0.5,0.0,0.0,29.42005747,-95.25514105,1,0,1.0,0.0
362,"1111 W AIRPORT FWY STE 121,IRVING,TX,75062-6204",1.9426115998696645,0.0,0.0,32.83739604,-96.96030245,1,0,3.8852231997393285,0.0
363,"1111 W AIRPORT FWY STE 201,IRVING,TX,75062-6213",3.4206349206349205,0.14090909090909093,0.0,32.83732404,-96.96030245,1,0,6.841269841269841,0.28181818181818186
364,"1111 W AIRPORT FWY,IRVING,TX,75062-6203",1.0833333333333333,0.0,0.0,32.83739604,-96.96030245,1,0,2.1666666666666665,0.0
365,"1111 W FRANKFORD RD STE 101,CARROLLTON,TX,75007-4921",0.09090909090909093,0.0,0.0,32.99761596,-96.91258337,1,0,0.18181818181818185,0.0
366,"1112 N HIGHWAY 377 STE 106,ROANOKE,TX,76262-9125",1.6666666666666663,0.0,0.0,33.01074026,-97.22228599,1,0,3.3333333333333326,0.0
367,"1112 S LAKE ST,FORT WORTH,TX,76104-4309",1.0,0.0,0.0,32.732459999999996,-97.33943663,1,0,2.0,0.0
368,"11122 AIRLINE DR STE A,HOUSTON,TX,77037-1114",1.0,0.0,0.0,29.91763085,-95.4057637,1,0,2.0,0.0
369,"11125 LA QUINTA PL,EL PASO,TX,79936-5253",3.0,0.0,0.0,31.755882500000002,-106.31873200000001,1,0,6.0,0.0
370,"1113 CENTRAL BLVD,BROWNSVILLE,TX,78520-7532",1.1213235294117647,0.0,0.0,25.92141853,-97.51194227,1,0,2.242647058823529,0.0
371,"1113 MAIN ST,BASTROP,TX,78602-3218",2.0,0.0,0.0,30.11248883,-97.3200297,1,0,4.0,0.0
372,"11130 GULF FWY STE 310,HOUSTON,TX,77034-3553",2.0,0.0,0.0,29.63402451,-95.23637329,1,0,4.0,0.0
373,"1114 14TH ST N,TEXAS CITY,TX,77590-5413",1.0,1.0,0.0,29.39564644,-94.91452092,1,0,2.0,2.0
374,"1114 E SEMINARY DR,FORT WORTH,TX,76115-2830",2.6666666666666665,0.0,0.0,32.68431406,-97.3144179,1,0,5.333333333333333,0.0
375,"1114 N BEACH ST,FORT WORTH,TX,76111-6025",1.753968253968254,0.05,0.0,32.7788642,-97.29052323,1,0,3.507936507936508,0.1
376,"1114 N WASHINGTON AVE,LIVINGSTON,TX,77351-2336",0.8333333333333333,0.0,0.0,30.717009,-94.93301001,1,0,1.6666666666666663,0.0
377,"1114 SILBER RD STE F,HOUSTON,TX,77055-7142",1.8849871905363893,0.03225806451612903,0.22083333333333333,29.78933416,-95.46804181,1,0,3.7699743810727786,0.06451612903225806
378,"1114 SILBER RD,HOUSTON,TX,77055-7141",0.9649665396159084,0.0,0.15725806451612906,29.78933416,-95.46804181,1,0,1.9299330792318168,0.0
379,"11149 RESEARCH BLVD STE 270,AUSTIN,TX,78759-5227",2.0,1.2222222222222223,0.0,30.40728327,-97.74474169,1,0,4.0,2.4444444444444446
380,"1115 E ARKANSAS LN STE A,ARLINGTON,TX,76010-6415",2.0,0.0,0.0,32.70634653,-97.09261245,1,0,4.0,0.0
381,"1115 PROFESSIONAL DR,BROWNSVILLE,TX,78520-6462",1.3333333333333333,0.09090909090909093,0.0,25.91828768,-97.51372692,1,0,2.6666666666666665,0.18181818181818185
382,"1115 US HIGHWAY 259 S,HENDERSON,TX,75654-3629",1.0,0.0,0.0,32.13784987,-94.78663672,1,0,2.0,0.0
383,"1116 E 8TH ST STE 4,WESLACO,TX,78596-7288",0.9333333333333332,0.25,0.0,26.15198052,-97.97966066,1,0,1.8666666666666665,0.5
384,"1116 N MEADOWS DR,GRANBURY,TX,76048-1717",0.0,1.0,0.0,32.4314398,-97.80072641,1,0,0.0,2.0
385,"1116 S 10TH AVE,EDINBURG,TX,78539-5514",0.5333333333333333,0.0,0.0,26.29105175,-98.16539292,1,0,1.0666666666666669,0.0
386,"1116 W MAIN ST STE B,GUN BARREL CITY,TX,75156-5318",0.07692307692307693,1.0,0.0,32.33091505,-96.13227411,1,0,0.15384615384615385,2.0
387,"1116 W MAIN ST,GUN BARREL CITY,TX,75156-5318",0.09090909090909093,0.0,0.0,32.33091505,-96.13227411,1,0,0.18181818181818185,0.0
388,"11165 LA QUINTA PL,EL PASO,TX,79936-5221",0.9166666666666664,0.5,0.0,31.755882500000002,-106.31873200000001,1,0,1.8333333333333328,1.0
389,"1117 W DE LA ROSA ST,DEL RIO,TX,78840-6224",2.0,0.0,0.0,29.36474912,-100.8841488,1,0,4.0,0.0
390,"1119 W RANDOL MILL RD,ARLINGTON,TX,76012-6509",0.0,0.0,1.0,32.75016952,-97.12286999,1,0,0.0,0.0
391,"112 GULF ST,CIBOLO,TX,78108",1.3611111111111112,0.7916666666666666,0.0,29.56371626,-98.23714117,1,0,2.7222222222222223,1.5833333333333333
392,"112 HIGHWAY 146 S STE C,LA PORTE,TX,77571-4824",0.7399331662489557,0.0,0.0,29.66412541,-95.02981365,1,0,1.479866332497911,0.0
393,"112 HIGHWAY 146 S UNIT C,LA PORTE,TX,77571-4824",0.043478260869565216,0.0,0.0,29.66412541,-95.02981365,1,0,0.08695652173913042,0.0
394,"112 HIGHWAY 146 S,LA PORTE,TX,77571-4824",0.4003498329156224,0.0,0.0,29.66412541,-95.02981365,1,0,0.8006996658312447,0.0
395,"112 S EUGENIA ST # 1110,ORANGE GROVE,TX,78372-9683",0.3333333333333333,0.0,0.0,27.95707058,-97.93885834,1,0,0.6666666666666666,0.0
396,"112 W HOUSE ST,ALVIN,TX,77511-2811",0.7,0.0,0.0,29.41864748,-95.24454202,1,0,1.4,0.0
397,"112 W US HIGHWAY 82,NEW BOSTON,TX,75570-2804",1.5,0.0,0.0,33.46159548,-94.4197023,1,0,3.0,0.0
398,"1120 E PARK BLVD STE 105,PLANO,TX,75074-5317",0.5,0.0,0.0,33.0312548,-96.69842148,1,0,1.0,0.0
399,"1120 E PARKER RD STE 105,PLANO,TX,75074-5374",5.52569791072597,0.3829143974305265,0.26085858585858585,33.03722743,-96.69835204,1,0,11.05139582145194,0.7658287948610529
400,"1120 E PIONEER PKWY STE 100,ARLINGTON,TX,76010-6400",0.1111111111111111,0.0,0.0,32.70789452,-97.09255259999999,1,0,0.2222222222222222,0.0
401,"1120 LONGFELLOW DR,BEAUMONT,TX,77706-4845",1.0,0.0,0.0,30.09262385,-94.13703077,1,0,2.0,0.0
402,"1120 S HENDERSON ST,FORT WORTH,TX,76104-4430",1.0,0.0,0.0,32.73232474,-97.33770413,1,0,2.0,0.0
403,"11200  MANCHACA RD  BLDG 1,AUSTIN,TX,78748-2749",1.2,0.0,0.0,30.15755169,-97.83342372,1,0,2.4,0.0
404,"11200 LAKELINE MALL DR STE B1,CEDAR PARK,TX,78613-1502",1.4444444444444444,0.0,0.0,30.47187243,-97.80339933,1,0,2.888888888888889,0.0
405,"11201 BELLAIRE BLVD STE A-18,HOUSTON,TX,77072-2566",4.0,0.0,0.0,29.70369168,-95.57558189,1,0,8.0,0.0
406,"11203 LAKE JUNE RD STE 120,BALCH SPRINGS,TX,75180-1219",0.22916666666666666,0.0,0.0,32.73419348,-96.63365288,1,0,0.4583333333333333,0.0
407,"11207 FUQUA ST,HOUSTON,TX,77089-2514",1.0,0.0,0.0,29.6137364,-95.2192189,1,0,2.0,0.0
408,"1121 AVENUE E,DEL RIO,TX,78840-3915",2.0,0.0,0.0,29.37433571,-100.90298299999999,1,0,4.0,0.0
409,"1121 FLOWER MOUND RD STE 500,FLOWER MOUND,TX,75028-3251",0.16666666666666666,0.0,0.0,33.01061362,-97.04539824,1,0,0.3333333333333333,0.0
410,"1121 LAKE AIR DR,WACO,TX,76710-4417",2.0,0.14285714285714285,0.0,31.53168778,-97.18631981,1,0,4.0,0.2857142857142857
411,"11210B VETERANS MEMORIAL DR,HOUSTON,TX,77067-3758",2.0,0.0,0.0,29.94410834,-95.46495452,1,0,4.0,0.0
412,"11214 VETERANS MEMORIAL DR,HOUSTON,TX,77067-3758",0.1111111111111111,0.0,0.0,29.94424825,-95.46506126,1,0,0.2222222222222222,0.0
413,"11218 AIRLINE DR,HOUSTON,TX,77037-1116",1.8448411667451918,0.05833333333333333,0.0,29.91905969,-95.40629185,1,0,3.6896823334903837,0.11666666666666665
414,"1122 S CLOSNER BLVD,EDINBURG,TX,78539-5662",2.2694444444444444,0.0,0.0,26.29071011,-98.16428327,1,0,4.538888888888889,0.0
415,"1123 E 9TH ST STE 10A,MISSION,TX,78572-4404",2.5,0.0,0.0,26.21331629,-98.31282671,1,0,5.0,0.0
416,"11230 WEST AVE STE 3205,SAN ANTONIO,TX,78213-1389",1.0,0.0,0.0,29.54221804,-98.51309307,1,0,2.0,0.0
417,"11233 SHADOW CREEK PKWY STE 120,PEARLAND,TX,77584-7345",2.2357142857142858,0.08333333333333333,0.55,29.58005636,-95.39227601,1,0,4.471428571428572,0.16666666666666666
418,"11233 SHADOW CREEK PKWY STE 121,PEARLAND,TX,77584-7345",0.0,0.0,0.25,29.58005636,-95.39227601,1,0,0.0,0.0
419,"11233 SHADOW CREEK PKWY,PEARLAND,TX,77584-7345",0.0,0.0,0.5,29.58005636,-95.39227601,1,0,0.0,0.0
420,"1124 E 8TH ST,WESLACO,TX,78596-7152",3.3916666666666666,0.14285714285714285,0.0,26.15194342,-97.97915056,1,0,6.783333333333332,0.2857142857142857
421,"1124 N VELASCO ST STE C,ANGLETON,TX,77515-3161",1.1666666666666667,0.0,0.0,29.17729806,-95.43257859,1,0,2.333333333333333,0.0
422,"1124 N VELASCO ST,ANGLETON,TX,77515-3160",0.29914529914529914,0.0,0.0,29.17729806,-95.43257859,1,0,0.5982905982905983,0.0
423,"11241 VETERANS MEMORIAL DR,HOUSTON,TX,77067-3757",8.066273375112049,0.03333333333333333,0.4532679738562092,29.94516197,-95.4658655,1,0,16.132546750224098,0.06666666666666668
424,"1125 CYPRESS STATION DR STE A-1,HOUSTON,TX,77090-3055",2.4166666666666665,0.0,0.0,30.02337426,-95.43866084,1,0,4.833333333333333,0.0
425,"1125 W FM 544 STE 50,WYLIE,TX,75098-4965",1.0,0.14285714285714285,0.0,33.00741152,-96.55247395,1,0,2.0,0.2857142857142857
426,"11255 GARLAND RD STE 1410,DALLAS,TX,75218-2572",4.8090365898112,0.06547619047619048,0.15347222222222226,32.84775767,-96.68517158,1,0,9.6180731796224,0.13095238095238096
427,"11255 GARLAND RD,DALLAS,TX,75218-2526",0.0848221670802316,0.0,0.0,32.84775767,-96.68517158,1,0,0.1696443341604632,0.0
428,"1126 S 14TH ST STE B,KINGSVILLE,TX,78363-6371",1.0,0.0,0.0,27.50568325,-97.85593948,1,0,2.0,0.0
429,"11281 FONDREN RD STE B,HOUSTON,TX,77096-5507",0.3428571428571429,0.0,0.0,29.65635176,-95.50831435,1,0,0.6857142857142858,0.0
430,"113 CIRCLE WAY ST,LAKE JACKSON,TX,77566-5233",1.808333333333333,0.0,0.0,29.04221051,-95.45156405,1,0,3.616666666666666,0.0
431,"113 NORTH AVE,PITTSBURG,TX,75686",1.0,0.0,0.0,32.99561132,-94.96541975,1,0,2.0,0.0
432,"11300 US HIGHWAY 290 E STE 200,MANOR,TX,78653-0397",1.125,0.16666666666666666,0.0,30.34949244,-97.53683782,1,0,2.25,0.3333333333333333
433,"11302 BROADWAY ST STE 104,PEARLAND,TX,77584-9792",2.4860350690374915,0.1125,0.2117063492063492,29.55564148,-95.39448266,1,0,4.972070138074983,0.225
434,"11307 VETERANS MEMORIAL DR,HOUSTON,TX,77067-3755",3.0,0.0,0.0,29.94616882,-95.46663377,1,0,6.0,0.0
435,"11309 BANDERA RD STE 101,SAN ANTONIO,TX,78250-2602",0.125,0.0,0.0,29.54875846,-98.66236568,1,0,0.25,0.0
436,"11322 BELLAIRE BLVD STE 112,HOUSTON,TX,77072-5700",2.229761904761905,0.0,0.5,29.70396569,-95.57844058,1,0,4.45952380952381,0.0
437,"11326 WESTHEIMER RD STE B,HOUSTON,TX,77077-6866",1.0,0.0,0.0,29.73680237,-95.57825112,1,0,2.0,0.0
438,"1134 CULEBRA RD STE 109,SAN ANTONIO,TX,78201-6080",1.0666666666666669,0.0,0.0,29.44528858,-98.52621416,1,0,2.1333333333333337,0.0
439,"1135 CRABB RIVER RD # 170,RICHMOND,TX,77469-5896",1.9124598151496883,0.0,0.0,29.550772100000003,-95.69595078,1,0,3.8249196302993766,0.0
440,"1135 CRABB RIVER RD UNIT 170,RICHMOND,TX,77469-5896",0.09369369369369372,0.0,0.0,29.550772100000003,-95.69595078,1,0,0.18738738738738744,0.0
441,"11365 MONTWOOD DR STE B,EL PASO,TX,79936-3867",1.0,0.0,0.0,31.76900455,-106.2995006,1,0,2.0,0.0
442,"1139 S BROADWAY ST,SULPHUR SPRINGS,TX,75482-4839",1.5,0.0,0.0,33.12037353,-95.59629231,1,0,3.0,0.0
443,"1139 W BRAKER LN STE 201,AUSTIN,TX,78758-4115",1.2,0.8333333333333333,0.0,30.38459148,-97.69259988,1,0,2.4,1.6666666666666663
444,"11399 VETERANS MEMORIAL DR STE A,HOUSTON,TX,77067-3800",0.8333333333333333,0.0,0.0,29.94749686,-95.46765737,1,0,1.6666666666666663,0.0
445,"11399 VETERANS MEMORIAL DR STE,HOUSTON,TX,77067-3800",1.5,0.0,0.0,29.94749686,-95.46765737,1,0,3.0,0.0
446,"114 E US HIGHWAY 77 STE G,SAN BENITO,TX,78586-5233",0.2,0.0,0.0,26.13794715,-97.62599599,1,0,0.4,0.0
447,"114 E US HIGHWAY 77,SAN BENITO,TX,78586-5233",0.0,0.0,0.027777777777777776,26.13794715,-97.62599599,1,0,0.0,0.0
448,"11400 GULF FWY STE H,HOUSTON,TX,77034-3549",1.7173742923742925,0.0,0.0,29.63131161,-95.23340286,1,0,3.434748584748585,0.0
449,"11400 GULF FWY,HOUSTON,TX,77034-3549",1.4416850693166483,0.0625,0.0,29.63131161,-95.23340286,1,0,2.8833701386332966,0.125
450,"11403 CHIMNEY ROCK RD,HOUSTON,TX,77035-2903",0.75,1.0,0.0,29.65761629,-95.47642144,1,0,1.5,2.0
451,"1141 W US HIGHWAY 77 STE G,SAN BENITO,TX,78586-4398",3.8841834588930864,0.3088148410729056,0.32793855661577065,26.14548132,-97.63642655,1,0,7.768366917786173,0.6176296821458112
452,"1141 W US HIGHWAY 77,SAN BENITO,TX,78586-4397",0.8834020625580726,0.05,0.05,26.14548132,-97.63642655,1,0,1.7668041251161453,0.1
453,"1141 WEST AVE,SAN ANTONIO,TX,78201-4040",0.0,0.0,0.09090909090909093,29.47231716,-98.52609047,1,0,0.0,0.0
454,"11411 E NORTHWEST HWY STE 101,DALLAS,TX,75218-1445",0.75,0.0,0.0,32.86446249,-96.681933,1,0,1.5,0.0
455,"11415 BELLAIRE BLVD STE C,HOUSTON,TX,77072-2573",0.37777777777777777,1.0,0.0,29.70366647,-95.58024274,1,0,0.7555555555555555,2.0
456,"11416 N FM 620 RD STE K,AUSTIN,TX,78726-1165",2.333333333333333,0.0,0.0,30.45345558,-97.82796128,1,0,4.666666666666666,0.0
457,"1144 AIRPORT BLVD STE 240,AUSTIN,TX,78702-3165",2.8622155622155625,0.0,0.0,30.27136595,-97.69728105,1,0,5.724431124431125,0.0
458,"1144 W OAKLAWN RD,PLEASANTON,TX,78064-3958",1.0909090909090908,0.7083333333333333,0.0,28.95427316,-98.49517321,1,0,2.1818181818181817,1.4166666666666663
459,"11441 FM 1960,HUFFMAN,TX,77336-4466",1.3333333333333333,0.0,0.0,30.01992529,-95.10405768,1,0,2.6666666666666665,0.0
460,"11455 FALLBROOK DR STE 202,HOUSTON,TX,77065-4267",1.0,1.5833333333333333,0.0,29.92579254,-95.59176202,1,0,2.0,3.1666666666666665
461,"11455 FALLBROOK DR STE 302,HOUSTON,TX,77065-4268",0.0,0.0,0.125,29.92579254,-95.59176202,1,0,0.0,0.0
462,"1147 CLEAR LAKE CITY BLVD,HOUSTON,TX,77062-8102",2.0,0.0,0.0,29.58182885,-95.15518171,1,0,4.0,0.0
463,"115 FM 2453 STE B,ROYSE CITY,TX,75189-7037",0.05555555555555555,0.0,0.0,32.97097873,-96.30604455,1,0,0.1111111111111111,0.0
464,"115 N DIXIE DR STE 200,LAKE JACKSON,TX,77566-5958",1.0,0.0,0.3333333333333333,29.02397717,-95.42198889,1,0,2.0,0.0
465,"115 N DIXIE DR STE 300,LAKE JACKSON,TX,77566-5958",0.5,0.0,0.0,29.02401815,-95.42135512,1,0,1.0,0.0
466,"115 N DIXIE DR STE 310,LAKE JACKSON,TX,77566-5958",0.0,1.0,0.0,29.02479235,-95.42143332,1,0,0.0,2.0
467,"115 N DIXIE DR STE 430,LAKE JACKSON,TX,77566-5937",0.0,1.0,0.0,29.02401815,-95.42135512,1,0,0.0,2.0
468,"115 S LAKELINE BLVD STE 200,CEDAR PARK,TX,78613-2762",2.5,0.0,0.0,30.501341999999998,-97.84744292,1,0,5.0,0.0
469,"115 SUNDANCE PKWY STE 100,ROUND ROCK,TX,78681-7917",0.0,0.0,0.3333333333333333,30.48347885,-97.67842743,1,0,0.0,0.0
470,"115 W SEMINARY DR STE 101,FORT WORTH,TX,76115-2603",2.1479166666666663,0.0,0.0,32.68442782,-97.32670168,1,0,4.2958333333333325,0.0
471,"115 W SEMINARY DR STE 101,FT WORTH,TX,76115-2603",1.03125,0.0,0.0,32.68442782,-97.32670168,1,0,2.0625,0.0
472,"115 W SINTON ST,SINTON,TX,78387-2552",0.06666666666666668,0.0,0.0,28.03662885,-97.51070492,1,0,0.13333333333333336,0.0
473,"1150 E ELDORADO PKWY STE 100,LITTLE ELM,TX,75068-5502",2.980952380952381,0.0,0.25,33.16878948,-96.92013143,1,0,5.961904761904763,0.0
474,"1150 N INTERSTATE 35 STE 300,ROUND ROCK,TX,78681-4269",2.628787878787879,0.0,0.0,30.51784703,-97.68903166,1,0,5.257575757575758,0.0
475,"1150 N WATTERS RD STE 104,ALLEN,TX,75013-5518",1.0,0.0,0.0,33.1142673,-96.68074818,1,0,2.0,0.0
476,"1150 W KIEST BLVD # 200,DALLAS,TX,75224-3231",1.4047619047619049,0.0,0.0,32.704965,-96.84114462,1,0,2.8095238095238098,0.0
477,"11501 CUSTER RD STE 100,FRISCO,TX,75035-8791",0.05263157894736842,0.0,0.0,33.17461962,-96.73307326,1,0,0.10526315789473684,0.0
478,"11501 N SAM HOUSTON PKWY E STE C,HUMBLE,TX,77396-4635",0.1111111111111111,0.0,0.0,29.93479445,-95.21516186,1,0,0.2222222222222222,0.0
479,"11501 SOCORRO RD,SOCORRO,TX,79927-3060",0.5,1.0,0.0,31.61511958,-106.2834257,1,0,1.0,2.0
480,"11509 VETERANS MEMORIAL DR STE 800,HOUSTON,TX,77067-2628",2.0102564102564098,0.3333333333333333,0.0,29.94941673,-95.46913625,1,0,4.02051282051282,0.6666666666666666
481,"11510 BARKER CYPRESS RD STE 300,CYPRESS,TX,77433-6860",2.25,0.0,0.0,29.94325578,-95.67807466,1,0,4.5,0.0
482,"11510 GULF FWY STE I,HOUSTON,TX,77034-3573",0.5,0.0,0.0,29.62930786,-95.23117243,1,0,1.0,0.0
483,"11510 GULF FWY,HOUSTON,TX,77034-3572",0.5,0.0,0.0,29.62930786,-95.23117243,1,0,1.0,0.0
484,"11525 JUPITER RD STE 103,DALLAS,TX,75218-2579",1.0909090909090908,0.0,0.0,32.85093703,-96.68324617,1,0,2.1818181818181817,0.0
485,"11535 WEST AVE,SAN ANTONIO,TX,78213-1343",0.6245421245421245,0.0,0.0,29.544605999999998,-98.51079703,1,0,1.249084249084249,0.0
486,"11535A WEST AVE,SAN ANTONIO,TX,78213-1343",1.3419372294372294,0.0,0.0,29.544605999999998,-98.51079703,1,0,2.6838744588744587,0.0
487,"1155 HIGHWAY 327 E STE,SILSBEE,TX,77656-5119",1.25,0.0,0.0,30.34062556,-94.16681106,1,0,2.5,0.0
488,"1155 HIGHWAY 327 E,SILSBEE,TX,77656-5119",0.5833333333333333,0.0,0.0,30.34062556,-94.16681106,1,0,1.1666666666666663,0.0
489,"11550 LOUETTA RD STE 400,HOUSTON,TX,77070-1369",1.0909090909090908,0.0,0.0,29.99677752,-95.59242083,1,0,2.1818181818181817,0.0
490,"1156 W MONTE CRISTO RD,EDINBURG,TX,78541-4541",2.610353535353535,0.2,0.0,26.34482185,-98.20882083,1,0,5.22070707070707,0.4
491,"11560 FM 1960 RD W STE 200,HOUSTON,TX,77065-4257",0.1111111111111111,0.0,0.0,29.92717333,-95.59448488,1,0,0.2222222222222222,0.0
492,"1157 E 42ND ST,ODESSA,TX,79762-7723",2.0,0.0,0.0,31.88540402,-102.3711863,1,0,4.0,0.0
493,"11590 GALM RD STE 105,SAN ANTONIO,TX,78254-4549",0.6,0.4583333333333333,1.0,29.52708705,-98.72205737,1,0,1.2,0.9166666666666666
494,"11595 S WILCREST DR STE B,HOUSTON,TX,77099-4745",0.5769230769230769,0.0,0.5,29.65325205,-95.57003189,1,0,1.1538461538461535,0.0
495,"11595 S WILCREST DR,HOUSTON,TX,77099-4700",0.3333333333333333,0.0,0.0,29.65325265,-95.57002717,1,0,0.6666666666666666,0.0
496,"116 E 1ST ST,CAMERON,TX,76520-3341",1.0,0.0,0.0,30.85037878,-96.97580362,1,0,2.0,0.0
497,"116 S ARCHER ST,HENRIETTA,TX,76365-2746",0.5,0.0,0.0,33.81545725,-98.19839356,1,0,1.0,0.0
498,"116 W PARKERVILLE RD STE 112,DESOTO,TX,75115-8032",1.1666666666666667,0.0,0.0,32.57519815,-96.85726191,1,0,2.333333333333333,0.0
499,"11600 BANDERA RD STE 126,SAN ANTONIO,TX,78250-6806",1.1,1.7083333333333333,0.0,29.55050635,-98.66357867,1,0,2.2,3.4166666666666665
500,"11601 W HIGHWAY 290 STE 10,AUSTIN,TX,78737-2857",0.0,0.14285714285714285,0.0,30.21429629,-97.96575826,1,0,0.0,0.2857142857142857
501,"11602 VETERANS MEMORIAL DR STE E,HOUSTON,TX,77067-2609",0.0,0.0,0.0625,29.95071024,-95.47004777,1,0,0.0,0.0
502,"11602 VETERANS MEMORIAL DR,HOUSTON,TX,77067-2609",1.0,0.0,0.0,29.95071024,-95.47004777,1,0,2.0,0.0
503,"1161 W 2ND AVE,CORSICANA,TX,75110-3779",1.0,0.0,0.0,32.092011600000006,-96.47648709999999,1,0,2.0,0.0
504,"11611 W AIRPORT BLVD,MEADOWS PLACE,TX,77477-3042",1.3333333333333333,0.0,0.0,29.64702999,-95.58022355,1,0,2.6666666666666665,0.0
505,"11615 ANGUS RD STE 116,AUSTIN,TX,78759-4065",1.0,0.0,0.0,30.41425566,-97.74393776,1,0,2.0,0.0
506,"11627 S HIGHWAY 6,SUGAR LAND,TX,77498-1302",1.6666666666666663,0.0,0.0,29.64657877,-95.65149402,1,0,3.3333333333333326,0.0
507,"1164 HIGHWAY 327 E,SILSBEE,TX,77656-5120",2.5,0.25,0.0,30.34036848,-94.1624235,1,0,5.0,0.5
508,"1165 E MAIN ST STE A,ALICE,TX,78332-5046",3.7,0.0,0.0,27.75267816,-98.06207773,1,0,7.4,0.0
509,"1166 N YARBROUGH DR,EL PASO,TX,79925-7902",2.4173926950242732,0.13942307692307693,0.0,31.75506786,-106.3430828,1,0,4.8347853900485465,0.27884615384615385
510,"11661 PRESTON RD STE 141,DALLAS,TX,75230-7006",1.0,0.0,0.0,32.90857876,-96.80424664,1,0,2.0,0.0
511,"11671 FM 2154 RD,COLLEGE STATION,TX,77845-4710",1.71978021978022,0.0,0.0625,30.58487546,-96.32609484,1,0,3.43956043956044,0.0
512,"11680 PEBBLE HILLS BLVD STE 101,EL PASO,TX,79936-1091",0.045454545454545456,0.0,0.0,31.78247152,-106.2859716,1,0,0.09090909090909093,0.0
513,"11680 PEBBLE HILLS BLVD STE 101-102,EL PASO,TX,79936-1090",1.0,0.0,0.0,31.78247152,-106.2859716,1,0,2.0,0.0
514,"11682 SOUTHWEST FWY,HOUSTON,TX,77031-3612",1.3,0.0,0.0,29.65205988,-95.56826983,1,0,2.6,0.0
515,"117 E GRIFFIN PKWY,MISSION,TX,78572-2909",5.794999357052912,0.6476801424382068,0.5164666951439092,26.22965155,-98.32307283,1,0,11.589998714105823,1.2953602848764136
516,"117 LANE DR STE 3,ROSENBERG,TX,77471-2263",2.0,0.0,0.0,29.57270344,-95.77362092,1,0,4.0,0.0
517,"117 N GRAFTON ST,DUBLIN,TX,76446-1907",3.0,0.0,0.0,32.08544662,-98.34121948,1,0,6.0,0.0
518,"117 SOUTHPOINT LOOP STE 400,LIVINGSTON,TX,77351-8899",3.841666666666667,0.0,0.5526315789473684,30.68993071,-94.94808549,1,0,7.683333333333334,0.0
519,"117 W 2ND ST,DENVER CITY,TX,79323-3101",1.0,0.0,0.0,32.96574653,-102.83025129999999,1,0,2.0,0.0
520,"117 W SINTON ST,SINTON,TX,78387-2552",1.25,0.0,0.0,28.03662901,-97.51072615,1,0,2.5,0.0
521,"11700 TEEL PKWY # 300,FRISCO,TX,75033-2037",0.25,0.0,0.0,33.17528509,-96.86512488,1,0,0.5,0.0
522,"11700 TEEL PKWY # 301,FRISCO,TX,75033-2037",1.25,0.0,0.0,33.17528509,-96.86512488,1,0,2.5,0.0
523,"11722 MARSH LN STE 349,DALLAS,TX,75229-2682",1.25,0.0,0.0,32.90860585,-96.85599025,1,0,2.5,0.0
524,"11723 S SAM HOUSTON PKWY E,HOUSTON,TX,77089-4764",2.0,0.0,0.0,29.60241949,-95.21274277,1,0,4.0,0.0
525,"11729 EASTEX FWY,HOUSTON,TX,77039-6205",4.356376956376957,0.07692307692307693,0.0,29.89226889,-95.31795347,1,0,8.712753912753914,0.15384615384615385
526,"1173 EDGEBROOK DR STE B,HOUSTON,TX,77034-1862",0.07692307692307693,0.0,0.0,29.64209545,-95.24188543,1,0,0.15384615384615385,0.0
527,"1173 EDGEBROOK DR,HOUSTON,TX,77034-1862",4.700114958600288,0.2891053391053391,0.3854978354978356,29.64209545,-95.24188543,1,0,9.400229917200576,0.5782106782106782
528,"11753 W BELLFORT ST STE 116,STAFFORD,TX,77477-1327",2.776194127509917,0.10833333333333334,0.0,29.65725381,-95.58570185,1,0,5.552388255019834,0.21666666666666667
529,"11755 BLANCO RD,SAN ANTONIO,TX,78216-2405",1.0,0.0,0.0,29.54785368,-98.50990939,1,0,2.0,0.0
530,"11767 KATY FWY STE 505,HOUSTON,TX,77079-1768",0.5909090909090908,0.0,0.3333333333333333,29.78417249,-95.59358999,1,0,1.1818181818181817,0.0
531,"11767 KATY FWY,HOUSTON,TX,77079-1716",0.1984126984126984,0.05263157894736842,0.3392857142857143,29.78417249,-95.59358999,1,0,0.3968253968253968,0.10526315789473684
532,"1180 SETON PKWY STE 425,KYLE,TX,78640-6180",0.0,0.9444444444444444,0.0,30.01147985,-97.85354454,1,0,0.0,1.8888888888888888
533,"11800 DESSAU RD STE 203,AUSTIN,TX,78754-2187",0.0,0.25,1.0,30.37749932,-97.65863302,1,0,0.0,0.5
534,"11803 GRANT RD STE 202,CYPRESS,TX,77429-4022",1.0,0.0,0.0,29.97655749,-95.60232178,1,0,2.0,0.0
535,"11828 RING DR STE 102,MANOR,TX,78653-2106",5.514004096262161,0.0,0.0625,30.34144545,-97.52543546,1,0,11.028008192524322,0.0
536,"11831 CULEBRA RD STE 101,SAN ANTONIO,TX,78253-4578",3.111372837688627,0.07142857142857142,0.9777777777777779,29.50235836,-98.72612493,1,0,6.222745675377254,0.14285714285714285
537,"11834 HARRY HINES BLVD STE 109,DALLAS,TX,75234-5906",0.0,1.0,0.0,32.91030212,-96.89573696,1,0,0.0,2.0
538,"11850 BISSONNET ST STE O,HOUSTON,TX,77099-1995",1.1111111111111112,0.0,0.0,29.67524945,-95.58576944,1,0,2.2222222222222223,0.0
539,"11851 FM 423 STE 500,LITTLE ELM,TX,75068-6704",1.0,0.5,0.0,33.19242568,-96.88621878,1,0,2.0,1.0
540,"11861 S SAM HOUSTON PKWY W STE B,HOUSTON,TX,77031-2362",2.0666666666666664,0.0,0.0,29.65306602,-95.55045093,1,0,4.133333333333333,0.0
541,"1188 N YARBROUGH DR STE A,EL PASO,TX,79925-7926",2.802631578947368,0.0,0.5,31.75565651,-106.3426307,1,0,5.605263157894736,0.0
542,"1188 N YARBROUGH DR,EL PASO,TX,79925-7951",0.5,0.0,0.0,31.75565651,-106.3426307,1,0,1.0,0.0
543,"11880 FM 1960 RD W,HOUSTON,TX,77065-3840",2.0,0.0,0.0,29.9255053,-95.59732783,1,0,4.0,0.0
544,"11888 MARSH LN STE 105,DALLAS,TX,75234-8088",1.0,0.0,0.0,32.91052878,-96.85595026,1,0,2.0,0.0
545,"119 BUSINESS PARK BLVD STE 200,KENEDY,TX,78119-2063",2.8095238095238093,0.08333333333333333,0.0,28.83384159,-97.86680977,1,0,5.6190476190476195,0.16666666666666666
546,"119 SW LOOP 410 STE 109,SAN ANTONIO,TX,78245-2108",3.78889546727782,0.0,1.010990301687976,29.43743786,-98.64346941,1,0,7.57779093455564,0.0
547,"11900 BELLAIRE BLVD BLDG,HOUSTON,TX,77072-2304",0.05555555555555555,0.0,0.0,29.70380247,-95.58828997,1,0,0.1111111111111111,0.0
548,"11900 BELLAIRE BLVD STE A,HOUSTON,TX,77072-2305",6.4197944885015845,0.4797979797979798,0.4197884416924664,29.70380247,-95.58828997,1,0,12.839588977003169,0.9595959595959596
549,"11900 BELLAIRE BLVD,HOUSTON,TX,77072-2304",1.0332130144201082,0.03333333333333333,0.0,29.70380247,-95.58828997,1,0,2.0664260288402163,0.06666666666666668
550,"11901 TOEPPERWEIN RD STE 902,LIVE OAK,TX,78233-3158",0.0,0.0,0.5,29.54670116,-98.34256798,1,0,0.0,0.0
551,"11902 JONES RD,HOUSTON,TX,77070-5233",0.3333333333333333,0.0,0.0,29.94796995,-95.58489181,1,0,0.6666666666666666,0.0
552,"11910 GREENVILLE AVE STE 110,DALLAS,TX,75243-3564",2.052631578947368,0.0,0.0,32.91156362,-96.74587075,1,0,4.105263157894736,0.0
553,"11921 BISSONNET ST,HOUSTON,TX,77099-1425",1.0,0.0625,0.0,29.67516256,-95.58800443,1,0,2.0,0.125
554,"11939 EASTEX FWY STE I,HOUSTON,TX,77039-6173",1.9302525690683583,0.0,1.0714285714285714,29.89706188,-95.31511477,1,0,3.8605051381367166,0.0
555,"11939 EASTEX FWY,HOUSTON,TX,77039-6130",0.2371794871794872,0.0,0.0,29.89706188,-95.31511477,1,0,0.4743589743589744,0.0
556,"11939 N GRAND PKWY E,NEW CANEY,TX,77357-1808",1.4737693389592124,0.0,0.0,30.13016598,-95.23191122,1,0,2.9475386779184247,0.0
557,"11942 BARKER CYPRESS RD UNIT 100,CYPRESS,TX,77433-1802",0.0,0.5,0.5,29.94952938,-95.67510329,1,0,0.0,1.0
558,"11965 PELLICANO DR,EL PASO,TX,79936-6829",0.5833333333333333,2.529004329004329,1.0,31.73736001,-106.2907105,1,0,1.1666666666666663,5.058008658008658
559,"11980 OVERBROOK LN APT 910,HOUSTON,TX,77077-6662",0.3333333333333333,0.0,0.0,29.73797749,-95.59178402,1,0,0.6666666666666666,0.0
560,"12 E GRANT ST,ROMA,TX,78584-8085",1.826190476190476,0.0,0.0,26.40298021,-99.01391607,1,0,3.652380952380952,0.0
561,"120 CENTENNIAL BLVD,LINDALE,TX,75771",1.0769230769230769,0.0,0.0,32.47591522,-95.38815789,1,0,2.1538461538461537,0.0
562,"120 E FM 544 STE 78,MURPHY,TX,75094-4035",0.5,0.75,0.0,33.01140456,-96.61144165,1,0,1.0,1.5
563,"120 ED SCHMIDT BLVD STE C,HUTTO,TX,78634-5559",0.8723776223776224,0.775,0.0,30.54141008,-97.56242440000001,1,0,1.7447552447552448,1.55
564,"120 S CENTRAL EXPY,MCKINNEY,TX,75070-3742",1.5,0.0,0.0,33.19782841,-96.63950368,1,0,3.0,0.0
565,"120 S DENTON TAP RD STE 270A,COPPELL,TX,75019-3297",2.0,0.0,0.0,32.96898095,-96.99350934,1,0,4.0,0.0
566,"120 W CENTRAL TEXAS EXPY  STE 200,HARKER HEIGHTS,TX,76548-7406",0.25,0.0,0.0,31.07001497,-97.67048947,1,0,0.5,0.0
567,"120 W CENTRAL TEXAS EXPY STE 200,HARKER HEIGHTS,TX,76548-7406",1.4761904761904765,1.171037296037296,0.0,31.07001497,-97.67048947,1,0,2.952380952380953,2.342074592074592
568,"1200 HIGHWAY 146 S STE 255,LA PORTE,TX,77571-6152",1.0,0.0,0.0,29.65053532,-95.03052208,1,0,2.0,0.0
569,"1200 PALUXY MEDICAL CIR,GRANBURY,TX,76048-5696",1.2857142857142856,0.0,0.3333333333333333,32.4252732,-97.80880627,1,0,2.5714285714285707,0.0
570,"12000 US HIGHWAY 380 STE 114,CROSSROADS,TX,76227-2340",1.4761904761904765,0.0,0.0,33.22443019999999,-96.97924947,1,0,2.952380952380953,0.0
571,"12000 WILCREST DR STE 207,HOUSTON,TX,77031-1908",0.0,1.0,0.0,29.64793929,-95.56565394,1,0,0.0,2.0
572,"12001 RICHMOND AVE STE 1,HOUSTON,TX,77082-7682",1.6111111111111112,0.0,0.0,29.73085898,-95.58982746,1,0,3.2222222222222223,0.0
573,"12001 SOUTH FWY,BURLESON,TX,76028-7208",1.0,0.0,0.0,32.583537,-97.31907789,1,0,2.0,0.0
574,"12002 RICHMOND AVE STE 1100,HOUSTON,TX,77082-2560",2.0,0.0,0.0,29.73109092,-95.58979984,1,0,4.0,0.0
575,"12003 US HIGHWAY 290 E STE 102,MANOR,TX,78653-4576",0.1111111111111111,0.0,0.0,30.34905852,-97.54128938,1,0,0.2222222222222222,0.0
576,"1201 BARBARA JORDAN BLVD STE 1430 # BLVD,AUSTIN,TX,78723-3099",0.0,0.25,0.0,30.30678869,-97.7094834,1,0,0.0,0.5
577,"1201 BARBARA JORDAN BLVD STE 1430,AUSTIN,TX,78723-3099",1.45,0.9662393162393159,0.0,30.30678869,-97.7094834,1,0,2.9,1.9324786324786318
578,"1201 E PARKER RD STE 103,PLANO,TX,75074-5300",1.0,0.0,0.0,33.03770558,-96.69772444,1,0,2.0,0.0
579,"1201 FM 1187 E STE 37,CROWLEY,TX,76036-4377",1.9261904761904758,0.0,0.0,32.56586658,-97.36481228,1,0,3.8523809523809516,0.0
580,"1201 LAKE WOODLANDS DR STE 4010,THE WOODLANDS,TX,77380-5014",0.3333333333333333,0.0,0.0,30.16741256,-95.45387211,1,0,0.6666666666666666,0.0
581,"1201 N BELL BLVD # 102,CEDAR PARK,TX,78613-7018",1.0,0.0,0.0,30.52346443,-97.83130939,1,0,2.0,0.0
582,"1201 N BELL BLVD STE 102,CEDAR PARK,TX,78613-7018",2.5,0.0,0.25,30.52346443,-97.83130939,1,0,5.0,0.0
583,"1201 N BELL BLVD,CEDAR PARK,TX,78613-7018",0.5293248945147679,0.0,0.0,30.52346443,-97.83130939,1,0,1.058649789029536,0.0
584,"1201 N LAKELINE BLVD STE 300,CEDAR PARK,TX,78613-6780",1.5,0.0,0.0,30.516901899999997,-97.85221013,1,0,3.0,0.0
585,"1201 S INTERSTATE 35 STE 318,ROUND ROCK,TX,78664-6651",2.265750915750916,1.0,0.0,30.49931871,-97.68048481,1,0,4.531501831501832,2.0
586,"1201 S INTERSTATE 35,ROUND ROCK,TX,78664-6615",0.6837662337662338,0.0,0.0,30.49931871,-97.68048481,1,0,1.3675324675324676,0.0
587,"1201 S JACKSON RD STE 12,PHARR,TX,78577-6860",3.4145085908243797,0.0625,0.0,26.18420693,-98.20655036,1,0,6.8290171816487595,0.125
588,"1201 S W S YOUNG DR STE D,KILLEEN,TX,76543-4887",0.0,1.5,0.0,31.10217265,-97.71914162,1,0,0.0,3.0
589,"1202 W BITTERS RD BLDG 5,SAN ANTONIO,TX,78216-7852",0.0,0.0,1.0,29.57851878,-98.51116518,1,0,0.0,0.0
590,"1203 E CENTRAL TEXAS EXPY,KILLEEN,TX,76541-9126",1.0,0.0,0.0,31.09455706,-97.72949557,1,0,2.0,0.0
591,"1203 N RAUL LONGORIA RD STE L,SAN JUAN,TX,78589-3742",0.16666666666666666,0.0,0.0,26.20269422,-98.15320312,1,0,0.3333333333333333,0.0
592,"1203 N RAUL LONGORIA RD,SAN JUAN,TX,78589-3741",1.0166666666666666,0.0,0.0,26.20269422,-98.15320312,1,0,2.033333333333333,0.0
593,"1203 W DOGWOOD ST,WOODVILLE,TX,75979-4756",1.0,0.0,0.0,30.77763053,-94.42864333,1,0,2.0,0.0
594,"12033 HIGHWAY 6 STE 100,FRESNO,TX,77545-8902",1.025,0.0,0.0,29.51937515,-95.48421015,1,0,2.05,0.0
595,"12035 BAMMEL NORTH HOUSTON RD STE B,HOUSTON,TX,77066-4703",1.3333333333333333,0.0,0.125,29.95180188,-95.49836273,1,0,2.6666666666666665,0.0
596,"12039 ANTOINE DR STE 110,HOUSTON,TX,77066-4457",0.1,0.0,0.0,29.95990204,-95.48028216,1,0,0.2,0.0
597,"1204 HOOKS AVE,DONNA,TX,78537-3342",1.0,0.0,0.0,26.17032196,-98.05067527,1,0,2.0,0.0
598,"1204 N JOSEY LN,CARROLLTON,TX,75006-6117",4.478795650679988,0.023809523809523808,1.3129960317460316,32.95673138,-96.89005772,1,0,8.957591301359976,0.047619047619047616
599,"1204 WOODHAVEN BLVD,FORT WORTH,TX,76112-2376",0.7020362030442675,0.0,0.0,32.76235297,-97.24012727,1,0,1.4040724060885348,0.0
600,"1204 WOODHAVEN BLVD,FT WORTH,TX,76112-2376",1.2153846153846155,0.0,0.0,32.76235297,-97.24012727,1,0,2.430769230769231,0.0
601,"12040 TIERRA ESTE RD UNIT B212,EL PASO,TX,79938-4672",1.0,0.0,0.0,31.77541802,-106.2524449,1,0,2.0,0.0
602,"1205 CLEAR LAKE CITY BLVD,HOUSTON,TX,77062-8105",2.0,0.0,0.0,29.58230972,-95.15377836,1,0,4.0,0.0
603,"1205 E ALTON GLOOR BLVD,BROWNSVILLE,TX,78526-3831",2.393290043290043,0.0,0.0,25.98008442,-97.49673452,1,0,4.786580086580086,0.0
604,"1205 LAKE RD,LA MARQUE,TX,77568-5205",2.833333333333333,0.0,0.0,29.36799033,-94.97961844,1,0,5.666666666666666,0.0
605,"1205 S FRONTAGE RD,BROWNSVILLE,TX,78520",1.0,0.0,0.0,25.93884353,-97.50078312,1,0,2.0,0.0
606,"1205 W MCDERMOTT DR STE 120,ALLEN,TX,75013-6302",0.5,0.0,0.0,33.10064654,-96.69515255,1,0,1.0,0.0
607,"1205 W MCDERMOTT DR,ALLEN,TX,75013-6305",3.280901442671702,0.0,0.0,33.10064654,-96.69515255,1,0,6.561802885343404,0.0
608,"12052 EAST FWY,HOUSTON,TX,77029-1916",7.036022412000003,0.26865079365079364,0.4479978354978355,29.77074793,-95.22427931,1,0,14.072044824000006,0.5373015873015873
609,"1206 E MAIN ST STE 107,ALLEN,TX,75002-3983",0.5,0.0,0.0,33.10014148,-96.64090199,1,0,1.0,0.0
610,"1206 LOONEY ST,BROWNWOOD,TX,76801-1818",1.7397878284949222,1.0,0.0,31.72962451,-98.98117601,1,0,3.4795756569898444,2.0
611,"12060 BELLAIRE BLVD STE B,HOUSTON,TX,77072-2569",1.0,0.0,0.0,29.70375946,-95.59168152,1,0,2.0,0.0
612,"1208 E BETHANY DR STE 7,ALLEN,TX,75002-3683",1.0,0.0,0.0,33.08542522,-96.64528237,1,0,2.0,0.0
613,"1208 S EXPRESSWAY 83 STE B,HARLINGEN,TX,78552-3222",0.5769799443712488,0.0,0.03571428571428571,26.18064604,-97.71396912,1,0,1.1539598887424976,0.0
614,"1208 S EXPRESSWAY 83 UNIT B,HARLINGEN,TX,78552-3222",0.07692307692307693,0.0,0.0,26.18064604,-97.71396912,1,0,0.15384615384615385,0.0
615,"1208 S EXPRESSWAY 83,HARLINGEN,TX,78552-3222",0.6285970024127918,0.03225806451612903,0.15357142857142858,26.18064604,-97.71396912,1,0,1.2571940048255836,0.06451612903225806
616,"1209 W 5TH ST STE 100,AUSTIN,TX,78703-5292",0.0,0.0,1.0,30.27187078,-97.75871373,1,0,0.0,0.0
617,"1209 W BLUFF ST,WOODVILLE,TX,75979-4739",2.083333333333333,0.0,0.0,30.7752255,-94.42917102,1,0,4.166666666666666,0.0
618,"121 EASTGATE PLZ,BELLMEAD,TX,76705-2868",2.2857558139534886,0.0,1.0,31.58676506,-97.10517970000001,1,0,4.571511627906976,0.0
619,"121 N 31ST ST,TEMPLE,TX,76504-2421",2.0,0.0,0.0,31.10330261,-97.35672424,1,0,4.0,0.0
620,"121 N GREENVILLE AVE STE M,ALLEN,TX,75002-2252",1.5681677037694384,0.0,0.0,33.10347985,-96.65986647,1,0,3.1363354075388767,0.0
621,"121 N RICE ST,HAMILTON,TX,76531-1857",2.0,0.0,0.0,31.70448602,-98.12384107,1,0,4.0,0.0
622,"121 W AVENUE B,MULESHOE,TX,79347-3611",1.0,0.0,0.0,34.22552159,-102.7248737,1,0,2.0,0.0
623,"1210 DOUGLASS RD,NACOGDOCHES,TX,75964-4904",1.0,0.047619047619047616,0.0,31.60660916,-94.66797361,1,0,2.0,0.09523809523809523
624,"1210 E 8TH ST STE 2,WESLACO,TX,78596-7120",1.0,0.0,0.0,26.15192861,-97.97768322,1,0,2.0,0.0
625,"1210 GREGORY ST STE 3,TAFT,TX,78390-3045",1.5,0.0,0.0,27.97473884,-97.38490524,1,0,3.0,0.0
626,"1210 W BRAKER LN,AUSTIN,TX,78758-3801",5.87037037037037,0.0,0.0,30.38528367,-97.6938705,1,0,11.74074074074074,0.0
627,"12101 GREENVILLE AVE STE 101,DALLAS,TX,75243-9329",2.9821428571428568,0.0,0.25,32.91268953,-96.74558898,1,0,5.9642857142857135,0.0
628,"12101 SOCORRO RD,SAN ELIZARIO,TX,79849-7393",0.6666666666666666,0.0,0.0,31.59661191,-106.2736709,1,0,1.3333333333333333,0.0
629,"1211 S MAIN ST STE 100,KELLER,TX,76248-0819",2.5,0.0,0.0,32.91372229,-97.25559928,1,0,5.0,0.0
630,"1212 BENT OAKS CT STE 100,DENTON,TX,76210-8061",1.5469444444444445,1.3477124183006537,0.0,33.17217319,-97.11204677,1,0,3.093888888888889,2.6954248366013074
631,"12121 RICHMOND AVE STE 316,HOUSTON,TX,77082-2437",1.0,0.0,0.0625,29.73055957,-95.59312979,1,0,2.0,0.0
632,"12121 RICHMOND AVE STE 426,HOUSTON,TX,77082-2457",1.0909090909090908,1.0,0.0,29.73055957,-95.59312979,1,0,2.1818181818181817,2.0
633,"12121 WESTHEIMER RD STE 207,HOUSTON,TX,77077-6654",1.0,0.0,0.0,29.73622551,-95.592993,1,0,2.0,0.0
634,"12125 HIGHWAY 6 STE D,FRESNO,TX,77545-8844",0.2464646464646465,0.025,0.0,29.51854499,-95.48260035,1,0,0.492929292929293,0.05
635,"12125 HIGHWAY 6,FRESNO,TX,77545-8843",2.232239879143904,0.0,0.0,29.51854499,-95.48260035,1,0,4.464479758287808,0.0
636,"1213 MAIN ST UNIT A,PASADENA,TX,77506-4506",0.8383838383838385,0.0,0.0625,29.69166586,-95.20925985,1,0,1.6767676767676767,0.0
637,"1213 MAIN ST,PASADENA,TX,77506-4506",2.7386269624128725,0.0,0.0,29.69166586,-95.20925985,1,0,5.477253924825745,0.0
638,"12131 WESTHEIMER RD,HOUSTON,TX,77077-6872",2.0,0.0,0.0,29.736196500000002,-95.59485292,1,0,4.0,0.0
639,"12134 VETERANS MEMORIAL DR,HOUSTON,TX,77067-1004",1.0,0.0,0.0,29.96263361,-95.4791365,1,0,2.0,0.0
640,"1214 DIXIELAND RD # 4PC,HARLINGEN,TX,78552-3351",0.08703703703703704,0.0,0.045454545454545456,26.18094625,-97.72099409,1,0,0.17407407407407408,0.0
641,"1214 DIXIELAND RD STE 4,HARLINGEN,TX,78552-3314",1.3762626262626263,0.6428571428571428,0.5,26.18094625,-97.72099409,1,0,2.7525252525252526,1.2857142857142856
642,"1214 DIXIELAND RD STE 4PC,HARLINGEN,TX,78552-3351",3.2519841269841265,1.0,0.0,26.18094625,-97.72099409,1,0,6.503968253968253,2.0
643,"1214 DIXIELAND RD UNIT 4PC,HARLINGEN,TX,78552-3351",0.1111111111111111,0.0,0.0,26.18094625,-97.72099409,1,0,0.2222222222222222,0.0
644,"1214 E HOUSTON ST,CLEVELAND,TX,77327-4754",4.766666666666667,1.0,0.0,30.34104854,-95.07324052,1,0,9.533333333333333,2.0
645,"1215 DOCTORS DR,TYLER,TX,75701-2126",0.0,0.0,1.0,32.33953454,-95.28692425,1,0,0.0,0.0
646,"1215 FRY RD STE D,KATY,TX,77449-3434",2.702020202020201,0.08596491228070174,0.0,29.78765875,-95.71901209999999,1,0,5.404040404040402,0.1719298245614035
647,"1215 W PIONEER PKWY,GRAND PRAIRIE,TX,75051",0.9206349206349206,1.0588235294117647,0.0,32.70950758,-97.02223568,1,0,1.8412698412698407,2.117647058823529
648,"12168  BELLAIRE BLVD  STE 100,HOUSTON,TX,77072-2642",0.14285714285714285,0.0,0.0,29.70373246,-95.59479447,1,0,0.2857142857142857,0.0
649,"12168 BELLAIRE BLVD STE 100,HOUSTON,TX,77072-2642",15.067137437725673,0.0,0.07142857142857142,29.70373246,-95.59479447,1,0,30.13427487545135,0.0
650,"12175 NACOGDOCHES RD,SAN ANTONIO,TX,78217-2334",1.3333333333333333,0.0,0.0,29.55041316,-98.40814802,1,0,2.6666666666666665,0.0
651,"12185 NEW WORLD DR STE 201,EL PASO,TX,79936-6396",1.3333333333333333,0.0,0.0,31.75407247,-106.26881270000001,1,0,2.6666666666666665,0.0
652,"12185 NEW WORLD DR,EL PASO,TX,79936-6396",0.0625,0.0,0.0,31.75407247,-106.26881270000001,1,0,0.125,0.0
653,"1219 E CALIFORNIA ST,GAINESVILLE,TX,76240-4301",0.0,0.0,1.0,33.62422047,-97.13242366,1,0,0.0,0.0
654,"122 SOUTHMORE AVE,PASADENA,TX,77502-1018",0.3666666666666667,0.0,0.0,29.69073617,-95.2094093,1,0,0.7333333333333334,0.0
655,"1220 N JOSEY LN STE 106,CARROLLTON,TX,75006-6149",3.0,0.0,0.0,32.95741407,-96.89003024,1,0,6.0,0.0
656,"1220 N VELASCO ST,ANGLETON,TX,77515-3197",1.5,0.0,0.0,29.18026597,-95.43277971,1,0,3.0,0.0
657,"1221 W BEN WHITE BLVD STE 112B,AUSTIN,TX,78704-6888",3.0,0.0,0.0,30.22737251,-97.77890164,1,0,6.0,0.0
658,"12215 GRANT RD STE A,CYPRESS,TX,77429-5963",1.0,0.0,0.0,29.98217766,-95.60894255,1,0,2.0,0.0
659,"12220 JONES RD STE C,HOUSTON,TX,77070-5266",2.0,0.0,0.0,29.95091652,-95.58486552,1,0,4.0,0.0
660,"12220 JONES RD,HOUSTON,TX,77070-5265",0.3666666666666667,0.0,0.0,29.95091652,-95.58486552,1,0,0.7333333333333334,0.0
661,"12225 BEE CAVE PKWY # 100,BEE CAVE,TX,78738-6382",1.0,0.6166666666666667,0.0,30.3071716,-97.93198974,1,0,2.0,1.2333333333333334
662,"12225 BEE CAVE PKWY STE 100,BEE CAVE,TX,78738-6382",0.0,0.1111111111111111,0.0,30.3071716,-97.93198974,1,0,0.0,0.2222222222222222
663,"12225 BEE CAVE PKWY,AUSTIN,TX,78738-6382",0.0,0.16666666666666666,0.0,30.3071716,-97.93198974,1,0,0.0,0.3333333333333333
664,"12225 FM 2244 RD # 100,BEE CAVE,TX,78738-5310",0.0,0.3111111111111111,0.0,30.30637752,-97.93139895,1,0,0.0,0.6222222222222222
665,"12225 FM 2244 RD STE 100,BEE CAVE,TX,78738-5310",0.0,0.3111111111111111,0.0,30.30632748,-97.93149894,1,0,0.0,0.6222222222222222
666,"12225 FM 2244 RD,BEE CAVE,TX,78738-5310",1.2857142857142856,0.671037296037296,0.0,30.30637752,-97.93139895,1,0,2.5714285714285707,1.342074592074592
667,"12225 GREENVILLE AVE STE 110,DALLAS,TX,75243-9362",9.25,0.0,0.0,32.913770299999996,-96.74506998,1,0,18.5,0.0
668,"12227 LAKE JUNE RD STE 500,BALCH SPRINGS,TX,75180-4857",2.6666666666666665,0.0,0.5,32.73409249,-96.61605274,1,0,5.333333333333333,0.0
669,"12234 SHADOW CREEK PKWY STE 3108,PEARLAND,TX,77584-7332",0.7101449275362319,0.0,0.0,29.57722193,-95.41885754,1,0,1.420289855072464,0.0
670,"12234 SHADOW CREEK PKWY,PEARLAND,TX,77584-7330",1.5,0.0,0.0,29.57722193,-95.41885754,1,0,3.0,0.0
671,"1225 W 43RD ST,HOUSTON,TX,77018-4203",1.125,0.0,0.0,29.8281911,-95.43099838,1,0,2.25,0.0
672,"1226 MUSEUM SQUARE DR STE 3,SUGAR LAND,TX,77479-3701",1.0,0.0,0.0,29.59539232,-95.65054214,1,0,2.0,0.0
673,"1226 MUSEUM SQUARE DR STE 300,SUGAR LAND,TX,77479-3702",1.0,0.0,0.0,29.59539232,-95.65054214,1,0,2.0,0.0
674,"1227 MUSEUM SQUARE DR STE D,SUGAR LAND,TX,77479-4630",0.16666666666666666,0.0,0.0,29.59453769,-95.65045043,1,0,0.3333333333333333,0.0
675,"1227 MUSEUM SQUARE DR,SUGAR LAND,TX,77479-4629",1.125,0.0,0.0,29.59453769,-95.65045043,1,0,2.25,0.0
676,"1227 SW MILITARY DR,SAN ANTONIO,TX,78221-1536",0.0,0.2,0.0,29.35669646,-98.51172325,1,0,0.0,0.4
677,"1228 E EXCHANGE PKWY STE 120,ALLEN,TX,75002-1981",1.2909090909090908,0.0,0.0,33.11489449,-96.64242299,1,0,2.5818181818181816,0.0
678,"123 S MILE RD # 3,PALMHURST,TX,78572-6182",0.9166666666666666,0.0,0.0,26.20144188,-98.33256456,1,0,1.8333333333333333,0.0
679,"123 W SOUTHMORE AVE,PASADENA,TX,77502-1001",2.4642857142857144,0.0,0.0,29.69071689,-95.21281075,1,0,4.928571428571429,0.0
680,"1230 N MASON RD STE 1000,KATY,TX,77449-3031",1.5,0.0,1.0,29.78717458,-95.75173087,1,0,3.0,0.0
681,"12300 INWOOD RD STE 220,DALLAS,TX,75244-8025",0.0,1.0,0.0,32.91579547,-96.81830929,1,0,0.0,2.0
682,"1231 E PIONEER PKWY # 101,ARLINGTON,TX,76010-5886",1.0476190476190477,0.0,0.0,32.70815644,-97.09051311,1,0,2.095238095238096,0.0
683,"1231 E PIONEER PKWY UNIT 101,ARLINGTON,TX,76010-5886",0.16666666666666666,0.0,0.0,32.70815644,-97.09051311,1,0,0.3333333333333333,0.0
684,"1231 WILLIAM D TATE AVE STE 400,GRAPEVINE,TX,76051-8674",0.25,0.0,0.0,32.9286892,-97.08546869,1,0,0.5,0.0
685,"12311 NACOGDOCHES RD STE 107,SAN ANTONIO,TX,78217-2139",1.625,0.0,0.0,29.55235658,-98.40522923,1,0,3.25,0.0
686,"12311 NACOGDOCHES RD STE 206,SAN ANTONIO,TX,78217-2140",0.09090909090909093,0.0,0.0,29.55235658,-98.40522923,1,0,0.18181818181818185,0.0
687,"12335 HYMEADOW DR STE 250,AUSTIN,TX,78750-1948",3.611111111111111,0.0,2.1666666666666665,30.45540283,-97.79629328,1,0,7.222222222222222,0.0
688,"1234 NORTHWEST HWY,GARLAND,TX,75041-5834",1.0,1.0625,0.0,32.86365968,-96.64561775,1,0,2.0,2.125
689,"12343 BARKER CYPRESS RD STE 110,CYPRESS,TX,77429-5757",1.3333333333333333,0.0,0.2,29.95751097,-95.67202222,1,0,2.6666666666666665,0.0
690,"12355 POTRANCO RD STE 105,SAN ANTONIO,TX,78253-5847",0.20192307692307693,0.0,0.0,29.42966147,-98.73817508,1,0,0.40384615384615385,0.0
691,"12355 POTRANCO RD,SAN ANTONIO,TX,78253-5846",3.733333333333333,0.0,0.0,29.42966147,-98.73817508,1,0,7.466666666666666,0.0
692,"12371 EDGEMERE BLVD STE 206,EL PASO,TX,79938-4878",1.6666666666666663,0.0,0.0,31.79243145,-106.26124420000001,1,0,3.3333333333333326,0.0
693,"12388 FM 423 STE 100,FRISCO,TX,75033-4961",1.0,0.0,0.0,33.18126328,-96.8871291,1,0,2.0,0.0
694,"12398 FM 423 STE 1900,FRISCO,TX,75033-0105",0.0,0.5,0.0,33.18120444,-96.88715923,1,0,0.0,1.0
695,"12398 FM 423 STE 200,FRISCO,TX,75033-0157",0.0,0.0,0.09090909090909093,33.18116446,-96.88727918,1,0,0.0,0.0
696,"124 CLUBVIEW DR,LEVELLAND,TX,79336-6304",2.0,0.0,0.0,33.57576805,-102.3698921,1,0,4.0,0.0
697,"124 FRANKLIN ST STE A,ANTHONY,TX,79821-7377",1.1666666666666667,0.0,0.0,31.9986975,-106.60488329999998,1,0,2.333333333333333,0.0
698,"1240 KELLER PKWY STE 110,KELLER,TX,76248-3687",1.0,0.0,0.0,32.9341905,-97.22345069,1,0,2.0,0.0
699,"1243 E RED BIRD LN,DALLAS,TX,75241-2008",2.6,0.0,0.0,32.67504833,-96.80436594,1,0,5.2,0.0
700,"12430 STATE HIGHWAY 249 STE N,HOUSTON,TX,77086-3339",2.0,0.0,0.0,29.91071944,-95.47914442,1,0,4.0,0.0
701,"12430 STATE HIGHWAY 249 STE R,HOUSTON,TX,77086-3340",0.09090909090909093,0.0,0.0,29.91071944,-95.47914442,1,0,0.18181818181818185,0.0
702,"12430 STATE HIGHWAY 249,HOUSTON,TX,77086-3338",0.7337662337662338,0.0,0.0,29.91071944,-95.47914442,1,0,1.4675324675324677,0.0
703,"12432 FM 1960 RD W,HOUSTON,TX,77065-4809",0.5909090909090909,0.5,0.0,29.92219509,-95.60418336,1,0,1.181818181818182,1.0
704,"12445 EAST FWY # 200,HOUSTON,TX,77015-5522",1.5,0.0,0.0,29.77082744,-95.21616178,1,0,3.0,0.0
705,"12450 EAST FWY STE 140,HOUSTON,TX,77015-5559",1.5,0.0,0.0,29.77000453,-95.21618349,1,0,3.0,0.0
706,"1248 FM 78 STE 105,SCHERTZ,TX,78154-2466",1.0,0.0,0.0,29.55914275,-98.25340711,1,0,2.0,0.0
707,"12485 TIMBERLAND BLVD STE 703,FORT WORTH,TX,76244-6429",0.0,0.5,0.0,32.95398526,-97.2818643,1,0,0.0,1.0
708,"1249 W BAY AREA BLVD,WEBSTER,TX,77598-3832",2.052631578947368,0.08596491228070174,0.0,29.53922999,-95.14378226,1,0,4.105263157894736,0.1719298245614035
709,"125 E LAS MILPAS RD STE D,PHARR,TX,78577-9866",0.043478260869565216,0.0,0.5,26.11587028,-98.19575599,1,0,0.08695652173913042,0.0
710,"125 E LAS MILPAS RD,PHARR,TX,78577-9863",0.043478260869565216,0.0,0.0,26.11587028,-98.19575599,1,0,0.08695652173913042,0.0
711,"125 E MAIN ST,OLNEY,TX,76374-1921",3.0,0.0,0.0,33.37061652,-98.75290402,1,0,6.0,0.0
712,"125 ED SCHMIDT BLVD STE 240,HUTTO,TX,78634-5588",0.0,0.25,0.0,30.54118602,-97.56260228,1,0,0.0,0.5
713,"125 SW MILITARY DR,SAN ANTONIO,TX,78221-1650",1.2,2.0,0.16666666666666666,29.35678761,-98.49213261,1,0,2.4,4.0
714,"125 W INTERSTATE 30 STE H,ROYSE CITY,TX,75189-7513",0.34077380952380953,0.0,0.0,32.96776551,-96.33374902,1,0,0.6815476190476191,0.0
715,"125 W INTERSTATE 30,ROYSE CITY,TX,75189-7512",0.4812030075187971,1.0,0.0,32.96776551,-96.33374902,1,0,0.9624060150375942,2.0
716,"125 W SUNSET RD,SAN ANTONIO,TX,78209-2632",0.2909090909090909,1.9166666666666663,0.0,29.50727349,-98.46719438,1,0,0.5818181818181818,3.8333333333333326
717,"1250 E PIONEER PKWY STE 200,ARLINGTON,TX,76010-6422",6.202360489610817,0.6942033689536935,0.25,32.70789948,-97.09139916,1,0,12.404720979221635,1.388406737907387
718,"1250 GARTH RD STE B,BAYTOWN,TX,77520-2424",6.199533177687948,0.16374269005847952,0.35060443942022884,29.74160227,-94.98015606,1,0,12.399066355375895,0.32748538011695905
719,"1250 GARTH RD,BAYTOWN,TX,77520-2423",0.3001959633538581,0.0,0.0,29.74160227,-94.98015606,1,0,0.6003919267077162,0.0
720,"12501 CANYON FALLS BLVD STE F,WILLIS,TX,77318-5809",1.0,0.0,0.0,30.42026013,-95.49809074,1,0,2.0,0.0
721,"12501 CANYON FALLS BLVD,WILLIS,TX,77318-5825",0.047619047619047616,0.0,0.0,30.42026013,-95.49809074,1,0,0.09523809523809523,0.0
722,"1251 PIN OAK RD STE 103,KATY,TX,77494-5659",0.4197802197802198,0.0,0.0,29.77261964,-95.81810382,1,0,0.8395604395604396,0.0
723,"1251 W CAMPBELL RD STE 200,RICHARDSON,TX,75080-2964",0.125,1.0,0.0,32.97811753,-96.76273004,1,0,0.25,2.0
724,"1256 W EXCHANGE PKWY STE 100,ALLEN,TX,75013-7043",1.0,0.0,0.0,33.11548545,-96.69683216,1,0,2.0,0.0
725,"12584 N BEACH ST STE 150,FORT WORTH,TX,76244-4250",4.945991561181434,0.0,0.0,32.95542557,-97.28117104,1,0,9.891983122362868,0.0
726,"12586 WESTHEIMER RD STE C,HOUSTON,TX,77077-5866",1.0714285714285714,0.07692307692307693,0.0,29.73634161,-95.60526466,1,0,2.142857142857143,0.15384615384615385
727,"12589 WESTHEIMER RD,HOUSTON,TX,77077-5807",3.616779361448903,0.2335497835497836,0.3854978354978356,29.73602801,-95.60543356,1,0,7.233558722897806,0.4670995670995672
728,"1259 W EXCHANGE PKWY STE 130,ALLEN,TX,75013-7107",0.3333333333333333,1.0,0.0,33.11514317,-96.6962248,1,0,0.6666666666666666,2.0
729,"126 N INTERNATIONAL RD STE A,GARLAND,TX,75042-6515",1.167832167832168,0.0,0.0,32.91480886,-96.67231004,1,0,2.3356643356643363,0.0
730,"12600 BEECHNUT ST,HOUSTON,TX,77072-3951",0.0625,0.0,0.0,29.68916312,-95.60217219,1,0,0.125,0.0
731,"12601 WESTHEIMER RD STE B,HOUSTON,TX,77077-5707",3.5835025196009176,0.03333333333333333,0.05882352941176471,29.736059499999996,-95.60630249,1,0,7.167005039201835,0.06666666666666668
732,"12601 WESTHEIMER RD UNIT B,HOUSTON,TX,77077-5707",0.0,0.0,0.125,29.736059499999996,-95.60630249,1,0,0.0,0.0
733,"12601 WESTHEIMER RD,HOUSTON,TX,77077-5707",3.085610223110224,0.09090909090909093,0.08333333333333333,29.736059499999996,-95.60630249,1,0,6.171220446220447,0.18181818181818185
734,"12609 S GESSNER RD STE F,HOUSTON,TX,77071-2804",1.0398076259489302,0.0,0.0,29.63818925,-95.52975075,1,0,2.0796152518978603,0.0
735,"12609 S GESSNER RD,HOUSTON,TX,77071-2803",0.11513157894736842,0.0,0.0,29.63818925,-95.52975075,1,0,0.23026315789473684,0.0
736,"1261 RECORD CROSSING RD,DALLAS,TX,75235-6001",2.369047619047619,0.4337662337662338,0.0,32.81544465,-96.86220944,1,0,4.738095238095238,0.8675324675324676
737,"1261 W GREEN OAKS BLVD STE 103,ARLINGTON,TX,76013-8349",0.25,0.0,0.0,32.72485726,-97.18116203,1,0,0.5,0.0
738,"1261 WESTHEIMER RD STE B,HOUSTON,TX,77006-2612",0.07142857142857142,0.0,0.0,29.74368188,-95.39508249,1,0,0.14285714285714285,0.0
739,"12617 LOUETTA RD STE 204,CYPRESS,TX,77429-5212",1.125,0.0,0.0,29.99629952,-95.61552299,1,0,2.25,0.0
740,"12620 WOODFOREST BLVD STE 420A,HOUSTON,TX,77015-3643",1.5,0.0,0.0,29.79114512,-95.20198985,1,0,3.0,0.0
741,"12620 WOODFOREST BLVD STE 490,HOUSTON,TX,77015-3570",2.197484429138778,0.0,0.2635594716484504,29.79114512,-95.20198985,1,0,4.394968858277556,0.0
742,"12626 WOODFOREST BLVD # 3,HOUSTON,TX,77015-3642",1.2151574588645526,0.0,0.0,29.79117956,-95.20183197,1,0,2.430314917729105,0.0
743,"12626 WOODFOREST BLVD APT 3,HOUSTON,TX,77015-3642",0.1111111111111111,0.0,0.0,29.79117956,-95.20183197,1,0,0.2222222222222222,0.0
744,"12626 WOODFOREST BLVD STE 2,HOUSTON,TX,77015-3642",0.17777777777777778,0.0,0.0,29.79117956,-95.20183197,1,0,0.3555555555555556,0.0
745,"12626 WOODFOREST BLVD STE 3,HOUSTON,TX,77015-3642",5.47021254888902,0.19548872180451127,0.0,29.79117956,-95.20183197,1,0,10.94042509777804,0.3909774436090225
746,"12626 WOODFOREST BLVD STE Z,HOUSTON,TX,77015-3653",0.32702020202020204,0.0,0.0,29.79117956,-95.20183197,1,0,0.6540404040404041,0.0
747,"12626 WOODFOREST BLVD UNIT 3,HOUSTON,TX,77015-3642",0.14285714285714285,0.0,0.0,29.79117956,-95.20183197,1,0,0.2857142857142857,0.0
748,"12626 WOODFOREST BLVD,HOUSTON,TX,77015-3642",0.25,0.0,0.0,29.79117956,-95.20183197,1,0,0.5,0.0
749,"12650 N BEACH ST STE 100,FORT WORTH,TX,76244-4244",1.0,0.0,0.0,32.95676122,-97.28188532,1,0,2.0,0.0
750,"12660 BEECHNUT ST STE 120,HOUSTON,TX,77072-3982",2.431089743589744,0.0,0.0,29.68909547,-95.602953,1,0,4.862179487179488,0.0
751,"12660 SANDPIPER DR STE 043,HOUSTON,TX,77035-5383",1.1736111111111112,0.0,0.0,29.63935847,-95.50318359999999,1,0,2.3472222222222223,0.0
752,"12665 BISSONNET ST,HOUSTON,TX,77099-1331",2.4208592132505173,0.0,0.0,29.67752689,-95.60142544,1,0,4.841718426501035,0.0
753,"1270 PLEASANT VALLEY RD STE A,GARLAND,TX,75040-4825",0.5,0.0,0.0,32.93113219,-96.61256718,1,0,1.0,0.0
754,"12700 MIDWAY RD STE 104,DALLAS,TX,75244-6301",1.6102564102564103,0.0,0.2,32.92234166,-96.83806822,1,0,3.2205128205128206,0.0
755,"12700 MIDWAY RD,DALLAS,TX,75244-6301",0.07692307692307693,0.0,0.0,32.92234166,-96.83806822,1,0,0.15384615384615385,0.0
756,"12700 N FEATHERWOOD DR STE 290,HOUSTON,TX,77034-4496",2.04,3.283333333333333,0.0,29.61912269,-95.21560814,1,0,4.08,6.566666666666666
757,"12711 FM 1960 RD W,HOUSTON,TX,77065-4014",0.7485415097408635,0.1601190476190476,0.2117063492063492,29.920884499999996,-95.60671344,1,0,1.4970830194817268,0.3202380952380952
758,"12757 WESTHEIMER RD,HOUSTON,TX,77077-5709",2.5735126779824915,0.05555555555555555,0.0,29.73597481,-95.60888966,1,0,5.147025355964983,0.1111111111111111
759,"12790 VETERANS MEMORIAL DR,HOUSTON,TX,77014-2048",0.8999999999999999,0.0,0.0,29.97422034,-95.48795046,1,0,1.7999999999999998,0.0
760,"128 GARRETT MORRIS PKWY,MINERAL WELLS,TX,76067-9038",2.1718253968253967,0.0,0.0,32.81022136,-98.08293808,1,0,4.343650793650792,0.0
761,"128 NACOGDOCHES ST,CENTER,TX,75935-3852",2.0,0.0,0.0,31.795254999999997,-94.18255551,1,0,4.0,0.0
762,"128 S MOSS ST STE 200,SEGUIN,TX,78155-5127",1.0,0.3333333333333333,0.0,29.56833947,-97.94841156,1,0,2.0,0.6666666666666666
763,"1280 COMMON ST,NEW BRAUNFELS,TX,78130-3509",0.0,1.0,0.0,29.71928182,-98.1049918,1,0,0.0,2.0
764,"12800 BANDERA RD STE 100,HELOTES,TX,78023-4781",1.25,0.0,0.0,29.56219616,-98.68274181,1,0,2.5,0.0
765,"12800 FOUNTAIN LAKE CIR,STAFFORD,TX,77477-3756",2.0,0.08596491228070174,0.0,29.63612289,-95.58701561,1,0,4.0,0.1719298245614035
766,"12801 EDGEMERE BLVD # 112,EL PASO,TX,79938-9500",0.16666666666666666,0.0,0.0,31.79643373,-106.2474182,1,0,0.3333333333333333,0.0
767,"12801 EDGEMERE BLVD STE 112,EL PASO,TX,79938-9500",0.5,0.0,0.0,31.79643373,-106.2474182,1,0,1.0,0.0
768,"12801 EDGEMERE BLVD STE 112B,EL PASO,TX,79938-9653",2.875,0.0,0.0,31.79643373,-106.2474182,1,0,5.75,0.0
769,"12801 MIDWAY RD STE 401,DALLAS,TX,75244-6813",1.0,0.0,0.0,32.92330499,-96.83827324,1,0,2.0,0.0
770,"12804 GULF FWY STE 400,HOUSTON,TX,77034-4850",2.0,0.0,0.0,29.61326094,-95.21356499,1,0,4.0,0.0
771,"12805 CULLEN BLVD STE E,HOUSTON,TX,77047-3760",0.125,0.0,0.0,29.62432786,-95.35523993,1,0,0.25,0.0
772,"12834 WILLOW CENTRE DR STE A,HOUSTON,TX,77066-3047",0.25,0.0,0.0,29.96387539,-95.53575928,1,0,0.5,0.0
773,"12834 WILLOW CENTRE DR,HOUSTON,TX,77066-3047",1.25,0.0,0.0,29.96387539,-95.53575928,1,0,2.5,0.0
774,"12850 MEMORIAL DR STE 1105,HOUSTON,TX,77024-4983",2.0,0.0,0.0,29.77273730000001,-95.560445,1,0,4.0,0.0
775,"1286 W VAN ALSTYNE PKWY,VAN ALSTYNE,TX,75495-4390",0.5,0.0,0.0,33.42178128,-96.59253134,1,0,1.0,0.0
776,"12861 GULF FWY,HOUSTON,TX,77034-4807",0.5,0.0,0.0,29.61348359,-95.21267191,1,0,1.0,0.0
777,"129 N LAS PITAS ST,FALFURRIAS,TX,78355-3609",1.0,0.0,0.0,27.22761232,-98.14268455,1,0,2.0,0.0
778,"12900 ALDINE WESTFIELD RD STE A,HOUSTON,TX,77039-5345",2.206210246907921,0.0,0.3714377727535622,29.90238823,-95.35499832,1,0,4.412420493815842,0.0
779,"12900 ALDINE WESTFIELD RD,HOUSTON,TX,77039-5344",3.5058126390363227,0.15277777777777776,0.020833333333333332,29.90238823,-95.35499832,1,0,7.0116252780726445,0.3055555555555555
780,"12924 BELLAIRE BLVD STE 103,HOUSTON,TX,77072-5132",0.0,0.0,1.0,29.70352245,-95.61057244,1,0,0.0,0.0
781,"12924 WILLOW CHASE DR,HOUSTON,TX,77070-5641",1.7833333333333332,0.3333333333333333,0.16666666666666666,29.96061689,-95.55238318,1,0,3.5666666666666664,0.6666666666666666
782,"12960 EAST FWY,HOUSTON,TX,77015-5710",4.310749292435927,0.0,0.4821950710108605,29.77118448,-95.20015791,1,0,8.621498584871853,0.0
783,"12989 JUPITER RD STE 106,DALLAS,TX,75238-5248",2.5,0.0,0.0,32.87258052,-96.6832042,1,0,5.0,0.0
784,"1300 N TEXAS BLVD,ALICE,TX,78332-3870",1.0,0.0,0.0,27.76247094,-98.06478199,1,0,2.0,0.0
785,"1300 S CAGE BLVD STE 5,PHARR,TX,78577-6358",0.03225806451612903,0.0,0.0,26.18062482,-98.18641115,1,0,0.06451612903225806,0.0
786,"1300 S CAGE BLVD STE K,PHARR,TX,78577-6352",4.7733299651794745,0.5288545236125881,0.4057163343935484,26.18062482,-98.18641115,1,0,9.546659930358947,1.0577090472251762
787,"1300 S CAGE BLVD,PHARR,TX,78577-6351",1.7182052634093083,0.15728715728715728,0.19408369408369408,26.18062482,-98.18641115,1,0,3.4364105268186167,0.31457431457431456
788,"1300 W LANCASTER AVE,FORT WORTH,TX,76102-3410",0.2,0.0,0.0,32.74671946,-97.34035402,1,0,0.4,0.0
789,"13000 N INTERSTATE 35 # 206,AUSTIN,TX,78753-1030",0.14285714285714285,0.0,0.0,30.41563008,-97.67358204,1,0,0.2857142857142857,0.0
790,"13000 N INTERSTATE 35 STE 206,AUSTIN,TX,78753-1030",0.6666666666666666,0.0,0.0,30.41563008,-97.67358204,1,0,1.3333333333333333,0.0
791,"13000 N INTERSTATE 35,AUSTIN,TX,78753-1030",0.6666666666666666,0.0,0.0,30.41563008,-97.67358204,1,0,1.3333333333333333,0.0
792,"1301 BARBARA JORDAN BLVD STE 200,AUSTIN,TX,78723-3078",1.8333333333333333,0.0,0.0,30.30579259,-97.7073858,1,0,3.6666666666666665,0.0
793,"1301 BARBARA JORDAN BLVD STE 301,AUSTIN,TX,78723-3078",2.5,0.5333333333333333,0.0,30.30579259,-97.7073858,1,0,5.0,1.0666666666666669
794,"1301 CUSTER RD STE 460,PLANO,TX,75075-7484",0.04,0.0,0.0,33.01721863,-96.73387324,1,0,0.08,0.0
795,"1301 CUSTER RD STE 820,PLANO,TX,75075-9402",1.0,0.0,0.0,33.01721863,-96.73387324,1,0,2.0,0.0
796,"1301 E LOS EBANOS BLVD BLDG D,BROWNSVILLE,TX,78520-8634",0.07142857142857142,0.0,0.0,25.93182337,-97.50194862,1,0,0.14285714285714285,0.0
797,"1301 E LOS EBANOS BLVD STE D,BROWNSVILLE,TX,78520-8634",1.1666666666666667,0.0,0.0,25.93182337,-97.50194862,1,0,2.333333333333333,0.0
798,"1301 E US HIGHWAY 83,MCALLEN,TX,78501-8818",4.0680199856097605,0.20604066985645936,0.029411764705882363,26.19889312,-98.20539745,1,0,8.136039971219521,0.4120813397129187
799,"1301 FM 2218 RD STE 500B,RICHMOND,TX,77469-5442",1.9934782608695647,0.0,0.0,29.55742243,-95.76344147,1,0,3.9869565217391294,0.0
800,"1301 W HENDERSON ST STE H,CLEBURNE,TX,76033-5117",1.6666666666666663,0.0,0.0,32.34162253,-97.40437187,1,0,3.3333333333333326,0.0
801,"1301 WAUGH DR STE 200,HOUSTON,TX,77019-3907",1.0,0.0,0.0,29.75515189,-95.39802844,1,0,2.0,0.0
802,"1302 S GENERAL MCMULLEN DR,SAN ANTONIO,TX,78237-4200",0.3333333333333333,0.0,0.0,29.40900299,-98.55674892,1,0,0.6666666666666666,0.0
803,"1302 S MAIN ST STE 120,WEATHERFORD,TX,76086-6587",2.1718253968253967,0.0,0.0,32.74403902,-97.79767094,1,0,4.343650793650792,0.0
804,"13021 COIT RD STE 100,DALLAS,TX,75240-5700",2.7,0.0,0.0,32.92615752,-96.76922426,1,0,5.4,0.0
805,"1302B W RUNDBERG LN,AUSTIN,TX,78758-6238",0.5833333333333333,0.0,0.0,30.36751835,-97.70628835,1,0,1.1666666666666663,0.0
806,"13032 NACOGDOCHES RD STE 202,SAN ANTONIO,TX,78217-1962",1.1,1.0909090909090908,0.0,29.55910346,-98.39627585,1,0,2.2,2.1818181818181817
807,"1304 BLALOCK RD STE E,HOUSTON,TX,77055-6475",1.0,0.0,0.0,29.79262224,-95.52176956,1,0,2.0,0.0
