idx,IKN_addr,general,pediatric,specialist,Y_lat,X_long,med_indicator,chip_indicator
0,"10 CHATHAM HEIGHTS RD,FREDERICKSBURG,VA,22405-2566",0.716666667,0.333333333,2.277777778,38.30627395,-77.452273,1,0
1,"100 DMV DR,KILMARNOCK,VA,22482-3843",0,0,0.5,37.69824756,-76.38914038,1,0
2,"100 PROFESSIONAL PARK DR SE STE 1,BLACKSBURG,VA,24060-6736",0,0,1.5,37.19758558,-80.40101528,1,0
3,"1000 E BROAD ST,RICHMOND,VA,23219-1930",0,0.142857143,0,37.5402886,-77.43296544,1,0
4,"1000 WILSON BLVD STE M745,ROSSLYN,VA,22209-3922",0.25,0,0,38.89409794,-77.06860161,1,0
5,"10007 JEFFERSON DAVIS HWY STE 125,FREDERICKSBURG,VA,22407-9428",0.333333333,0,0,38.22244047,-77.5069315,1,0
6,"1001 E STUART DR,GALAX,VA,24333-2511",0,0,1,36.68176105,-80.8935061,1,0
7,"1001 N FAIRFAX ST STE 100,ALEXANDRIA,VA,22314-2084",0.5,0,0,38.81468132,-77.03986838,1,0
8,"1001 N FAIRFAX ST,ALEXANDRIA,VA,22314-1797",0.333333333,0,0,38.81507289,-77.04022991,1,0
9,"1001 W NINE MILE RD,HENRICO,VA,23075-1146",0.333333333,0,0,37.55092459,-77.33501609,1,0
10,"1005 HEATHERCROFT CIR STE 200,CROZET,VA,22932-3373",0.111111111,0,0.142857143,38.05841939,-78.70941977,1,0
11,"1005 HEATHERCROFT CIR STE 300,CROZET,VA,22932-3369",0,0.25,0,38.05841939,-78.70941977,1,0
12,"1005 N GLEBE RD STE 460,ARLINGTON,VA,22201-5932",1.25,0,0,38.88297717,-77.11612936,1,0
13,"10068 DUMFRIES RD,MANASSAS,VA,20110-7949",0.916666667,0,0,38.7394866,-77.47180672,1,0
14,"10081 MARKET CIR,MANASSAS,VA,20110-2120",0,0,0.333333333,38.73948305,-77.45410533,1,0
15,"1009 CROWDER DR,MIDLOTHIAN,VA,23113-4237",0,0,0.666666667,37.50421412,-77.6506984,1,0
16,"101 ARCHWAY CT,LYNCHBURG,VA,24502-2890",0,0,1.666666667,37.36350129,-79.24611604,1,0
17,"101 AUBREYS LOOP,SOUTH BOSTON,VA,24592-5054",2,0,0,36.726495,-78.90898399,1,0
18,"101 COWARDIN AVE STE 306,RICHMOND,VA,23224-2078",2.7,0,0,37.51935968,-77.44915545,1,0
19,"101 ELM AVE SE,ROANOKE,VA,24013-2222",2.366666667,1,1,37.26675556,-79.93963204,1,0
20,"101 S WHITING ST STE 100,ALEXANDRIA,VA,22304-3416",0.333333333,0,0.142857143,38.8135946,-77.13701016,1,0
21,"101 S WHITING ST STE 313,ALEXANDRIA,VA,22304-3416",1,0,0,38.8135946,-77.13702014,1,0
22,"101 S WHITING ST,ALEXANDRIA,VA,22304-3418",1,0,0,38.8135946,-77.13701016,1,0
23,"1010 AMHERST ST,WINCHESTER,VA,22601-3308",0,0,0.833333333,39.18911626,-78.18062936,1,0
24,"1010 N GLEBE RD STE 120,ARLINGTON,VA,22201-5761",1,0,0,38.88341265,-77.11657307,1,0
25,"10101 BROOK RD,GLEN ALLEN,VA,23059-4225",3.376190476,0,0,37.67443277,-77.45963741,1,0
26,"10120 ROBIOUS RD,NORTH CHESTERFIELD,VA,23235-4432",2,0,0,37.50771516,-77.58265283,1,0
27,"1016 N HIGHLAND ST STE 131,ARLINGTON,VA,22201-2112",0,0,1,38.8848747,-77.09467789,1,0
28,"10164 W BROAD ST,GLEN ALLEN,VA,23060-3303",0,0.5,0,37.64576537,-77.57446987,1,0
29,"10170 STAPLES MILL RD STE B,GLEN ALLEN,VA,23060-3450",0,0,1,37.655568,-77.52498299,1,0
30,"102 15TH ST NW STE 302,NORTON,VA,24273-1627",1,0,0,36.93220562,-82.64260843,1,0
31,"102 ELDEN ST STE 17,HERNDON,VA,20170-4827",1,0,0,38.96638045,-77.36645013,1,0
32,"102 HERITAGE WAY NE STE 100,LEESBURG,VA,20176-4544",1,0,0,39.11464695,-77.54152616,1,0
33,"102 WESTERN AVE,SUFFOLK,VA,23434-4434",1.5,0,0,36.73657131,-76.58269709,1,0
34,"1020 ELDEN ST STE 106,HERNDON,VA,20170-3800",0.333333333,0,0,38.96786608,-77.39553818,1,0
35,"1020 JEFFERSON AVE,WAYNESBORO,VA,22980-5527",0.04,0,0,38.05649922,-78.89956839,1,0
36,"1021 EDEN WAY N STE 128,CHESAPEAKE,VA,23320-2776",0,0,0.333333333,36.77685862,-76.22526982,1,0
37,"10246 KINGS HWY,KING GEORGE,VA,22485-3429",1,0.583333333,1,38.26187589,-77.16883193,1,0
38,"10298 BRISTOW CENTER DR,BRISTOW,VA,20136-2200",0,0,1,38.73347398,-77.54990366,1,0
39,"103 E BROAD ST,BLACKSTONE,VA,23824-1815",0.083333333,0,0,37.08044224,-77.99740201,1,0
40,"103 HIGHLANDER RD,STEPHENS CITY,VA,22655-2916",0.25,0,0,39.07984733,-78.20870558,1,0
41,"1032 VOLVO PKWY STE 3,CHESAPEAKE,VA,23320-8603",0.392857143,0.25,0,36.76950349,-76.22437049,1,0
42,"1033 28TH ST FL 1,NEWPORT NEWS,VA,23607-4233",1,0.333333333,0,36.98765616,-76.41160449,1,0
43,"1034 HILLPOINT BLVD N,SUFFOLK,VA,23434-8470",0,0,1,36.78475523,-76.58425545,1,0
44,"10391 DEMOCRACY LN STE A,FAIRFAX,VA,22030-2583",1,0,0,38.8496825,-77.30077954,1,0
45,"104 E RAILROAD AVE,RURAL RETREAT,VA,24368-3203",1,0,0,36.89386452,-81.27570131,1,0
46,"104 ELDEN ST STE 10,HERNDON,VA,20170-4825",0.5,0,0,38.96638545,-77.36641166,1,0
47,"104 ELDEN ST STE 16A,HERNDON,VA,20170-4825",1,0,0,38.96638545,-77.36641166,1,0
48,"104 MORTON AVE,PETERSBURG,VA,23805-2750",0.7,0,0.25,37.20262375,-77.37676519,1,0
49,"10406 COURTHOUSE RD,SPOTSYLVANIA,VA,22553-1712",0,0,0.444444444,38.24399719,-77.52739751,1,0
50,"10408 PORTSMOUTH RD,MANASSAS,VA,20109-8032",1.05,0.166666667,0,38.77929499,-77.50544468,1,0
51,"10409 MIDLOTHIAN TPKE,NORTH CHESTERFIELD,VA,23235-4407",0.695833333,0,0,37.50678556,-77.58830554,1,0
52,"10436 IRON BRIDGE RD,CHESTER,VA,23831-1427",0,0,0.666666667,37.3716461,-77.50126036,1,0
53,"1045 THOMAS JEFFERSON RD STE 2A,FOREST,VA,24551-4903",3,0,0,37.36406421,-79.28724346,1,0
54,"10454 HILLTOP PLAZA WAY,SPOTSYLVANIA,VA,22553-2100",0.666666667,1,0,38.24552138,-77.52700804,1,0
55,"105 AKERS FARM RD,CHRISTIANSBURG,VA,24073-4864",1.2,2,0,37.14777757,-80.41389741,1,0
56,"105 N VIRGINIA AVE STE 103,FALLS CHURCH,VA,22046-3323",1.166666667,0,0.416666667,38.88559219,-77.17531135,1,0
57,"105 PAULETTE CIR,LYNCHBURG,VA,24502-3150",0,1,0.5,37.36303493,-79.24495509,1,0
58,"1050 N HIGHLAND ST STE 300,ARLINGTON,VA,22201-2197",2.5,0.5,1,38.88529897,-77.09473771,1,0
59,"10513 BRADDOCK RD,FAIRFAX,VA,22032",1,0,0,38.82521306,-77.31230146,1,0
60,"10524 SPOTSYLVANIA AVE STE 104,FREDERICKSBURG,VA,22408-8611",1.25,0,0,38.24541028,-77.49525743,1,0
61,"10529 BRADDOCK RD STE A,FAIRFAX,VA,22032-2245",1,0,0,38.82477989,-77.31158482,1,0
62,"10529 CRESTWOOD DR STE 103,MANASSAS,VA,20109-4419",0,0,1,38.77913155,-77.51165088,1,0
63,"10545 S CRATER RD,SOUTH PRINCE GEORGE,VA,23805-7333",1.5,0,0,37.16707279,-77.35743011,1,0
64,"10555 CRESTWOOD DR STE B,MANASSAS,VA,20109-4412",1,0,0,38.77904962,-77.51247137,1,0
65,"10571 TELEGRAPH RD STE 101,GLEN ALLEN,VA,23059-4652",0,1,0,37.67394695,-77.45105866,1,0
66,"106 YORKTOWN RD,YORKTOWN,VA,23693-3500",1,0,0,37.12555629,-76.45533223,1,0
67,"10600 CRESTWOOD DR,MANASSAS,VA,20109-3432",0,0,0.666666667,38.77913338,-77.51217461,1,0
68,"10608 LEAVELLS RD,FREDERICKSBURG,VA,22407-1256",1.092857143,0,0.811111111,38.24634616,-77.52556213,1,0
69,"10611 BRADDOCK RD,FAIRFAX,VA,22032-2201",0.333333333,1.033333333,0,38.82566116,-77.31297628,1,0
70,"10611 JUDICIAL DR,FAIRFAX,VA,22030-5165",3,0,0,38.84424998,-77.3138997,1,0
71,"10614 WARWICK AVE STE B,FAIRFAX,VA,22030-3060",0,0,1,38.85688249,-77.3131686,1,0
72,"10625 CRESTWOOD DR,MANASSAS,VA,20109-3433",0,0,0.5,38.77899562,-77.51296789,1,0
73,"10630 CRESTWOOD DR STE A,MANASSAS,VA,20109-4405",0.5,0,0.25,38.77910441,-77.51252312,1,0
74,"10630 CRESTWOOD DR STE B,MANASSAS,VA,20109-4405",2.166666667,0,0.642857143,38.779695,-77.51277,1,0
75,"10695 SUDLEY MANOR DR STE 102,MANASSAS,VA,20109-2884",1.283333333,0,0,38.78493022,-77.51718316,1,0
76,"107 E HOLLY AVE STE 5E,STERLING,VA,20164-5405",0.5,0,0,39.00154069,-77.40315127,1,0
77,"107 E HOLLY AVE STE 9,STERLING,VA,20164-5405",1,0,0,39.00154069,-77.40315127,1,0
78,"107 E HOLLY AVE,STERLING,VA,20164-5405",1,0,0,39.00154069,-77.40315127,1,0
79,"107 S BROAD ST,KENBRIDGE,VA,23944-2152",1,0,0,36.9632068,-78.12426437,1,0
80,"10721 MAIN ST STE 300,FAIRFAX,VA,22030-6902",0,0,0.5,38.84939388,-77.31611144,1,0
81,"10751 AMBASSADOR DR STE 101,MANASSAS,VA,20109-2525",3.5,0,0,38.79376199,-77.51702506,1,0
82,"108 W 20TH ST,NORFOLK,VA,23517-2221",1,0,0,36.86689485,-76.28594572,1,0
83,"10801 MAIN ST,FAIRFAX,VA,22030",1,0,0,38.85001927,-77.31773276,1,0
84,"10807 MAIN ST STE 200,FAIRFAX,VA,22030-4730",1,0,0,38.85015589,-77.31795204,1,0
85,"10861 TIDEWATER TRL,FREDERICKSBURG,VA,22408-2048",1,0,0,38.25496065,-77.42820165,1,0
86,"10875 MAIN ST STE 103,FAIRFAX,VA,22030-4732",1,0,0,38.85129783,-77.32072133,1,0
87,"10875 MAIN ST STE 105,FAIRFAX,VA,22030-4732",0,0.5,0,38.85129783,-77.32072133,1,0
88,"1088 AUGUSTA FARMS RD,STUARTS DRAFT,VA,24477-3200",0.04,0,0,38.04329207,-79.01097206,1,0
89,"109 GAINSBOROUGH SQ STE N,CHESAPEAKE,VA,23320-1715",1,0,0,36.74143665,-76.24495566,1,0
90,"109 GOVERNOR ST,RICHMOND,VA,23219-3623",0.166666667,0,0,37.53732186,-77.43228436,1,0
91,"1094 ELDEN ST,HERNDON,VA,20170-3803",2.416666667,0,0,38.96550299,-77.39721547,1,0
92,"110 KINGSLEY LN STE 403,NORFOLK,VA,23505-4618",0,0,0.076923077,36.89825545,-76.28107067,1,0
93,"110 MACTANLY PL STE C,STAUNTON,VA,24401-2362",0,0,1.5,38.16847745,-79.0563953,1,0
94,"110 N MASON ST,HARRISONBURG,VA,22802-4109",1,0,0,38.45031372,-78.86629902,1,0
95,"110 N ROBINSON ST STE 201,RICHMOND,VA,23220-4460",1.5,0,0,37.5531228,-77.47259837,1,0
96,"1100 VOLVO PKWY STE 110,CHESAPEAKE,VA,23320-3341",1.226190476,0.583333333,0,36.76946541,-76.2217917,1,0
97,"1100 VOLVO PKWY STE 300,CHESAPEAKE,VA,23320-3341",0.2,0,0.5,36.76946541,-76.2217917,1,0
98,"11001 LEE HWY STE A,FAIRFAX,VA,22030-5018",1.283333333,0,0,38.85248765,-77.32485743,1,0
99,"1101 E JEFFERSON ST STE 7,CHARLOTTESVILLE,VA,22902-5353",1,0,0,38.02976682,-78.47130572,1,0
100,"1101 E JEFFERSON ST,CHARLOTTESVILLE,VA,22902-5353",0,0,0.5,38.0294534,-78.47133379,1,0
101,"1101 N COALTER ST,STAUNTON,VA,24401-2506",0.04,0,0,38.16411059,-79.05738788,1,0
102,"1103 BROOKDALE ST STE E,MARTINSVILLE,VA,24112-4531",2,0,0,36.67863781,-79.85062901,1,0
103,"11060 SMILE WAY,KING GEORGE,VA,22485-3470",0,0.333333333,0,38.26143082,-77.16676896,1,0
104,"1107 WESTBRIAR DR,RICHMOND,VA,23238-5013",1,0,0,37.59886004,-77.62292753,1,0
105,"111 SPICERS MILL RD STE D,ORANGE,VA,22960-1099",0.333333333,0,0,38.25266537,-78.1152026,1,0
106,"11113 LEAVELLS RD,FREDERICKSBURG,VA,22407-5015",0.333333333,0,0,38.2626519,-77.53987224,1,0
107,"1112 LASKIN RD STE B,VIRGINIA BEACH,VA,23451-5278",1,0,0,36.85470562,-75.99592543,1,0
108,"112 CENTER ST,NARROWS,VA,24124-1301",1,0,0,37.33069046,-80.81091594,1,0
109,"112 ELDEN ST STE O,HERNDON,VA,20170-4832",0,0,0.333333333,38.96645959,-77.3669189,1,0
110,"112 FALCON DR,FREDERICKSBURG,VA,22408-1931",0.533333333,0.5,0,38.25643007,-77.49300963,1,0
111,"112 HOUSTON ST STE B,LEXINGTON,VA,24450-2451",0.5,0,0.5,37.77745764,-79.44398212,1,0
112,"11208 WAPLES MILL RD STE 100,FAIRFAX,VA,22030-6077",1,0,0,38.85659997,-77.33580331,1,0
113,"1121 S JEFFERSON ST,ROANOKE,VA,24016-4703",2.5,0,0,37.26254442,-79.94153684,1,0
114,"11211 WAPLES MILL RD STE 300,FAIRFAX,VA,22030-7406",1,0,0,38.85892282,-77.33515448,1,0
115,"11213 LEE HWY STE A,FAIRFAX,VA,22030-5698",0.333333333,0,0,38.85132496,-77.33452938,1,0
116,"1127 FIRST COLONIAL RD,VIRGINIA BEACH,VA,23454-2402",0.2,0,0.5,36.86724916,-76.02995019,1,0
117,"1127 INDEPENDENCE BLVD,VIRGINIA BEACH,VA,23455-5545",0.333333333,0,0,36.87685463,-76.13411168,1,0
118,"1128 N MAIN ST STE A,MARION,VA,24354-4299",2,0,0,36.84446979,-81.50091113,1,0
119,"11318 JEFFERSON AVE,NEWPORT NEWS,VA,23601-2243",1,0,0,37.06717283,-76.47053421,1,0
120,"11319 POLO PL,MIDLOTHIAN,VA,23113-1434",0.142857143,0,0.958333333,37.52491544,-77.60657586,1,0
121,"1133 HEATHERSTONE DR,FREDERICKSBURG,VA,22407-4828",1,0,0,38.29199101,-77.52872544,1,0
122,"11339 SUNSET HILLS RD,RESTON,VA,20190-5205",1,0,0,38.9506282,-77.33810803,1,0
123,"11353 SUNSET HILLS RD,RESTON,VA,20190-5205",0,0,1,38.95075501,-77.33867032,1,0
124,"1148 RIVERVIEW ST,GRUNDY,VA,24614-9403",1,0,0,37.27844345,-82.10180983,1,0
125,"11490 COMMERCE PARK DR STE 110,RESTON,VA,20191-1532",1.571428571,0,0,38.94605861,-77.34276293,1,0
126,"115 BROAD STREET RD STE C,MANAKIN SABOT,VA,23103-2272",1,0,0,37.67123584,-77.6883889,1,0
127,"115 DRAFT AVE,STUARTS DRAFT,VA,24477-2746",0.04,0,0,38.03007952,-79.03413744,1,0
128,"115 JEFFERSON HWY STE 9,LOUISA,VA,23093-6563",1.083333333,0,0,38.01533037,-77.98851059,1,0
129,"115 NORTH ST,FARMVILLE,VA,23901-1311",0,0,0.333333333,37.30188273,-78.3941099,1,0
130,"1151 13TH ST STE 200,WAYNESBORO,VA,22980-4467",1,0,0,38.06726067,-78.89976094,1,0
131,"1151 E MAIN ST STE A,RADFORD,VA,24141-1761",3,0,0,37.14085755,-80.55797801,1,0
132,"1151 E MAIN ST STE C,RADFORD,VA,24141-1761",0,0,1,37.14085755,-80.55797801,1,0
133,"1151 KEEZLETOWN RD,WEYERS CAVE,VA,24486-2337",1,0,0,38.28549766,-78.91160734,1,0
134,"1152 E CHURCH ST,MARTINSVILLE,VA,24112-3225",0.5625,0,0,36.6914845,-79.84125326,1,0
135,"11545 NUCKOLS RD STE A,GLEN ALLEN,VA,23059-5666",0.125,0,0,37.68847612,-77.5944082,1,0
136,"11551 NUCKOLS RD STE A,GLEN ALLEN,VA,23059-5565",1,0.5,0.5,37.68899911,-77.59631018,1,0
137,"1157 FIRST COLONIAL RD,VIRGINIA BCH,VA,23454-2432",2.725,0.267857143,0.4,36.86817256,-76.03051445,1,0
138,"116 FOUNDERS WAY UNIT 1,STRASBURG,VA,22657-3772",0.25,0,0,39.00378222,-78.34295224,1,0
139,"116 N RAILROAD AVE,ASHLAND,VA,23005-1524",1,0,0,37.75920505,-77.48117408,1,0
140,"116 RAVINE ST STE 102,GATE CITY,VA,24251-3344",1,0,0,36.64025557,-82.57832179,1,0
141,"11601 ROBIOUS RD STE 130,MIDLOTHIAN,VA,23113-5605",1,2,0,37.52254355,-77.61319423,1,0
142,"11627 MIDLOTHIAN TPKE,MIDLOTHIAN,VA,23113-2620",1,0,0.5,37.50484773,-77.61341885,1,0
143,"1165 E ATLANTIC ST,SOUTH HILL,VA,23970-9547",1.333333333,0,0,36.70824194,-78.10665237,1,0
144,"11654 PLAZA AMERICA DR STE 163,HERNDON,VA,20190-4700",1,0,0,38.95156647,-77.34875895,1,0
145,"11670 SUDLEY MANOR DR,MANASSAS,VA,20109-2842",0.5,0,0,38.7844337,-77.51799631,1,0
146,"11700 PLAZA AMERICA DR STE 140,RESTON,VA,20190-4753",1.283333333,0,0,38.95301324,-77.34988533,1,0
147,"11783 ROCK LANDING DR,NEWPORT NEWS,VA,23606-4431",0,0.365591398,0,37.08751191,-76.46409826,1,0
148,"11790 BARON CAMERON AVE STE H,RESTON,VA,20190-5873",1,0,0,38.96697308,-77.35483772,1,0
149,"118 FORT DEFIANCE RD,FORT DEFIANCE,VA,24437-2001",0.04,0,0,38.24417334,-78.97485421,1,0
150,"11842 ROCK LANDING DR STE 105,NEWPORT NEWS,VA,23606-4437",0,0,1,37.09347919,-76.46659176,1,0
151,"11846 PERDUE SPRINGS CT,CHESTER,VA,23831-2164",0.333333333,0,0,37.36500499,-77.41783259,1,0
152,"119 UNIVERSITY BLVD STE C,HARRISONBURG,VA,22801-3753",0,1,0,38.42996736,-78.84722389,1,0
153,"11934 W BROAD ST STE 120,HENRICO,VA,23233-1100",0.5,0.75,0,37.65584788,-77.62653085,1,0
154,"11934 W BROAD ST STE 210,HENRICO,VA,23233-1100",0,0,1,37.65584788,-77.62653085,1,0
155,"1194 BIG BETHEL RD,HAMPTON,VA,23666-1906",2.808823529,0,0.125490196,37.05947056,-76.42722754,1,0
156,"1195 HISEY AVE STE 103,WOODSTOCK,VA,22664-2097",0,0,0.5,38.86977103,-78.53754159,1,0
157,"1200 E MARSHALL ST,RICHMOND,VA,23298-5049",0,0.142857143,0,37.54012773,-77.43050675,1,0
158,"1200 N HOWARD ST,ALEXANDRIA,VA,22304-1634",0.30952381,0,0,38.82295237,-77.10384255,1,0
159,"1200 W MAIN ST,WAYNESBORO,VA,22980-4315",0.04,0,0,38.07072933,-78.89680589,1,0
160,"12011 LEE JACKSON MEMORIAL HWY STE 104,FAIRFAX,VA,22033-3310",1,0,0,38.86676058,-77.36081273,1,0
161,"12011 LEE JACKSON MEMORIAL HWY STE 502,FAIRFAX,VA,22033-3315",1,0,0,38.86676058,-77.36081273,1,0
162,"1204 W MAIN ST,CHARLOTTESVILLE,VA,22903",1.669934641,0.25,1.273109244,38.03315788,-78.49737937,1,0
163,"1204 W MAIN ST,CHARLOTTESVILLE,VA,22903-2824",1.669934641,0.25,1.273109244,38.03315788,-78.49737937,1,0
164,"1209 INDEPENDENCE BLVD STE 101,VIRGINIA BEACH,VA,23455-5569",1,0,0,36.87853882,-76.13355205,1,0
165,"1215 LEE ST & 11TH ST SW,CHARLOTTESVILLE,VA,22908-0001",1.72875817,0.25,1.214285714,38.03112899,-78.4966905,1,0
166,"1215 LEE STREET 2 FLOOR,CHARLOTTESVILLE,VA,22908-0001",0.25,0,0.047619048,38.03199406,-78.49864593,1,0
167,"1216 GRANBY ST STE 2,NORFOLK,VA,23510-2622",0.333333333,0,0,36.86140144,-76.28774239,1,0
168,"12205 GAYTON RD STE A,RICHMOND,VA,23238-3212",0,1.333333333,0,37.61542723,-77.63856089,1,0
169,"1222 JEFFERSON PARK AVE FL 2,CHARLOTTESVILLE,VA,22903-3410",0.111111111,0,0.142857143,38.03296225,-78.49866222,1,0
170,"12220 IRON BRIDGE RD STE B,CHESTER,VA,23831-1543",0.5,1.333333333,0,37.35130772,-77.47791052,1,0
171,"12230 IRON BRIDGE RD STE B,CHESTER,VA,23831-1534",0,0,0.5,37.35126767,-77.47780255,1,0
172,"1225 MARTHA CUSTIS DR STE C6,ALEXANDRIA,VA,22302-2040",0.5,0,0,38.84218545,-77.07972149,1,0
173,"1229 GARRISONVILLE RD STE 101,STAFFORD,VA,22556-3655",0.5,0,0,38.48016876,-77.47683533,1,0
174,"1230 PROGRESSIVE DR STE 103,CHESAPEAKE,VA,23320-0203",2.925,0.267857143,0.4,36.76783522,-76.23067155,1,0
175,"1230 PROGRESSIVE DR STE 104,CHESAPEAKE,VA,23320-0203",0,0,0.5,36.76783522,-76.23067155,1,0
176,"1235 S CLARK ST STE 201,ARLINGTON,VA,22202-3298",0.25,0,0,38.86158694,-77.05119725,1,0
177,"12359 SUNRISE VALLEY DR STE 210,RESTON,VA,20191-3493",0,0,0.333333333,38.9497664,-77.37342338,1,0
178,"12359 SUNRISE VALLEY DR STE 330,RESTON,VA,20191-3463",1,0,0,38.9497574,-77.37342338,1,0
179,"124 VALLEY VISTA DR,WOODSTOCK,VA,22664-1608",0.2,0,0,38.86823988,-78.51543172,1,0
180,"12420 WARWICK BLVD STE 2A,NEWPORT NEWS,VA,23606-3046",1,0,0,37.0693972,-76.49297682,1,0
181,"1244 PERIMETER PKWY STE 442,VIRGINIA BEACH,VA,23454-5699",1,0,0,36.78419048,-76.01423339,1,0
182,"1244 PERIMETER PKWY STE 444,VIRGINIA BEACH,VA,23454-5699",1,0,0,36.78417451,-76.01472538,1,0
183,"125 N BAYARD AVE,WAYNESBORO,VA,22980-5156",0.04,0,0,38.06759592,-78.87872264,1,0
184,"1250 E MARSHALL ST,RICHMOND,VA,23298-5051",0.25,0.1,0.838888889,37.53977521,-77.42988914,1,0
185,"12506 LAKE RIDGE DR STE A-B,LAKE RIDGE,VA,22192-2397",2.092857143,0,0.533333333,38.67901262,-77.27406399,1,0
186,"12581 MILSTEAD WAY STE 304,WOODBRIDGE,VA,22192-5447",0,0,0.5,38.68076987,-77.36127443,1,0
187,"12581 MILSTEAD WAY STE 305B,WOODBRIDGE,VA,22192-5445",0,0.333333333,0,38.68076987,-77.36127443,1,0
188,"126 BLAKEMORE MILL RD,EWING,VA,24248-8673",1,0,0,36.60833961,-83.57754073,1,0
189,"12602 LAKE RIDGE DR,WOODBRIDGE,VA,22192-2335",1.2,0.5,0,38.67894371,-77.27415861,1,0
190,"12618 LAKE RIDGE DR,WOODBRIDGE,VA,22192-2335",1,0,0,38.67888073,-77.27436968,1,0
191,"12662 LAKE RIDGE DR STE A,WOODBRIDGE,VA,22192-7507",0,0,0.5,38.67856047,-77.27580236,1,0
192,"12699 LEE HWY,WASHINGTON,VA,22747-1931",0.25,0,0,38.69210888,-78.17541185,1,0
193,"127 WOODROW WILSON AVE,FISHERSVILLE,VA,22939-3407",0.04,0,0,38.11161552,-78.99210928,1,0
194,"12700 BLACK FOREST LN STE 304,WOODBRIDGE,VA,22192-5306",0,0.333333333,0,38.6771581,-77.34772779,1,0
195,"12701 GALVESTON CT,MANASSAS,VA,20112-8674",1.476190476,0,0,38.67921258,-77.36487419,1,0
196,"12712 JEFFERSON DAVIS HWY STE A,CHESTER,VA,23831-5369",1.433333333,0,0,37.35260612,-77.41256057,1,0
197,"12724 DIRECTORS LOOP,LAKE RIDGE,VA,22192-2462",0.5,0,0,38.67682369,-77.26584964,1,0
198,"12725 MCMANUS BLVD BLDG 1 # A,NEWPORT NEWS,VA,23602-4402",0.5,0,0,37.14331019,-76.51365444,1,0
199,"12739 DIRECTORS LOOP,WOODBRIDGE,VA,22192-2461",1,0,0,38.67679255,-77.26548848,1,0
200,"12764 DARBY BROOK CT,WOODBRIDGE,VA,22192-2486",1,0,0,38.67574972,-77.26457232,1,0
201,"12829 JEFFERSON AVE STE 107,NEWPORT NEWS,VA,23608-3057",1,0,0,37.14193661,-76.52281595,1,0
202,"129 UNIVERSITY BLVD STE A,HARRISONBURG,VA,22801-3751",0,0.2,1,38.42983938,-78.84822333,1,0
203,"12950 HIGHLAND CROSSING DR STE F,HERNDON,VA,20171-5888",1,0,0,38.9493134,-77.39444871,1,0
204,"130 THOMPSON ST,ASHLAND,VA,23005-1526",1.25,0,0.5,37.75926219,-77.48405571,1,0
205,"1300 JEFFERSON PARK AVE,CHARLOTTESVILLE,VA,22903-3363",0,0,0.25,38.03258081,-78.49984571,1,0
206,"1300 THORNTON ST STE 101,FREDERICKSBURG,VA,22401-4654",0,0.683333333,0,38.30357712,-77.48045152,1,0
207,"1301 FIRST COLONIAL RD,VIRGINIA BEACH,VA,23454-2263",1,0,0,36.86919909,-76.03256914,1,0
208,"1301 N HIGHLAND ST,ARLINGTON,VA,22201-5017",1,0,0,38.8887496,-77.09511665,1,0
209,"1301 ROCKFISH RD,WAYNESBORO,VA,22980-6308",0.04,0,0,38.13013084,-78.87208553,1,0
210,"13015 WORLDGATE DR,HERNDON,VA,20170-4374",0.833333333,0.533333333,0,38.95742011,-77.39961546,1,0
211,"13035 LEE JACKSON MEMORIAL HWY STE D,FAIRFAX,VA,22033-2039",1,0,0,38.88031671,-77.39655332,1,0
212,"1305 13TH ST STE D1,WAYNESBORO,VA,22980-3631",0.5,0,0,38.06852424,-78.90220009,1,0
213,"1309 KEMPSVILLE RD,NORFOLK,VA,23502-2205",0.125,0,0,36.86714972,-76.2043692,1,0
214,"131 ELDEN ST STE 101,HERNDON,VA,20170-4835",0.5,0,0,38.96601952,-77.36695585,1,0
215,"131 ODLE HL SW,COEBURN,VA,24230-3545",1,0,0,36.93993549,-82.47907368,1,0
216,"13245 BOOKER T WASHINGTON HWY BLDG 2 # 2,HARDY,VA,24101-3980",0.5,0,0,37.11986703,-79.71414271,1,0
217,"13295 RIVERS BEND BLVD,CHESTER,VA,23836-8610",2,0,0,37.34976464,-77.35622345,1,0
218,"13296 JAMES MADISON HWY,ORANGE,VA,22960-2810",3.916666667,1.242857143,0,38.22298579,-78.12344184,1,0
219,"133 MAPLE AVE E STE 206,VIENNA,VA,22180-5780",0.5,0,0,38.90227697,-77.26352326,1,0
220,"1330 AMHERST ST STE B,WINCHESTER,VA,22601-3000",0.333333333,0,0,39.19046014,-78.18395162,1,0
221,"13320 FRANKLIN FARM RD STE F,HERNDON,VA,20171-4097",0,1,0,38.90807666,-77.40521812,1,0
222,"13350 FRANKLIN FARM RD STE 310,HERNDON,VA,20171-4095",0.05,0,0,38.907342,-77.40796796,1,0
223,"134 HILL ST,JONESVILLE,VA,24263-7965",0.166666667,0,0,36.6875697,-83.11056373,1,0
224,"134 ROBERTS AVE SW,WISE,VA,24293-5800",0.166666667,0,0,36.98318517,-82.59030626,1,0
225,"1342 PARK AVE,LYNCHBURG,VA,24501-1824",1,0,0,37.40970437,-79.15365901,1,0
226,"135 CONSTON AVE,CHRISTIANSBURG,VA,24073-1151",2.278644292,0.195248261,0.762520649,37.15835193,-80.42265256,1,0
227,"13515 DULLES TECHNOLOGY DR STE A,HERNDON,VA,20171-3537",1,0,0,38.95301602,-77.41304828,1,0
228,"13555 WELLINGTON CENTER CIR STE 105,GAINESVILLE,VA,20155-4061",0,3,0,38.79223247,-77.59840328,1,0
229,"136 E LITTLE CREEK RD,NORFOLK,VA,23505-2503",1,0,0,36.91483725,-76.27120519,1,0
230,"13601 OFFICE PL STE 202,WOODBRIDGE,VA,22192-4213",1.5,0,0,38.65737914,-77.30448733,1,0
231,"13626 WARWICK BLVD,NEWPORT NEWS,VA,23602",0.333333333,0,0.333333333,37.1188275,-76.52342264,1,0
232,"13648 JEFFERSON DAVIS HWY,WOODBRIDGE,VA,22191-2005",1.666666667,0,0.333333333,38.65553197,-77.25180877,1,0
233,"13655 LEE JACKSON MEMORIAL HWY,CHANTILLY,VA,20151-3568",0.25,0,0,38.88909178,-77.41904075,1,0
234,"13710 ST FRANCIS BLVD,MIDLOTHIAN,VA,23114-3267",0,0.032258065,0,37.46580514,-77.65900309,1,0
235,"138 HIGHLAND DR,LEBANON,VA,24266-4636",1.5,0,0,36.90403227,-82.06889665,1,0
236,"1380 CENTRAL PARK BLVD STE 109,FREDERICKSBURG,VA,22401-4926",0,0,1,38.3025424,-77.51261471,1,0
237,"1380 LITTLE SORRELL DR STE 100,HARRISONBURG,VA,22801-7372",2.75,0,0,38.41416387,-78.86648462,1,0
238,"13824 SMOKETOWN RD,WOODBRIDGE,VA,22192-4210",1,0,0,38.65331844,-77.30482711,1,0
239,"13841 HULL STREET RD STE 4,MIDLOTHIAN,VA,23112-2056",0.5,1,1,37.40601329,-77.65989113,1,0
240,"1385 FORDHAM DR STE 106,VIRGINIA BEACH,VA,23464-5345",1,0,0,36.79946746,-76.17709192,1,0
241,"1385 LASKIN RD STE A,VIRGINIA BCH,VA,23451-6079",1,0,0,36.85180082,-76.00797706,1,0
242,"13860F BRADDOCK RD,CENTREVILLE,VA,20121-2451",1,0,0,38.83558087,-77.42697524,1,0
243,"13873 PARK CENTER RD STE 137,HERNDON,VA,20171-3248",1.5,0.041666667,2.726190476,38.93462319,-77.42755512,1,0
244,"13880 BRADDOCK RD STE 109,CENTREVILLE,VA,20121-2460",3.5,0,0,38.83609079,-77.42838769,1,0
245,"13885 HEDGEWOOD DR STE 101,WOODBRIDGE,VA,22193-7929",1.5,0,0,38.65162721,-77.31922344,1,0
246,"13885 HEDGEWOOD DR STE 225,WOODBRIDGE,VA,22193-7931",0,0,1,38.65162721,-77.31922344,1,0
247,"13890  BRADDOCK RD  STE 202,CENTREVILLE,VA,20121-2437",1,0,0,38.83643275,-77.42909917,1,0
248,"13890 BRADDOCK RD STE 106,CENTREVILLE,VA,20121-2436",0,1,0,38.83643275,-77.42909917,1,0
249,"13890 BRADDOCK RD STE 202,CENTREVILLE,VA,20121-2437",0.25,0,0,38.83643275,-77.42909917,1,0
250,"13890 BRADDOCK RD STE 305,CENTREVILLE,VA,20121-2438",1,0,0,38.83643275,-77.42909917,1,0
251,"13890 BRADDOCK RD,CENTREVILLE,VA,20121",0.45,0,0,38.83643275,-77.42909917,1,0
252,"13900 NOBLEWOOD PLZ,WOODBRIDGE,VA,22193-1449",1,0,0,38.65168153,-77.31479426,1,0
253,"13901 COALFIELD COMMONS PL BLDG 5 # 101,MIDLOTHIAN,VA,23114-1219",0.25,0,0.5,37.49367972,-77.65225962,1,0
254,"1392 OLD BRIDGE RD,LAKE RIDGE,VA,22192-2708",2.25,0,0.25,38.67409868,-77.25807418,1,0
255,"13925 COALFIELD COMMONS PL STE 102 # 4,MIDLOTHIAN,VA,23114-1225",0.5,0,0,37.4936515,-77.65262245,1,0
256,"13948 LEE JACKSON MEMORIAL HWY,CHANTILLY,VA,20151-3202",1,0,0,38.89364017,-77.4294933,1,0
257,"14 PIDGEON HILL DR STE 170,STERLING,VA,20165-6133",0.5,0,0,39.0377842,-77.41136376,1,0
258,"14001B SAINT GERMAIN DR,CENTREVILLE,VA,20121-2338",1,0,0,38.83694262,-77.43520937,1,0
259,"14007 MINNIEVILLE RD,WOODBRIDGE,VA,22193-2310",1.9,0,0,38.64916982,-77.32877013,1,0
260,"1401 MAIN ST,CLIFTON FORGE,VA,24422-1835",1,0,0,37.8147912,-79.81239467,1,0
261,"14018 SULLYFIELD CIR STE F,CHANTILLY,VA,20151-1685",0.5,0,0,38.89330995,-77.4343089,1,0
262,"1403 GREENBRIER PKWY STE 420,CHESAPEAKE,VA,23320-2876",0,0,0.333333333,36.77530303,-76.22974857,1,0
263,"1405 WESTOVER HILLS BLVD STE 1,RICHMOND,VA,23225-3153",0.5,0,0,37.52158767,-77.48810187,1,0
264,"14087 JEFFERSON DAVIS HWY STE 113,WOODBRIDGE,VA,22191-2171",0.5,0,0,38.650122,-77.25856949,1,0
265,"141 BEN BOLT AVE,TAZEWELL,VA,24651-9700",0.25,0,0,37.1257628,-81.49001222,1,0
266,"14102 SULLYFIELD CIR STE 500,CHANTILLY,VA,20151-1673",1,0,0,38.89404162,-77.4353546,1,0
267,"14130 NOBLEWOOD PLZ STE 207,WOODBRIDGE,VA,22193-1466",1,0,0,38.64953072,-77.31364572,1,0
268,"14136 MINNIEVILLE RD,WOODBRIDGE,VA,22193-2313",1,0,0,38.64686955,-77.33509432,1,0
269,"14149 ROBERT PARIS CT STE A,CHANTILLY,VA,20151-4223",0,0,0.5,38.87883409,-77.43638553,1,0
270,"1415 ROLKIN CT STE 101,CHARLOTTESVILLE,VA,22911-3643",0.361111111,0,0.142857143,38.03039646,-78.44140187,1,0
271,"14165 ROBERT PARIS CT STE A,CHANTILLY,VA,20151-4243",1,0,0,38.8791882,-77.43698606,1,0
272,"142 INDEPENDENCE BLVD,VIRGINIA BEACH,VA,23462-6718",0.076923077,0.076923077,0.076923077,36.841239,-76.13668722,1,0
273,"1420 CENTRAL PARK BLVD STE 201,FREDERICKSBURG,VA,22401-4932",0,0.5,0.5,38.30321421,-77.51234764,1,0
274,"14215F CENTREVILLE SQ,CENTREVILLE,VA,20121-2301",0,0,1,38.83761751,-77.43767088,1,0
275,"14245 LEE HWY,BRISTOL,VA,24202-4317",1,0,0,36.64024487,-82.1053922,1,0
276,"14245M CENTREVILLE SQ,CENTREVILLE,VA,20121-2368",0,1,0,38.83763297,-77.43836173,1,0
277,"14245P CENTREVILLE SQ,CENTREVILLE,VA,20121-2368",4,0,0,38.83763297,-77.43836173,1,0
278,"1425 S EADS ST STE C,ARLINGTON,VA,22202-2847",1,0,0,38.86066378,-77.05368765,1,0
279,"1429 S BOSTON RD,DANVILLE,VA,24540-5088",0.65,0,0,36.58109452,-79.33931002,1,0
280,"14338 GIDEON DR,WOODBRIDGE,VA,22192-4640",0.833333333,0,0,38.6394146,-77.29333146,1,0
281,"14346 WARWICK BLVD STE 418,NEWPORT NEWS,VA,23602-3817",2.470801154,0.195248261,1.025125691,37.12826734,-76.5358338,1,0
282,"1436 S INDEPENDENCE BLVD STE 100,VIRGINIA BEACH,VA,23462-5295",0.5,0,0,36.81992662,-76.12672159,1,0
283,"1438 DUKE ST,ALEXANDRIA,VA,22314-3403",1.166666667,0,0,38.80390967,-77.0566362,1,0
284,"14389 HEREFORD RD,WOODBRIDGE,VA,22193-2107",0.5,0,0,38.64999251,-77.32686329,1,0
285,"14393 HEREFORD RD,DALE CITY,VA,22193-2107",1,0,0,38.64980149,-77.32678335,1,0
286,"14416 JEFFERSON DAVIS HWY STE 16,WOODBRIDGE,VA,22191-2890",1,0,0,38.64019356,-77.26711794,1,0
287,"14431 SOMMERVILLE CT STE A,MIDLOTHIAN,VA,23113-6812",0,0,1,37.50913479,-77.67608846,1,0
288,"1451 BELLE HAVEN RD STE 210,ALEXANDRIA,VA,22307-1201",0.5,0,0,38.78055948,-77.05741104,1,0
289,"1457 MOUNT PLEASANT RD STE 103,CHESAPEAKE,VA,23322-3919",1,0,0,36.71451554,-76.18682102,1,0
290,"14573 POTOMAC MILLS RD,WOODBRIDGE,VA,22192-6808",2,1,0,38.63537594,-77.29798806,1,0
291,"1460 PANTOPS MOUNTAIN PL,CHARLOTTESVILLE,VA,22911-4600",1.5,0.2,0.142857143,38.02898783,-78.43962767,1,0
292,"14631 LEE HWY STE 116,DUNN LORING,VA,22180-5825",0.25,0,0,38.895846,-77.25787999,1,0
293,"14631 LEE HWY STE 117,CENTREVILLE,VA,20121-5825",1.25,0,0,38.83517798,-77.45468635,1,0
294,"14631 LEE HWY STE 201,CENTREVILLE,VA,20121-5827",1.5,0,0,38.83517798,-77.45468635,1,0
295,"14631 LEE HWY STE 211,CENTREVILLE,VA,20121-5827",0.5,0,0,38.83517798,-77.45468635,1,0
296,"14631 LEE HWY STE 305,CENTREVILLE,VA,20121-5834",1,0,0,38.83517798,-77.45468644,1,0
297,"14634 LEE HWY,GAINESVILLE,VA,20155-2119",0,0,1,38.79241693,-77.62668966,1,0
298,"14637 LEE HWY STE 104,CENTREVILLE,VA,20121-5830",1,0,0,38.83516797,-77.45476688,1,0
299,"1466B N BEAUREGARD ST,ALEXANDRIA,VA,22311-5800",0.5,0,0,38.83068203,-77.12488541,1,0
300,"1470 PANTOPS MOUNTAIN PL STE 1,CHARLOTTESVILLE,VA,22911-4662",0.111111111,0,0,38.02830618,-78.4389848,1,0
301,"1470 PANTOPS MOUNTAIN PL,CHARLOTTESVILLE,VA,22911-4600",3.25,2.2,1.892857143,38.02830618,-78.4389848,1,0
302,"14701 LEE HWY STE 306,CENTREVILLE,VA,20121-2135",1,0,0,38.83497502,-77.45553491,1,0
303,"14761 FOREST RD,FOREST,VA,24551-5001",1.333333333,0,0,37.36707187,-79.29730512,1,0
304,"14904 JEFFERSON DAVIS HWY STE 304,WOODBRIDGE,VA,22191-3908",3.083333333,0,0,38.62967832,-77.27479748,1,0
305,"15 CLEVELAND AVE,MARTINSVILLE,VA,24112-2937",1,0,0,36.68830899,-79.86731439,1,0
306,"15 GOSNELL XING,STAUNTON,VA,24401-6297",0,1,0,38.10875579,-78.99508613,1,0
307,"150 BURNETTS WAY STE 300B,SUFFOLK,VA,23434-8288",1,0,0,36.77004554,-76.58301086,1,0
308,"1500 BROOKHAVEN DR,ROCKINGHAM,VA,22801-3658",0,0,0.333333333,38.4062075,-78.86276945,1,0
309,"1500 CORNERSIDE BLVD STE 200,VIENNA,VA,22182-2434",1,0,0.166666667,38.92942286,-77.24449937,1,0
310,"1503 DODONA TER STE 105,LEESBURG,VA,20175-4718",1,0,0.5,39.09143026,-77.52509552,1,0
311,"1509 DODONA TER STE 105A,LEESBURG,VA,20175-4709",0,0.0625,0,39.09052198,-77.52307385,1,0
312,"1509 W 3RD ST STE 203,FARMVILLE,VA,23901-2649",0,0,1.666666667,37.30516674,-78.4141644,1,0
313,"1515 CHAIN BRIDGE RD STE 206,MCLEAN,VA,22101-4421",0,0,1,38.93072991,-77.18212946,1,0
314,"1515 LYNNHAVEN PKWY,VIRGINIA BEACH,VA,23453-2054",1,0,1,36.79556446,-76.10022494,1,0
315,"1515 NOBLIN AVE,SOUTH BOSTON,VA,24592-2354",1,0,0,36.70493799,-78.91077576,1,0
316,"1516 N SHENANDOAH AVE STE B,FRONT ROYAL,VA,22630-3649",2.5,0,0.25,38.93698755,-78.19924874,1,0
317,"1520 BREEZEPORT WAY STE 600,SUFFOLK,VA,23435-3757",0,0,2,36.86176827,-76.45259643,1,0
318,"153 E MORGAN AVE,PENNINGTON GAP,VA,24277-2643",1,0,0,36.75886284,-83.02690864,1,0
319,"1530 BREEZEPORT WAY STE 500,SUFFOLK,VA,23435-3756",0,0,1,36.86176827,-76.45259643,1,0
320,"15410 WARWICK BLVD,NEWPORT NEWS,VA,23608-1576",2,0,0,37.14954791,-76.55276934,1,0
321,"1544 LASKIN RD STE 226,VIRGINIA BCH,VA,23451-7502",1,0,0,36.85137441,-76.01530203,1,0
322,"155 KINGSLEY LN STE 230,NORFOLK,VA,23505-4629",0.5,0,0.5,36.89857264,-76.28211219,1,0
323,"15587 KINGS HWY,MONTROSS,VA,22520",1,0,0,38.09276425,-76.8304542,1,0
324,"156 E MAIN ST,LURAY,VA,22835-1366",0.5,0,0,38.66542852,-78.45560422,1,0
325,"157 N MAIN ST,SUFFOLK,VA,23434-4565",0.5,0,0,36.72938002,-76.58276424,1,0
326,"15875 N JAMES MADISON HWY,DILLWYN,VA,23936-3403",3,0,0,37.54082546,-78.47679734,1,0
327,"1589 PORT REPUBLIC RD # 2,ROCKINGHAM,VA,22801-3517",1,0,0,38.41105458,-78.86501497,1,0
328,"159 HILLWOOD AVE,FALLS CHURCH,VA,22046-2913",0.5,0,0,38.87915142,-77.17215173,1,0
329,"160 RIVENDELL CT STE 7,WINCHESTER,VA,22603-8661",1.853822055,0,0,39.21038382,-78.17418197,1,0
330,"1600 E LITTLE CREEK RD STE 330,NORFOLK,VA,23518-4136",1,0,0,36.91687644,-76.23089255,1,0
331,"161 FORT EVANS RD NE STE 3,LEESBURG,VA,20176-3369",1,0,0,39.10903002,-77.54172392,1,0
332,"161 FORT EVANS RD NE STE 300,LEESBURG,VA,20176-3374",1,0,0,39.10953967,-77.5397964,1,0
333,"1612 GRAVES MILL RD,LYNCHBURG,VA,24502-4329",0,0,0.5,37.37704252,-79.23670102,1,0
334,"1620 TIMBERWOOD BLVD STE 201,CHARLOTTESVILLE,VA,22911-7573",0,1,0,38.12955458,-78.43747906,1,0
335,"163 FORT EVANS RD NE,LEESBURG,VA,20176-4420",3.25,0,0,39.10923513,-77.54091466,1,0
336,"1633 WILLIAMSBURG RD,RICHMOND,VA,23231-1543",2,0,0,37.5147463,-77.39455171,1,0
337,"165 LEGRANDE AVE,CHARLOTTE COURT HOUSE,VA,23923-3747",0.083333333,0,0,37.05483384,-78.63722844,1,0
338,"16625 MOUNTAIN RD,MONTPELIER,VA,23192-2660",0.666666667,0,0,37.81408468,-77.66331586,1,0
339,"16689 RIVER RIDGE BLVD,WOODBRIDGE,VA,22191-4630",0.2,0,0,38.58673929,-77.30251252,1,0
340,"167 W MAIN ST,BEDFORD,VA,24523-1950",1,0,0,37.33509516,-79.52600937,1,0
341,"16708 JEFFERSON DAVIS HWY STE 115,DUMFRIES,VA,22026-2770",0.25,1.133823529,0.5,38.58996519,-77.30432524,1,0
342,"1680 HUGUENOT RD,MIDLOTHIAN,VA,23113-2427",0,0,0.333333333,37.5157171,-77.61544237,1,0
343,"17 FORT EVANS RD NE STE E,LEESBURG,VA,20176-4400",0,0,0.5,39.10734799,-77.54840569,1,0
344,"17 GOSNELL XING,STAUNTON,VA,24401-6297",0,0,1,38.10848054,-78.99438971,1,0
345,"170 GARBER LN,WINCHESTER,VA,22602-4386",0.333333333,0,0.333333333,39.15735182,-78.16064713,1,0
346,"1705 AMHERST ST STE 201,WINCHESTER,VA,22601-3346",0.383333333,0,0.0625,39.19137952,-78.18825404,1,0
347,"1705 AMHERST ST STE L02,WINCHESTER,VA,22601-3345",0.333333333,0,0,39.19137952,-78.18825404,1,0
348,"1707 OSAGE ST STE 402,ALEXANDRIA,VA,22302-2611",1,0,0,38.8282364,-77.08487813,1,0
349,"171 ELDEN ST STE 203,HERNDON,VA,20170-4875",1,0,0,38.96607157,-77.36765441,1,0
350,"171 ELDEN ST STE 3A2,HERNDON,VA,20170-4875",1,0,0,38.96607157,-77.36761434,1,0
351,"1711 PARKVIEW DR,CHESAPEAKE,VA,23320-2630",1,0,0,36.79132109,-76.23822021,1,0
352,"1716 N SHENANDOAH AVE,FRONT ROYAL,VA,22630-3644",2.353822055,0,0,38.93796119,-78.19931397,1,0
353,"17181 WAYSIDE DR,DUMFRIES,VA,22026-2766",1,0,0,38.57813365,-77.31046186,1,0
354,"172 LINDEN DR STE 111,WINCHESTER,VA,22601-2892",0,0,0.833333333,39.19375825,-78.18923645,1,0
355,"17202 RICHMOND TPKE,MILFORD,VA,22514-2211",1.083333333,0,0,38.02385229,-77.33954716,1,0
356,"1731 CLARENDON BLVD,ARLINGTON,VA,22209-2741",1.7,0,0.5,38.89303707,-77.07875974,1,0
357,"17333 PICKWICK DR STE A,PURCELLVILLE,VA,20132-6174",1,0,0,39.13998651,-77.69709439,1,0
358,"1734 E LITTLE CREEK RD,NORFOLK,VA,23518-4202",0.5,0,0,36.91678279,-76.22821708,1,0
359,"1740 EUCLID AVE,BRISTOL,VA,24201-3736",4,0,0,36.5994842,-82.20038347,1,0
360,"1741 VIRGINIA AVE STE G,HARRISONBURG,VA,22802-8330",1,0,0,38.48022972,-78.87095433,1,0
361,"17488 CENTER DR STE 3A,RUTHER GLEN,VA,22546-5808",1,0,0,38.01950696,-77.51122418,1,0
362,"175 WARRIOR DR,STEPHENS CITY,VA,22655-4045",1,0,0,39.08119176,-78.19248423,1,0
363,"1751 SHUTTERLEE MILL RD,STAUNTON,VA,24401-1709",0.04,0,0,38.17721093,-79.08834017,1,0
364,"1755 N MECKLENBURG AVE,SOUTH HILL,VA,23970-4080",0.333333333,0,0,36.74831357,-78.10227156,1,0
365,"1760 RESTON PKWY STE 415,RESTON,VA,20190-3360",4.166666667,0,0,38.96278906,-77.35430762,1,0
366,"17606 MAIN ST STE 200,DUMFRIES,VA,22026-2344",0,0,0.5,38.56978848,-77.32076314,1,0
367,"1761 JAMESTOWN RD STE 102,WILLIAMSBURG,VA,23185-2336",1,0,0,37.23919084,-76.76102311,1,0
368,"17739 MAIN ST STE 130,DUMFRIES,VA,22026-3256",0.866666667,0,0,38.56757866,-77.32621146,1,0
369,"17775 MAIN ST STE 103,DUMFRIES,VA,22026-2491",0.75,0,0,38.56666199,-77.32846587,1,0
370,"17775 MAIN ST,DUMFRIES,VA,22026-2491",1,0,0,38.56666199,-77.32846587,1,0
371,"17865 MAIN ST STE A,DUMFRIES,VA,22026-2411",1.25,0,0,38.56463099,-77.32919699,1,0
372,"1790 BALL ST,TAPPAHANNOCK,VA,22560-5082",0,0,0.5,37.90261982,-76.86515098,1,0
373,"18 S THOMPSON ST UNIT 154,RICHMOND,VA,23221-2721",0,0,0.25,37.55673824,-77.48858041,1,0
374,"18 WIRT ST SW,LEESBURG,VA,20175-2915",1,0,0,39.11503334,-77.5664007,1,0
375,"180 E BELT BLVD,RICHMOND,VA,23224-1204",2,0,0,37.5061254,-77.48155887,1,0
376,"1800 PLAZA DR,WINCHESTER,VA,22601-6365",2,0,0,39.16772575,-78.17390046,1,0
377,"1800 TOWN CENTER DR STE 116,RESTON,VA,20190-3237",0.333333333,0,0.333333333,38.96315959,-77.36448194,1,0
378,"1801 ROBERT FULTON DR STE 100,RESTON,VA,20191-4347",1,0.5,0,38.94307537,-77.32396967,1,0
379,"1801 ROBERT FULTON DR STE 250,RESTON,VA,20191-5493",0.5,0,0,38.94307604,-77.32397134,1,0
380,"18010 JEFFERSON DAVIS HWY,RUTHER GLEN,VA,22546-2922",1.808823529,0,0,38.01797168,-77.51520349,1,0
381,"18043 DUMFRIES SHOPPING PLZ,DUMFRIES,VA,22026-2356",1.476190476,0,0,38.56082131,-77.32979686,1,0
382,"1805 LASKIN RD STE 100,VIRGINIA BEACH,VA,23454-4549",1,0,0,36.8494829,-76.02779476,1,0
383,"1805 MONUMENT AVE STE 100,RICHMOND,VA,23220-7005",0.142857143,0,0,37.55378472,-77.4605855,1,0
384,"1805 MONUMENT AVE STE 501,RICHMOND,VA,23220-7005",0.5,0,0,37.55378472,-77.4605855,1,0
385,"1807 HUGUENOT RD STE 120,MIDLOTHIAN,VA,23113-5604",0,0,0.25,37.51693712,-77.6157508,1,0
386,"1807 HUGUENOT RD STE 124,MIDLOTHIAN,VA,23113-5604",1,0,0,37.51693712,-77.6157508,1,0
387,"1807 LIBBIE AVE STE 100,RICHMOND,VA,23226-1837",0.333333333,0,0,37.58757174,-77.50632143,1,0
388,"181 COMAY TER,ALEXANDRIA,VA,22304-8205",0.333333333,0,0,38.81006344,-77.11694873,1,0
389,"184 FORT DEFIANCE RD,FORT DEFIANCE,VA,24437-2001",0.04,0,0,38.24650062,-78.97502204,1,0
390,"18474 CROSSROAD PKWY,CULPEPER,VA,22701-4112",0.55,0,0,38.44421989,-78.00391689,1,0
391,"1850 CAMERON GLEN DR STE 100,RESTON,VA,20190-3310",1.666666667,0,0,38.96296407,-77.35903441,1,0
392,"1850 POCAHONTAS TRL,QUINTON,VA,23141-1657",0,0.5,0,37.51446057,-77.19829767,1,0
393,"1880 COUNTRY CLUB RD,HARRISONBURG,VA,22802-8858",0,0,0.5,38.43343806,-78.83958651,1,0
394,"18849 KINGS HWY,MONTROSS,VA,22520-2965",1.583333333,0,0,38.07586982,-76.78071284,1,0
395,"19 CATOCTIN CIR NE,LEESBURG,VA,20176-3100",2,0,0,39.11135829,-77.55473491,1,0
396,"19 CLEVELAND AVE,MARTINSVILLE,VA,24112-2925",0,1,0,36.68790901,-79.86740027,1,0
397,"190 BEECH ST STE 102,GATE CITY,VA,24251-3600",0.166666667,0,0,36.63961145,-82.57243211,1,0
398,"190 WATSON ST,DANVILLE,VA,24541-2835",1,0,0,36.57428702,-79.40708921,1,0
399,"1900 ELECTRIC RD,SALEM,VA,24153-7474",0.5,0,0,37.26388429,-80.03325923,1,0
400,"1900 OPITZ BLVD STE C,WOODBRIDGE,VA,22191-3320",1.333333333,0,0,38.63471711,-77.2737464,1,0
401,"1901 N MOORE ST STE 501,ROSSLYN,VA,22209-1700",0.2,0,0,38.89760301,-77.07142886,1,0
402,"1901 TATE SPRINGS RD,LYNCHBURG,VA,24501-1109",0,0,1.166666667,37.41475419,-79.17129693,1,0
403,"1906 BELLEVIEW AVE SE,ROANOKE,VA,24014-1838",1.366666667,0,2.666666667,37.2520016,-79.94251044,1,0
404,"1911 BALLENGER AVE,ALEXANDRIA,VA,22314-6819",2,0,0,38.80253348,-77.06213823,1,0
405,"1912 OPITZ BLVD,WOODBRIDGE,VA,22191-3304",1.333333333,0,0,38.63471608,-77.2737459,1,0
406,"19144 US HIGHWAY 29,CHATHAM,VA,24531-0010",1.4,0,0,36.85663363,-79.39776272,1,0
407,"1922 THOMSON DR,LYNCHBURG,VA,24501-1019",0,0,1,37.41788976,-79.174607,1,0
408,"1940 BRAEBURN DR STE A,SALEM,VA,24153-7383",0.5,0,0,37.26414285,-80.02625552,1,0
409,"1941 EUCLID AVE,BRISTOL,VA,24201-3607",1,0,0,36.59850997,-82.20373417,1,0
410,"19415 DEERFIELD AVE STE 309,LANSDOWNE,VA,20176-8472",1,0,0,39.08106609,-77.48613662,1,0
411,"19420 GOLF VISTA PLZ STE 210,LEESBURG,VA,20176-8267",1,0,0,39.07766076,-77.48266845,1,0
412,"19450 DEERFIELD AVE STE 465,LEESBURG,VA,20176-6822",0.5,0,0,39.07776618,-77.47564297,1,0
413,"19465 DEERFIELD AVE STE 302,LANSDOWNE,VA,20176-1705",0,2.2,0,39.07898662,-77.48020495,1,0
414,"19465 DEERFIELD AVE STE 304,LANSDOWNE,VA,20176-1705",0,0,1,39.07898662,-77.48020495,1,0
415,"195 E SPRING ST,WYTHEVILLE,VA,24382-2659",1,0,0,36.94970449,-81.08192306,1,0
416,"1959 E PEMBROKE AVE,HAMPTON,VA,23663-1338",0,0,0.333333333,37.03994353,-76.30621339,1,0
417,"1964 GALLOWS RD STE 220,VIENNA,VA,22182-3814",0,0,1,38.91065647,-77.22601004,1,0
418,"1964 GALLOWS RD STE 230,VIENNA,VA,22182-3814",2,0,0,38.91065647,-77.22601004,1,0
419,"1965 JEFFERSON DAVIS HWY STE 100,FREDERICKSBURG,VA,22401-6213",1.083333333,0,0,38.2847437,-77.48802473,1,0
420,"1984 ISAAC NEWTON SQ W STE 201,RESTON,VA,20190-5040",0.5,0,1,38.95290537,-77.3388725,1,0
421,"2 CARDINAL PARK DR SE STE 206A,LEESBURG,VA,20175-4401",2,0,0,39.10081629,-77.5390808,1,0
422,"2 E GLEBE RD,ALEXANDRIA,VA,22305-2938",0.30952381,0,0,38.83542968,-77.05746337,1,0
423,"2 N LIGHT ST,LOVETTSVILLE,VA,20180-8613",1,0,0,39.27381514,-77.63670737,1,0
424,"20 PIDGEON HILL DR STE 206,STERLING,VA,20165-6134",0,0,1,39.03760179,-77.41083971,1,0
425,"20 PLANTATION DR STE 139,FREDERICKSBURG,VA,22406-6493",1.676190476,0,0.533333333,38.35338086,-77.50585052,1,0
426,"200 BATTLEFIELD BLVD N STE 4,CHESAPEAKE,VA,23320-3975",1.5,0,0,36.72375131,-76.2410044,1,0
427,"200 BATTLEFIELD BLVD N,CHESAPEAKE,VA,23320-3975",0.333333333,0,0,36.72375131,-76.2410044,1,0
428,"200 COURT ST,LAWRENCEVILLE,VA,23868-1812",1,0,0,36.75788374,-77.84624378,1,0
429,"200 GUMWOOD DR,SMITHFIELD,VA,23430-6087",0,0,1,36.95928154,-76.60145169,1,0
430,"200 MEDICAL PARK BLVD,PETERSBURG,VA,23805-9274",0.333333333,0,0.5,37.18365196,-77.36138343,1,0
431,"201 A ST,FARMVILLE,VA,23901-1613",0.333333333,0,0,37.29813326,-78.38268026,1,0
432,"201 E MAIN ST STE 12,FLOYD,VA,24091-2501",0.5,0,0,36.911225,-80.31955683,1,0
433,"201 ELDEN ST STE 102,HERNDON,VA,20170-4812",1,0,0,38.96644266,-77.36950546,1,0
434,"201 FRANCIS MARION LN,MARION,VA,24354-4227",0.166666667,0,0,36.85265528,-81.50599888,1,0
435,"2010 CORPORATE RDG STE 700,MCLEAN,VA,22102-7838",1.333333333,0,0,38.91129437,-77.21575728,1,0
436,"2013 JEFFERSON ST SW,ROANOKE,VA,24014-2419",0.2,0,0.333333333,37.2506314,-79.94402062,1,0
437,"2017 JEFFERSON ST SW,ROANOKE,VA,24014-2419",2.866666667,0,3.5,37.24992771,-79.94434391,1,0
438,"2018 BOULEVARD,COLONIAL HEIGHTS,VA,23834-2310",1.75,0,0,37.25900047,-77.41162068,1,0
439,"202 E 5TH AVE,KENBRIDGE,VA,23944-2040",0.416666667,0,0,36.96233743,-78.12262119,1,0
440,"202 S MAIN ST STE 101,BLACKSBURG,VA,24060-4837",2,0,0,37.22849707,-80.41308074,1,0
441,"2020 OPITZ BLVD STE A,WOODBRIDGE,VA,22191-3356",0.5,0,0.666666667,38.63459008,-77.27429399,1,0
442,"2021 CONCERT DR,VIRGINIA BEACH,VA,23456-8082",0.125,0,0,36.77667731,-76.10065471,1,0
443,"20280 MARKET ST,ONANCOCK,VA,23417-1331",1,0,0,37.70410509,-75.72622668,1,0
444,"2029 LYNNHAVEN PKWY STE 700,VIRGINIA BEACH,VA,23456-1489",0,0,1,36.79272802,-76.12301584,1,0
445,"203 SALEM CHURCH RD,STEPHENS CITY,VA,22655-5314",1,0,0,39.06222648,-78.23607525,1,0
446,"2033 FISHER ARC STE 100,VIRGINIA BCH,VA,23456-7031",0,0,0.125,36.74885157,-76.01071065,1,0
447,"2033 FISHER ARC STE 100,VIRGINIA BEACH,VA,23456-7031",0.201923077,0.326923077,0,36.74885983,-76.01073077,1,0
448,"204 CAMPBELL LN,TAZEWELL,VA,24651-5387",1,0,0,37.12606635,-81.49172546,1,0
449,"2040 COLISEUM DR STE 27A,HAMPTON,VA,23666-3200",4.616666667,0,0,37.04544674,-76.39014878,1,0
450,"20405 EXCHANGE ST STE 260,ASHBURN,VA,20147-5935",0,1,0,39.05149191,-77.45394632,1,0
451,"205 PIEDMONT AVE,BRISTOL,VA,24201-4167",0.166666667,0,0,36.59851464,-82.18299878,1,0
452,"2052 JEFFERSON DAVIS HWY STE 103,STAFFORD,VA,22554-7286",1.25,0,0,38.41905589,-77.40857781,1,0
453,"2065 S PLEASANT VALLEY RD,WINCHESTER,VA,22601-7001",3.408896393,0.361914927,0.70369712,39.16172534,-78.16883068,1,0
454,"2070 CHAIN BRIDGE RD STE 530,VIENNA,VA,22182-2573",1,0,0,38.91682967,-77.23689152,1,0
455,"2070 OLD BRIDGE RD STE 201,WOODBRIDGE,VA,22192-2496",1,0,0,38.67785522,-77.2758888,1,0
456,"2071 PRO POINTE LN,HARRISONBURG,VA,22801-8021",0,1,1,38.4249238,-78.84832905,1,0
457,"208 ELM AVE STE B,LOUISA,VA,23093-6578",1,0,0,38.02182264,-78.00537654,1,0
458,"209 ELDEN ST STE 210,HERNDON,VA,20170-4846",0.5,0,0,38.96656786,-77.37028994,1,0
459,"209 PAINTER ST STE 1,GALAX,VA,24333-4468",0.5,0,0,36.65734174,-80.92865923,1,0
460,"21 FORT EVANS RD NE STE E,LEESBURG,VA,20176-4488",1,0,0,39.10740199,-77.54821669,1,0
461,"21 TOWN CENTER WAY,HAMPTON,VA,23666-1999",2,0,0,37.06184047,-76.42654886,1,0
462,"210 MEADOW VIEW BLVD,SUFFOLK,VA,23435-3495",2.758333333,0.43452381,0.4,36.85496863,-76.46224927,1,0
463,"210 N 4TH AVE,HOPEWELL,VA,23860-2504",0.5,0,0,37.30262089,-77.29103832,1,0
464,"2100 LYNNHAVEN PKWY STE 200,VIRGINIA BEACH,VA,23456-1492",1,1,0,36.78921859,-76.12585867,1,0
465,"2100 WASHINGTON BLVD,ARLINGTON,VA,22204-5703",1.142857143,0,0,38.87334066,-77.08362068,1,0
466,"21001 SYCOLIN RD STE 240,ASHBURN,VA,20147-4074",1,0,0,39.04212654,-77.52246493,1,0
467,"2105 ACADEMY RD UNIT J,POWHATAN,VA,23139-5829",2,0,0,37.53950961,-77.88409838,1,0
468,"2108 HARTFORD RD,HAMPTON,VA,23666-2409",0,0,0.5,37.04755551,-76.39487868,1,0
469,"211 EDGEWOOD RD,STAUNTON,VA,24401-3418",0,0,0.5,38.1585237,-79.06473521,1,0
470,"211 PROVIDENCE RD STE 11,CHESAPEAKE,VA,23325-4687",1,0,0,36.79867592,-76.25358752,1,0
471,"2111 HARTFORD RD STE C,HAMPTON,VA,23666-2576",0,0.5,0,37.04783552,-76.39504383,1,0
472,"2111 HARTFORD RD STE D,HAMPTON,VA,23666-2576",0.31978022,0.209181141,0,37.04783552,-76.39504383,1,0
473,"2111 HARTFORD RD,HAMPTON,VA,23666-2576",0.083333333,0,0,37.04783552,-76.39504383,1,0
474,"2112 GALLOWS RD STE D,VIENNA,VA,22182-3963",1,0,0,38.90415092,-77.22292739,1,0
475,"2113 HARTFORD RD STE C,HAMPTON,VA,23666-2575",0.44478022,0.459181141,0.201923077,37.04815052,-76.3951618,1,0
476,"2113 HARTFORD RD,HAMPTON,VA,23666-2575",0.076923077,0,0.076923077,37.04815052,-76.3951618,1,0
477,"21145 WHITFIELD PL STE 103,STERLING,VA,20165-7278",1,0,0,39.0326968,-77.39577398,1,0
478,"21155 WHITFIELD PL STE 101,STERLING,VA,20165-7277",2,0,0,39.03259404,-77.39577866,1,0
479,"21155 WHITFIELD PL STE 106,STERLING,VA,20165-7277",0.333333333,0,0,39.03259404,-77.39577867,1,0
480,"21165 WHITFIELD PL STE 101,STERLING,VA,20165-7276",1,0,0,39.03244104,-77.39582817,1,0
481,"21165 WHITFIELD PL STE 104,STERLING,VA,20165-7276",1,0,0,39.03244104,-77.39582817,1,0
482,"2117 MCCOMAS WAY STE 101,VIRGINIA BEACH,VA,23456-3908",0,0,0.5,36.76469307,-76.01699854,1,0
483,"2118 EXECUTIVE DR,HAMPTON,VA,23666-2402",0,0,0.5,37.04837426,-76.39708254,1,0
484,"2125 MCCOMAS WAY STE 105,VIRGINIA BEACH,VA,23456-3986",0.392857143,0.25,0,36.76455411,-76.01731899,1,0
485,"213 BULIFANTS BLVD STE B,WILLIAMSBURG,VA,23188-5733",0.5,0,0,37.33467565,-76.73294845,1,0
486,"2131 MAGNOLIA AVE,BUENA VISTA,VA,24416-3111",1,0,0,37.73483268,-79.35415523,1,0
487,"21312 CHESTERFIELD AVE,SOUTH CHESTERFIELD,VA,23803-2406",1,0,0,37.23424535,-77.42189361,1,0
488,"2136 GALLOWS RD STE B,DUNN LORING,VA,22027-1036",0.5,0,0,38.90290714,-77.2232568,1,0
489,"2140 GREAT NECK SQ,VIRGINIA BEACH,VA,23454-2202",0,0,0.333333333,36.87590353,-76.0381924,1,0
490,"2145 S MILITARY HWY,CHESAPEAKE,VA,23320-4426",0.333333333,0,0,36.77989407,-76.26457712,1,0
491,"21475 RIDGETOP CIR STE 200,STERLING,VA,20166-8504",2,0.2,0,39.03099453,-77.40829429,1,0
492,"215 ROANOKE ST,CHRISTIANSBURG,VA,24073-3025",1.833333333,0,1,37.13012749,-80.40227336,1,0
493,"21525 RIDGETOP CIR STE 220,STERLING,VA,20166-6577",0.333333333,0,0,39.02933424,-77.40657973,1,0
494,"216 BUSINESS PARK DR STE A,VIRGINIA BEACH,VA,23462-6521",1,0,0,36.84477947,-76.17708902,1,0
495,"2165 CUNNINGHAM DR,HAMPTON,VA,23666-2569",3.958896393,1.695248261,0.770363787,37.04712987,-76.38876869,1,0
496,"2180 LYNCH MILL RD,ALTAVISTA,VA,24517-1150",1,0,0,37.13122575,-79.2825621,1,0
497,"2185 UPTON DR,VIRGINIA BEACH,VA,23454-1188",2.158333333,0.267857143,0.166666667,36.75690178,-76.00664162,1,0
498,"219 BUCHANAN ST,PEARISBURG,VA,24134-1901",0.833333333,0,0,37.3231829,-80.7229257,1,0
499,"220 NAT TURNER BLVD S,NEWPORT NEWS,VA,23606-2998",0.44478022,0.459181141,0.076923077,37.08475576,-76.48720364,1,0
500,"2200 DANIELS CREEK RD,COLLINSVILLE,VA,24078-1370",0,0,0.5,36.72109927,-79.9128153,1,0
501,"2200 OPITZ BLVD STE 205,WOODBRIDGE,VA,22191-3343",0,0,0.166666667,38.63291139,-77.27950721,1,0
502,"2200 OPITZ BLVD STE 370,WOODBRIDGE,VA,22191-3339",0,0,0.5,38.63291139,-77.27950721,1,0
503,"2200 OPITZ BLVD STE 395,WOODBRIDGE,VA,22191-3350",1,0,0,38.63291139,-77.27950721,1,0
504,"2200 OPITZ BLVD,WOODBRIDGE,VA,22191",1,0,0,38.63291139,-77.27950721,1,0
505,"2202 N BERKSHIRE RD STE 101,CHARLOTTESVILLE,VA,22901-2761",0,0,1,38.0605816,-78.49604194,1,0
506,"2202 N BERKSHIRE RD STE 201,CHARLOTTESVILLE,VA,22901-2761",0.111111111,0,0.142857143,38.0605816,-78.49604194,1,0
507,"2202 N BERKSHIRE RD STE 203,CHARLOTTESVILLE,VA,22901-2761",0.5,0,0,38.0605816,-78.49604194,1,0
508,"2212 EXECUTIVE DR STE A,HAMPTON,VA,23666-2430",1,0,0,37.05087005,-76.39796145,1,0
509,"2212 JOHN ROLFE PKWY,RICHMOND,VA,23233-6913",0.25,0,0,37.62198478,-77.62170493,1,0
510,"2214 EXECUTIVE DR STE A,HAMPTON,VA,23666-6606",1,0,0,37.05138979,-76.39811277,1,0
511,"2229 MURRELL RD,LYNCHBURG,VA,24501-2131",0.833333333,0,0,37.40796928,-79.17067895,1,0
512,"2230 GALLOWS RD STE 320,DUNN LORING,VA,22027-1101",2,0,0.392857143,38.89918811,-77.2242558,1,0
513,"2238 TODDS LN,HAMPTON,VA,23666-3159",1,0,0,37.04056013,-76.40379818,1,0
514,"224 N FAYETTE ST,ALEXANDRIA,VA,22314-2433",0.5,1,0,38.80754325,-77.0520855,1,0
515,"225 OAK SPRINGS DR STE 225,WARRENTON,VA,20186-2187",0,0,2,38.73154533,-77.79517125,1,0
516,"22621 AMENDOLA TER STE 110,ASHBURN,VA,20148-7528",1,0,0,38.99106083,-77.50437732,1,0
517,"2264 LONDON BRIDGE RD,VIRGINIA BEACH,VA,23456-3903",0.5,0,0.5,36.77389746,-76.02936268,1,0
518,"228 COMMONS PKWY,DALEVILLE,VA,24083-1707",0,0,1,37.39469448,-79.91165616,1,0
519,"229 N MONROE AVE,COVINGTON,VA,24426-1409",0.066666667,0,0,37.7931526,-79.99431169,1,0
520,"23 FAYETTE ST,MARTINSVILLE,VA,24112-2703",2,0,0,36.69237799,-79.87351624,1,0
521,"23 GOODRICH AVE,PETERSBURG,VA,23805-2119",1,0,0,37.20240456,-77.3830808,1,0
522,"23 S MALLORY ST STE C,HAMPTON,VA,23663-1707",1,0,0,37.0188856,-76.32186714,1,0
523,"23 SHORE ST,PETERSBURG,VA,23803-5818",0.5,0,0,37.21635616,-77.3999465,1,0
524,"230 FORT EVANS RD NE,LEESBURG,VA,20176-4497",1.5,0,0.25,39.10995235,-77.53687677,1,0
525,"230 MARKET ST,NEW CASTLE,VA,24127-6080",1,0,0,37.50447624,-80.10972064,1,0
526,"2300 ROBIOUS STATION CIR,MIDLOTHIAN,VA,23113-2124",2,0,0,37.52240925,-77.6139794,1,0
527,"2301 COLUMBIA PIKE APT 126,ARLINGTON,VA,22204-4453",0.142857143,0,0,38.86373298,-77.0825908,1,0
528,"2301 GALLOWS RD STE 115,DUNN LORING,VA,22027-1149",0,0.5,0,38.89767056,-77.22444789,1,0
529,"2314 E PARHAM RD,HENRICO,VA,23228-3118",4,0,0,37.63934398,-77.49226757,1,0
530,"2330 COLONY CROSSING PL,MIDLOTHIAN,VA,23112-4280",2,0,0,37.45970265,-77.65659672,1,0
531,"2338 E LITTLE CREEK RD,NORFOLK,VA,23518-3225",2.658896393,0.195248261,2.037030453,36.91522753,-76.21809219,1,0
532,"235 CAMPBELL LN,TAZEWELL,VA,24651-5388",1,0,0,37.12606675,-81.49160126,1,0
533,"237 HANBURY RD E STE 112,CHESAPEAKE,VA,23322-6621",0.1,0.109181141,0.201923077,36.68761188,-76.22379424,1,0
534,"237 HANBURY RD E STE 30,CHESAPEAKE,VA,23322-6622",0.301923077,0.459181141,1.076923077,36.68761188,-76.22379424,1,0
535,"2370 E LITTLE CREEK RD,NORFOLK,VA,23518-3225",1,0,0,36.91526349,-76.21700373,1,0
536,"2373 COLONY CROSSING PL,MIDLOTHIAN,VA,23112-4280",0.75,0,0,37.45934076,-77.65566016,1,0
537,"239 DON HANGER CIR,STAUNTON,VA,24401-5789",0.04,0,0,38.146536,-79.08689025,1,0
538,"239 TROJAN RD,MADISON HEIGHTS,VA,24572-5346",1,0,0,37.45747826,-79.11374353,1,0
539,"240 HYDRAULIC RIDGE RD STE 202,CHARLOTTESVILLE,VA,22901-8130",0,0,0.25,38.07429269,-78.49824569,1,0
540,"240 HYDRAULIC RIDGE RD STE 203,CHARLOTTESVILLE,VA,22901-8130",0,0.5,0,38.07429269,-78.49824569,1,0
541,"240 MCLAWS CIR STE 153,WILLIAMSBURG,VA,23185-5678",0.066666667,0,0,37.24629198,-76.65998316,1,0
542,"2400 COLONY CROSSING PL,MIDLOTHIAN,VA,23112-4281",0.5,1.333333333,0,37.45823143,-77.65580417,1,0
543,"2400 PAGEHURST DR,MIDLOTHIAN,VA,23113-6411",1,0,0,37.5256839,-77.66364185,1,0
544,"2402 ATHERHOLT RD,LYNCHBURG,VA,24501-2148",0.666666667,0,0,37.4093535,-79.17494427,1,0
545,"24023 FAIRVIEW RD,CAPE CHARLES,VA,23310-2153",0.5,0,0,37.25326124,-75.97212878,1,0
546,"24050 LANKFORD HWY,ACCOMAC,VA,23301-1331",1,0,0,37.71395856,-75.6916162,1,0
547,"2407 COLUMBIA PIKE STE 280,ARLINGTON,VA,22204-4470",0.5,0,2.25,38.86345097,-77.08368897,1,0
548,"2412 COLONY CROSSING PL,MIDLOTHIAN,VA,23112-4281",0,0,1,37.45798787,-77.65585518,1,0
549,"2426 LEE HWY STE 110,BRISTOL,VA,24202-5967",1,0,0,36.62891074,-82.14945403,1,0
550,"24277 COOKE ST,PARKSLEY,VA,23421-2704",1,0,0,37.78321809,-75.65234195,1,0
551,"243 GARRISONVILLE RD STE 201,STAFFORD,VA,22554-8908",0,0,0.333333333,38.4735936,-77.41632455,1,0
552,"2448 OLD BRICK RD,GLEN ALLEN,VA,23060-5841",1,0,0,37.64847471,-77.60413788,1,0
553,"24501 PARKSLEY RD,PARKSLEY,VA,23421-2519",1.666666667,0,0,37.77894314,-75.64651797,1,0
554,"24565 DULLES LANDING DR # 190,DULLES,VA,20166-2612",1,0,0,38.93697477,-77.52146493,1,0
555,"24565 DULLES LANDING DR STE 150,DULLES,VA,20166-2612",0.05,0,0,38.93672607,-77.52145878,1,0
556,"24600 MILLSTREAM DR STE 101,ALDIE,VA,20105-5686",0.25,0,0,38.93909105,-77.54589817,1,0
557,"24600 MILLSTREAM DR STE 480,ALDIE,VA,20105-5685",0.5,0,0,38.93909105,-77.54589817,1,0
558,"2465 CENTREVILLE RD STE J15,HERNDON,VA,20171-3026",1,0,0,38.95071678,-77.41094531,1,0
559,"24805 PINEBROOK RD STE 100,CHANTILLY,VA,20152-4127",0.5,0,0.111111111,38.93077905,-77.52967022,1,0
560,"24805 PINEBROOK RD STE 112,CHANTILLY,VA,20152-4127",0.5,0,0,38.93077905,-77.52967022,1,0
561,"24805 PINEBROOK RD,CHANTILLY,VA,20152-4126",0,0.2,0,38.93076899,-77.52967022,1,0
562,"25 CLEVELAND AVE STE E,MARTINSVILLE,VA,24112-2935",0,0,1,36.68759012,-79.86743677,1,0
563,"25 NORTHRIDGE LN,LEXINGTON,VA,24450-3399",1.333333333,0,0,37.80400346,-79.40548257,1,0
564,"250 S MAIN ST STE 212,BLACKSBURG,VA,24060-4725",2,0,0,37.22799002,-80.41255281,1,0
565,"2501 FALL HILL AVE STE A,FREDERICKSBURG,VA,22401-3345",0.2,0,0.5,38.31371495,-77.47342096,1,0
566,"25031 RIDING PLZ STE 130,CHANTILLY,VA,20152-5916",1.333333333,0,0,38.92560912,-77.52160747,1,0
567,"2520 GILMERTON RD,CHESAPEAKE,VA,23323-4906",0.333333333,0,0,36.78045111,-76.33485403,1,0
568,"2520 W MAIN ST,WAYNESBORO,VA,22980-1614",0,0.5,0,38.079079,-78.92159915,1,0
569,"254 W MAIN ST,DUBLIN,VA,24084-3927",0.5,0,0,37.10422061,-80.68556702,1,0
570,"25401 EASTERN MARKETPLACE PLZ STE 100,CHANTILLY,VA,20152-5785",0,0,1,38.91506324,-77.48902093,1,0
571,"2542 JEFFERSON HWY,WAYNESBORO,VA,22980-8502",0,0,0.5,38.08583328,-78.9377716,1,0
572,"25529 EAST MAIN ST,ONLEY,VA,23418-2937",0.2,0,0.5,37.69025094,-75.7157105,1,0
573,"2557 COWAN BLVD,FREDERICKSBURG,VA,22401-8440",1.2,0,0,38.30765985,-77.49064533,1,0
574,"2560 GASKINS RD,RICHMOND,VA,23238-1468",0.833333333,1.333333333,0,37.62986719,-77.57893161,1,0
575,"25892 N JAMES MADISON HWY,NEW CANTON,VA,23123-2234",0.25,0,0,37.63697733,-78.36083115,1,0
576,"259 HYDRAULIC RIDGE RD STE 101,CHARLOTTESVILLE,VA,22901-8128",3.083333333,0,0,38.07440014,-78.49759646,1,0
577,"2609 SHEFFIELD DR,BLACKSBURG,VA,24060-8271",0,0,0.0625,37.21981102,-80.45161058,1,0
578,"2616 SHERWOOD HALL LN STE 302,ALEXANDRIA,VA,22306-3154",0,0,0.5,38.74313667,-77.0772527,1,0
579,"2643 GEORGE WASHINGTON MEM HWY STE A,YORKTOWN,VA,23693-3430",0,0.5,0,37.12204449,-76.45745534,1,0
580,"2656 GEORGE WASHINGTON MEMORIAL HWY STE 105,HAYES,VA,23072-3464",0,0,0.833333333,37.28175502,-76.50444853,1,0
581,"2674 GEORGE WASHINGTON MEMORIAL HWY STE B,HAYES,VA,23072-3464",0.5,0,0,37.28204901,-76.50467496,1,0
582,"27 S GATEWAY DR STE 121,FREDERICKSBURG,VA,22406-1229",1.887155388,0,0,38.34547741,-77.49202528,1,0
583,"2709 BYRON ST,RICHMOND,VA,23223-1313",3,0,0,37.57247959,-77.39292733,1,0
584,"2712 JEFFERSON DAVIS HWY STE 201,STAFFORD,VA,22554-1769",2.75,0,0,38.45317256,-77.40503495,1,0
585,"272 BENDIX RD STE 280,VIRGINIA BEACH,VA,23452-1367",0,0,1,36.83507695,-76.12694369,1,0
586,"2746 STUARTS DRAFT HWY,STUARTS DRAFT,VA,24477-2779",0.04,0,0,38.03551544,-79.03221,1,0
587,"2766 ELECTRIC RD STE A,CAVE SPRING,VA,24018-3583",2,0,0,37.23376142,-80.02087746,1,0
588,"2777 JEFFERSON DAVIS HWY STE 115,STAFFORD,VA,22554-8323",0.5,0,0,38.45713697,-77.40632752,1,0
589,"2805 MCRAE RD,NORTH CHESTERFIELD,VA,23235-3049",1,0,0,37.5358732,-77.56337054,1,0
590,"2810 OLD LEE HWY STE 200,FAIRFAX,VA,22031-4376",0.05,0,0,38.87553881,-77.24029769,1,0
591,"2810 OLD LEE HWY STE 200A,FAIRFAX,VA,22031-4376",0.5,0.041666667,0,38.87553979,-77.24029768,1,0
592,"2841 HARTLAND RD STE 302,FALLS CHURCH,VA,22043-3500",0,0,0.25,38.87642628,-77.22246798,1,0
593,"2843 HARTLAND RD STE 100,FALLS CHURCH,VA,22043-3539",1,0,0.058823529,38.87599534,-77.22242642,1,0
594,"2843 HARTLAND RD STE 150,FALLS CHURCH,VA,22043-3543",0,0,2.333333333,38.87599534,-77.22242642,1,0
595,"2843 HARTLAND RD STE 200,FALLS CHURCH,VA,22043-3539",1,2,0,38.87599534,-77.22242642,1,0
596,"2843 HARTLAND RD STE 250,FALLS CHURCH,VA,22043-3543",1,0,0,38.87599534,-77.22242642,1,0
597,"28480 BOBTOWN RD,MELFA,VA,23410-3508",1.416666667,0,0,37.65253826,-75.79134041,1,0
598,"288 PINEY FOREST RD,DANVILLE,VA,24540-4124",1,0,0,36.60004688,-79.41313578,1,0
599,"2901 TELESTAR CT STE 120,FALLS CHURCH,VA,22042-1260",1,0,0,38.87256258,-77.22402134,1,0
600,"2924 BROOK RD,RICHMOND,VA,23220-1215",0.833333333,2.742857143,1,37.57112945,-77.44917555,1,0
601,"2925 NORTH LANDING RD,VIRGINIA BEACH,VA,23456-2405",0.333333333,0,0,36.74363695,-76.07439637,1,0
602,"2928 NORTH AVE,RICHMOND,VA,23222-3600",0.5,0,0,37.5712487,-77.43277451,1,0
603,"2929 POLO PKWY,MIDLOTHIAN,VA,23113-1453",0,0.333333333,1.5,37.52707637,-77.60925727,1,0
604,"2942 PATRICK HENRY DR,FALLS CHURCH,VA,22044-2904",0.5,0,0,38.87017038,-77.14621305,1,0
605,"2944 HUNTER MILL RD STE 202,OAKTON,VA,22124-1761",0,0.5,0.0625,38.88186285,-77.30102671,1,0
606,"2946 SLEEPY HOLLOW RD STE 1B,FALLS CHURCH,VA,22044-2003",1,0,0,38.87085763,-77.15702714,1,0
607,"2960 CHAIN BRIDGE RD STE 300,OAKTON,VA,22124-3040",0,0.5,0,38.88022135,-77.30232949,1,0
608,"2970 PRINCE WILLIAM PKWY,WOODBRIDGE,VA,22192-4145",2.5,0,0,38.65134597,-77.30178542,1,0
609,"2999 CORPORATE LN,SUFFOLK,VA,23434",0.333333333,0,0,36.77819904,-76.58206844,1,0
610,"30 COURTHOUSE RD,NORTH CHESTERFIELD,VA,23236-3124",3.542857143,0,0,37.48960708,-77.59653631,1,0
611,"300 E LITTLE CREEK RD,NORFOLK,VA,23505-2603",2.758333333,0.291666667,0.4,36.91777536,-76.26506326,1,0
612,"300 N WASHINGTON ST STE 210,ALEXANDRIA,VA,22314-2530",1,0,0,38.80768825,-77.04643617,1,0
613,"300 W BROAD ST,RICHMOND,VA,23220-4219",1,1,0,37.54729885,-77.44468855,1,0
614,"3000 ANNANDALE RD STE 106,FALLS CHURCH,VA,22042-2730",1,0,0,38.86885003,-77.1746878,1,0
615,"3000 COLISEUM DR STE 204,HAMPTON,VA,23666-5963",1,0,1,37.05601066,-76.39230959,1,0
616,"3000 HUNGARY SPRING RD,RICHMOND,VA,23228-2420",2.558823529,0,0,37.62433113,-77.52438413,1,0
617,"301 MAPLE AVE W STE 200,VIENNA,VA,22180-4301",0,0.5,0,38.89765546,-77.27014196,1,0
618,"301 MAPLE AVE W STE 300,VIENNA,VA,22180-4301",0.5,0,0,38.89765546,-77.27014196,1,0
619,"301 MAPLE AVE W STE 440,VIENNA,VA,22180-4301",0,0,1,38.89765546,-77.27014196,1,0
620,"301 MAPLE AVE W STE 610,VIENNA,VA,22180-4300",0.25,0,0,38.89765546,-77.27014196,1,0
621,"301 N CAMERON ST STE 200,WINCHESTER,VA,22601-6018",1.2,0,0,39.18717115,-78.16292342,1,0
622,"301 S MAIN ST STE 109,BLACKSBURG,VA,24060-4978",4.5,0,0,37.22774122,-80.41218162,1,0
623,"302 E LITTLE CREEK RD # B,NORFOLK,VA,23505-2603",0.125,0.267857143,0,36.91788501,-76.26482505,1,0
624,"3023 HAMAKER CT STE 400,FAIRFAX,VA,22031-2247",0,0.2,0,38.86814898,-77.23632477,1,0
625,"3023 HAMAKER CT,FAIRFAX,VA,22031-2207",0.2,0,0,38.86814898,-77.23632477,1,0
626,"3025 HAMAKER CT STE 320,FAIRFAX,VA,22031-2304",0.05,0,1,38.86740361,-77.23691253,1,0
627,"303 MAPLE AVE W STE A,VIENNA,VA,22180-4312",1,0,0,38.89738187,-77.27054987,1,0
628,"303 S COLUMBUS ST,ALEXANDRIA,VA,22314-3603",1,0,0,38.80261417,-77.0486941,1,0
629,"3033 LAUDERDALE DR,RICHMOND,VA,23233-7800",1,0,0,37.63850592,-77.6326382,1,0
630,"304 BROWNS HILL CT,MIDLOTHIAN,VA,23114-9511",0.5,0,0,37.50026598,-77.63956054,1,0
631,"3040 WILLIAMS DR STE 201,FAIRFAX,VA,22031-4635",1,0,0,38.86779334,-77.23347695,1,0
632,"305 MAPLE AVE W STE E,VIENNA,VA,22180-4306",2,0,0,38.89739939,-77.27046853,1,0
633,"305 SCHOFIELD DR,MIDLOTHIAN,VA,23113-7331",0,0.5,0,37.51427495,-77.69545307,1,0
634,"306 BROOK PARK PL,FOREST,VA,24551-2638",1,0,1,37.36871053,-79.25082636,1,0
635,"306 S MUHLENBERG ST,WOODSTOCK,VA,22664-1230",0,0,0.333333333,38.87991618,-78.50889446,1,0
636,"307 DOGWOOD LN,EMPORIA,VA,23847-1239",2,0,0,36.69958456,-77.5412211,1,0
637,"307 LYNNHAVEN PKWY STE 101,VIRGINIA BEACH,VA,23452-7430",1,0,0,36.83843156,-76.06505404,1,0
638,"307 MAPLE AVE W # 100,VIENNA,VA,22180-4307",0.5,0,0,38.89703725,-77.27092289,1,0
639,"308 DOMINION RD NE,VIENNA,VA,22180-4521",0.5,0,0,38.9047089,-77.26794265,1,0
640,"308 W MAIN ST,SALTVILLE,VA,24370-3112",0.5,0,0,36.87657064,-81.76922017,1,0
641,"3102 GOLANSKY BLVD STE 102,LAKE RIDGE,VA,22192-4244",1,0,0,38.65208096,-77.3052484,1,0
642,"3105 WESTERN BRANCH BLVD STE 5,CHESAPEAKE,VA,23321-5529",1,0,0,36.86186859,-76.40049945,1,0
643,"3114 GOLANSKY BLVD STE 101,WOODBRIDGE,VA,22192-4231",2.166666667,0,0.5,38.65215599,-77.3055315,1,0
644,"3119 VALLEY AVE STE 108,WINCHESTER,VA,22601-2665",1.937155388,0,0,39.14185222,-78.19033485,1,0
645,"312 LIGHTFOOT RD STE H,WILLIAMSBURG,VA,23188-9004",1,0,0,37.34274127,-76.74843927,1,0
646,"313 PARK AVE STE 1,FALLS CHURCH,VA,22046-3327",0,0,2,38.88550847,-77.17372991,1,0
647,"313 PARK AVE STE 302,FALLS CHURCH,VA,22046-3303",1,0,0,38.88550847,-77.17372991,1,0
648,"313 PARK AVE STE G12,FALLS CHURCH,VA,22046-3328",1,0,0,38.88550847,-77.17372991,1,0
649,"313 SCHOFIELD DR,MIDLOTHIAN,VA,23113-7331",0.5,0,0,37.51444024,-77.69549703,1,0
650,"315 GARRISONVILLE RD STE 105B,STAFFORD,VA,22554-1543",1,0,0,38.47482667,-77.42044368,1,0
651,"3158 GOLANSKY BLVD STE 102,WOODBRIDGE,VA,22192-4262",0.333333333,0,0.333333333,38.65143124,-77.30670764,1,0
652,"316 BEN BOLT AVE,TAZEWELL,VA,24651-5386",0.25,0,0,37.12661733,-81.48988513,1,0
653,"318 N HENRY ST,ALEXANDRIA,VA,22314-2439",0.25,0,0,38.80855328,-77.05078405,1,0
654,"319 5TH AVE,SALTVILLE,VA,24370-3418",1,0,0,36.88080964,-81.75706206,1,0
655,"32 MILL CREEK DR STE 107,CHARLOTTESVILLE,VA,22902-8718",0,0,0.5,38.00020849,-78.49693734,1,0
656,"3200 PEOPLES DR STE 210,HARRISONBURG,VA,22801-7633",0,0,0.5,38.40957416,-78.90790905,1,0
657,"321 TAZEWELL AVE SE,ROANOKE,VA,24013-1445",0.5,0,0,37.27018189,-79.93600753,1,0
658,"3219 COLUMBIA PIKE STE 201,ARLINGTON,VA,22204-4357",1,0,0,38.86163492,-77.09068927,1,0
659,"321C POPLAR DR,PETERSBURG,VA,23805-9306",1.083333333,0,0,37.18944885,-77.36269418,1,0
660,"3230 PEOPLES DR STE 220,HARRISONBURG,VA,22801-7623",1.25,0,0,38.40880818,-78.90860805,1,0
661,"3277 S CRATER RD STE B,PETERSBURG,VA,23805-9285",1,0,0,37.18639681,-77.36885722,1,0
662,"3277 S CRATER RD STE C,PETERSBURG,VA,23805-9285",3,0,0,37.18639681,-77.36885722,1,0
663,"3284 RIVERSIDE DR,DANVILLE,VA,24541-3429",0.333333333,0,1,36.58486726,-79.42602785,1,0
664,"33 N BANK ST,LURAY,VA,22835-1115",0.333333333,0,0.333333333,38.66715983,-78.46345915,1,0
665,"330 GRUBERT AVE,STAUNTON,VA,24401-2947",0.04,0,0,38.15912276,-79.09695448,1,0
666,"3300 GALLOWS RD,FALLS CHURCH,VA,22042-3307",0.2,0.2,0,38.85802661,-77.22598322,1,0
667,"331 WALKER DR, #2,WARRENTON,VA,20186",0,1,0,38.71532646,-77.78120914,1,0
668,"3320 NOBLE POND WAY STE 109,WOODBRIDGE,VA,22193-1470",0,0.5,0,38.64857444,-77.30774994,1,0
669,"3349 PORTSMOUTH BLVD,PORTSMOUTH,VA,23701-3023",1,0,0,36.81555557,-76.3419989,1,0
670,"3381 DARBY RD,KESWICK,VA,22947-2706",0,0.2,0,38.00069949,-78.37983995,1,0
671,"3395 SCENIC HWY,MOUNT SOLON,VA,22843-2612",0.04,0,0,38.31552804,-79.07938524,1,0
672,"34 JEFFERSON CT,ZION CROSSROADS,VA,22942-9602",1.25,0,0,37.98243048,-78.21256924,1,0
673,"34 MEDICAL PARK BLVD STE E,NORTH DINWIDDIE,VA,23805-9283",1.933333333,0,0,37.18202559,-77.36533629,1,0
674,"34 MEDICAL PARK BLVD STE E,PETERSBURG,VA,23805-9283",0.5,0,0,37.18202559,-77.36533629,1,0
675,"3400 PAYNE ST STE 101,FALLS CHURCH,VA,22041-2313",3,0,0,38.85303493,-77.13247258,1,0
676,"3401 BOULEVARD,COLONIAL HEIGHTS,VA,23834-1417",0.5,0,0,37.27498494,-77.41205898,1,0
677,"3412 COLUMBIA ST,PORTSMOUTH,VA,23707-3201",1,0,0,36.83206552,-76.3440125,1,0
678,"3413 SOUTH ST,PORTSMOUTH,VA,23707-3219",0,0.333333333,0,36.8312445,-76.34407971,1,0
679,"3416 WOODLAWN ST,HOPEWELL,VA,23860-4738",3,0,0,37.27786964,-77.31118988,1,0
680,"342 MULE ACADEMY RD,FISHERSVILLE,VA,22939-2256",0.5,0,0,38.0938456,-78.98095078,1,0
681,"3422 PUMP RD,HENRICO,VA,23233-1111",1,0,0,37.64677722,-77.6152853,1,0
682,"3438 LAUDERDALE DR,RICHMOND,VA,23233-7528",0,0,0.5,37.64353454,-77.62823506,1,0
683,"346 ELDEN ST,HERNDON,VA,20170-4818",1,0,0,38.96751604,-77.37399445,1,0
684,"35 ROCK POINTE LN,WARRENTON,VA,20186-2631",1.666666667,0,0.5,38.72326113,-77.79156689,1,0
685,"350 JOHNSTOWN RD STE A,CHESAPEAKE,VA,23322-5365",0,0,0.5,36.71107149,-76.23946392,1,0
686,"3501 COURTHOUSE RD,NORTH CHESTERFIELD,VA,23236-1436",0.2,0,0,37.44488166,-77.58207504,1,0
687,"3505 BOULEVARD,COLONIAL HEIGHTS,VA,23834-1319",0.5,0,0,37.27616881,-77.41207602,1,0
688,"3525 IRON BRIDGE RD,RICHMOND,VA,23234-2937",1,0,0,37.46766309,-77.48716141,1,0
689,"3533 PLANK RD STE A,FREDERICKSBURG,VA,22407-6830",3.737467821,0.433343499,0.70369712,38.29383636,-77.51983095,1,0
690,"3543 W BRADDOCK RD FL 5,ALEXANDRIA,VA,22302-1900",1,0,0,38.82721043,-77.09028757,1,0
691,"3600 JOSEPH SIEWICK DR,FAIRFAX,VA,22033-1709",0.2,0,0,38.88589623,-77.38071199,1,0
692,"3608 FOREST DR STE 1,ALEXANDRIA,VA,22302-1043",1,0,0,38.84582951,-77.11552414,1,0
693,"3610 FOREST DR,ALEXANDRIA,VA,22302-1042",1,0,0,38.84575751,-77.11555662,1,0
694,"3613 CHAIN BRIDGE RD,FAIRFAX,VA,22030-3238",1,0,0,38.85686657,-77.30733484,1,0
695,"3620 COUNTY ST,PORTSMOUTH,VA,23707-3104",0.5,0,0,36.83272049,-76.34731461,1,0
696,"3634 S PLAZA TRL STE 101,VIRGINIA BEACH,VA,23452-3351",0.333333333,0,0,36.82979642,-76.09870225,1,0
697,"364 GARRISONVILLE RD STE 107,STAFFORD,VA,22554-1539",1,0,0,38.47555234,-77.42352928,1,0
698,"364 LOWES DR STE J,DANVILLE,VA,24540-5930",2.128644292,0.333343499,0.762520649,36.59735693,-79.42799032,1,0
699,"365 S LINDEN AVE,WAYNESBORO,VA,22980-3503",1,0,0,38.07064188,-78.90250815,1,0
700,"3650 COLONIAL AVE,ROANOKE,VA,24018-4004",0,1,0,37.22971881,-79.99581605,1,0
701,"367 INDEPENDENCE BLVD,VIRGINIA BEACH,VA,23462-2822",1,0,0,36.84701074,-76.13690636,1,0
702,"3700 JOSEPH SIEWICK DR STE 104,FAIRFAX,VA,22033-1737",0,0.5,0,38.88394458,-77.37837337,1,0
703,"3700 OLD FOREST RD,LYNCHBURG,VA,24501-6961",1,0,1,37.40616108,-79.21987717,1,0
704,"3701 S GEORGE MASON DR UNIT C7N,FALLS CHURCH,VA,22041-4722",1.9,0,0,38.84439643,-77.11370173,1,0
705,"3705 S GEORGE MASON DR STE C7S,BAILEYS CROSSROADS,VA,22041-3766",0,0,1,38.84320758,-77.11591499,1,0
706,"3708 S MAIN ST,BLACKSBURG,VA,24060-7007",1,0,0,37.18618954,-80.40827961,1,0
707,"3709 KECOUGHTAN RD,HAMPTON,VA,23669-4405",2.5,0,0,37.00857677,-76.35847989,1,0
708,"3710 CHURCHVILLE AVE,CHURCHVILLE,VA,24421-2500",0.04,0,0,38.22384935,-79.15863259,1,0
709,"3716 MELROSE AVE NW,ROANOKE,VA,24017-2716",2.5,0,0,37.29405547,-79.9977193,1,0
710,"3720 HOLLAND RD STE 102,VIRGINIA BEACH,VA,23452-2859",1,0,0,36.81461449,-76.10232144,1,0
711,"3729 FETTLER PARK DR,DUMFRIES,VA,22025-2048",0.333333333,0,0,38.57906799,-77.32756858,1,0
712,"3750 OLD LEE HWY,FAIRFAX,VA,22030-1806",1.666666667,0,0,38.85042659,-77.2990611,1,0
713,"3787 FETTLER PARK DR STE A8,DUMFRIES,VA,22025-1946",0,0,0.111111111,38.57960318,-77.32770429,1,0
714,"380 WASHINGTON ST,BOYDTON,VA,23917-3415",1,0,0,36.66684521,-78.38800732,1,0
715,"3800 FAIRFAX DR STE 6,ARLINGTON,VA,22203-1703",0.5,0,0,38.8825152,-77.10538502,1,0
716,"3800 STILLMAN PKWY STE 101,HENRICO,VA,23233-1455",0,0,0.5,37.63994094,-77.56634932,1,0
717,"3801 FAIRFAX DR STE 14,ARLINGTON,VA,22203-1762",0.5,0,0,38.88289528,-77.10479293,1,0
718,"3801 FAIRFAX DR STE 20,ARLINGTON,VA,22203-1762",0,0,1,38.88289528,-77.10479293,1,0
719,"3805 JEFFERSON DAVIS HWY,RICHMOND,VA,23234-2631",1,0,0,37.47259023,-77.44354857,1,0
720,"381 GATEWAY DR STE 9,HAYFIELD,VA,22603-5852",1,0,0,39.18821356,-78.13225681,1,0
721,"3811 WESTERRE PKWY STE A,HENRICO,VA,23233-1329",0,0,0.25,37.64385051,-77.58256247,1,0
722,"3817A S GEORGE MASON DR,FALLS CHURCH,VA,22041-3763",1,0,0,38.84133697,-77.12041756,1,0
723,"3824 MECHANICSVILLE TPKE UNIT 12,RICHMOND,VA,23223-1114",2.980074337,0.261914927,0.82775727,37.57825526,-77.39539305,1,0
724,"3824 MECHANICSVILLE TPKE,RICHMOND,VA,23223-1114",0.083333333,0,0,37.57825526,-77.39539305,1,0
725,"385 GARRISONVILLE RD STE 108,STAFFORD,VA,22554-1599",1.092857143,0,1.2,38.47561752,-77.42501358,1,0
726,"3852 OLD BUCKINGHAM RD,POWHATAN,VA,23139-7019",1,0,0,37.54002738,-77.91867947,1,0
727,"386 BEN BOLT AVE,TAZEWELL,VA,24651-5386",0.5,0,0,37.12661733,-81.48988513,1,0
728,"3897 MAIN ST,CHINCOTEAGUE,VA,23336-1809",1,0,0,37.93215908,-75.37974249,1,0
729,"3900 MEADOWDALE BLVD,NORTH CHESTERFIELD,VA,23234-5547",1,0,0,37.4376345,-77.46653106,1,0
730,"3901 CENTERVIEW DR STE T,CHANTILLY,VA,20151-3288",8,0.041666667,0.833333333,38.89778347,-77.43117283,1,0
731,"3903 FAIR RIDGE DR STE 212,FAIRFAX,VA,22033-2944",0.333333333,0,0,38.87280449,-77.37201509,1,0
732,"3903 FAIR RIDGE DR STE 214,FAIRFAX,VA,22033-2945",1,0,0,38.87280449,-77.37201509,1,0
733,"3904 HULL STREET RD STE A,RICHMOND,VA,23224-1714",3.616666667,0,0,37.50309848,-77.47202274,1,0
734,"3911 OLD LEE HWY STE 42C,FAIRFAX,VA,22030-2434",1,0,0,38.84761673,-77.30142677,1,0
735,"392 GARRISONVILLE RD STE 205,STAFFORD,VA,22554-1576",2.5,0.041666667,1.642857143,38.47721907,-77.42759668,1,0
736,"3925 OLD LEE HWY STE 51C,FAIRFAX,VA,22030-2426",0.5,0,0.25,38.84677818,-77.3028219,1,0
737,"3930 PENDER DR STE 220,FAIRFAX,VA,22030-0992",1,0,0.333333333,38.86010189,-77.33384559,1,0
738,"3930 PENDER DR STE 250,FAIRFAX,VA,22030-0986",0,1,0,38.86010189,-77.33384559,1,0
739,"3940 PLANK RD STE W,FREDERICKSBURG,VA,22407-6874",0,0,0.666666667,38.2908776,-77.52704269,1,0
740,"3944 SPRINGFIELD RD,GLEN ALLEN,VA,23060-4119",0.666666667,0,0,37.643599,-77.55924565,1,0
741,"3985 PRINCE WILLIAM PKWY STE 103,WOODBRIDGE,VA,22192-7900",1,0,0,38.66550821,-77.33088683,1,0
742,"400 GRESHAM DR STE 204,NORFOLK,VA,23507-1901",0,0,0.5,36.8600557,-76.30484467,1,0
743,"400 LONGWOOD AVE,FARMVILLE,VA,23901-1524",1,0,0,37.29960294,-78.38939263,1,0
744,"400 S MAPLE AVE STE 103,FALLS CHURCH,VA,22046-4242",0,0,0.333333333,38.88045817,-77.1769007,1,0
745,"4000 VIRGINIA ST,FAIRFAX,VA,22032-1047",1,0,0,38.84381307,-77.29510836,1,0
746,"4001 9TH ST N STE 218,ARLINGTON,VA,22203-1900",1,0,0,38.88120138,-77.10809375,1,0
747,"4001 FAIR RIDGE DR STE 303,FAIRFAX,VA,22033-2917",2,0,0,38.87128352,-77.3685602,1,0
748,"4001 FAIR RIDGE DR,FAIRFAX,VA,22033-2917",1,0,0,38.87129358,-77.36857017,1,0
749,"4008 GENESEE PL STE 205,WOODBRIDGE,VA,22192-8306",1.5,0.5,0,38.67583689,-77.35131436,1,0
750,"400C SOUTHPARK BLVD,COLONIAL HEIGHTS,VA,23834-2974",2.225563059,0.195248261,0.70369712,37.24296047,-77.39409136,1,0
751,"401 GREEN MEADOWS DR STE B,VIRGINIA BEACH,VA,23462-5740",2,0,0,36.81694353,-76.12757014,1,0
752,"401 N 11TH ST,RICHMOND,VA,23219-1901",1.333333333,0.1,1.422222222,37.54055709,-77.43123009,1,0
753,"403 E MAIN ST,ABINGDON,VA,24210-3499",0.333333333,0,0.333333333,36.71402255,-81.96464978,1,0
754,"4038 THOMAS NELSON HWY,ARRINGTON,VA,22922-2302",0.75,0,0,37.70749693,-78.93412873,1,0
755,"4072 VICTORY BLVD,PORTSMOUTH,VA,23701-2820",2.375563059,0.195248261,0.648141564,36.81142557,-76.35908864,1,0
756,"408 EAST MARKET ST STE 206,CHARLOTTESVILLE,VA,22902-5252",1,0,0,38.03068131,-78.47846009,1,0
757,"4080 LAFAYETTE CENTER DR STE 160A,CHANTILLY,VA,20151-1247",0,0,0.5,38.90759217,-77.47081012,1,0
758,"4080 LAFAYETTE CENTER DR STE 160B,CHANTILLY,VA,20151-1247",0,0.333333333,0,38.90759217,-77.47081012,1,0
759,"409 CHILHOWIE ST,CHILHOWIE,VA,24319-3461",1,0,0,36.80113263,-81.6799385,1,0
760,"41 DABNEYS MILL RD,MANQUIN,VA,23106-2508",1,0,0,37.68929188,-77.17947478,1,0
761,"410 MINERAL ST,SOUTH BOSTON,VA,24592-3716",1,0,0,36.69879665,-78.90344798,1,0
762,"410 PINE ST SE STE 100,VIENNA,VA,22180-4861",0.216666667,0.5,0,38.90719718,-77.25584047,1,0
763,"410 ROSEDALE CT STE 170,WARRENTON,VA,20186-4373",1,0,0.5,38.71831865,-77.78256984,1,0
764,"4100 QUARLES CT,ROCKINGHAM,VA,22801-8797",4,1,2,38.40629272,-78.82859832,1,0
765,"4106 E PARHAM RD STE A,HENRICO,VA,23228-2734",0.5,0,0,37.63192223,-77.50986428,1,0
766,"4107 PORTSMOUTH BLVD STE 107,CHESAPEAKE,VA,23321-2140",2,0,0,36.82403284,-76.41039472,1,0
767,"4121 GEORGE WASHINGTON MEMORIAL HWY,HAYES,VA,23072-2931",0,0,1.058823529,37.32061797,-76.51370417,1,0
768,"4121 MEADOWDALE BLVD,NORTH CHESTERFIELD,VA,23234-5500",1.666666667,0,0,37.43806556,-77.47172347,1,0
769,"4147 PLANK RD,FREDERICKSBURG,VA,22407-4888",0.5,0,0,38.28949275,-77.5317816,1,0
770,"415 N MILITARY HWY STE 8,NORFOLK,VA,23502-5407",0,0,0.333333333,36.8464938,-76.21042686,1,0
771,"415 S MAIN ST STE 101,CULPEPER,VA,22701-3153",0.25,0,0,38.47087066,-77.99696072,1,0
772,"417 N 11TH ST,RICHMOND,VA,23298-5002",0,0.142857143,0,37.54110387,-77.43074777,1,0
773,"4192 MERCHANT PLZ,WOODBRIDGE,VA,22192-5085",1,0,0,38.67456163,-77.33360583,1,0
774,"4199H WINCHESTER RD STE H,MARSHALL,VA,20115-3252",2.25,0,0,38.86301045,-77.84958951,1,0
775,"420 E 3RD ST,FARMVILLE,VA,23901-1512",1,0,0,37.30101605,-78.38812036,1,0
776,"420 HAMILTON BLVD,SOUTH BOSTON,VA,24592-5200",1,0,0,36.71375214,-78.91691593,1,0
777,"4204 PARK PLACE CT,GLEN ALLEN,VA,23060-3314",0.25,0,0.5,37.65187801,-77.57979563,1,0
778,"4207 COLONIAL AVE,ROANOKE,VA,24018-4045",3.2,0,0,37.22739263,-79.99986007,1,0
779,"4208 SEASIDE RD,EXMORE,VA,23350-2575",0.5,0,0,37.52063274,-75.8144961,1,0
780,"420A HAMILTON BLVD,SOUTH BOSTON,VA,24592-5200",0,0,0.5,36.71364023,-78.9176274,1,0
781,"4210 FAIRFAX CORNER AVE W STE 245,FAIRFAX,VA,22030-8627",0.583333333,1.083333333,0.5,38.85840947,-77.35695514,1,0
782,"4216 EVERGREEN LN STE 113,ANNANDALE,VA,22003-3253",1,0,0,38.8323608,-77.18700767,1,0
783,"4229 LAFAYETTE CENTER DR STE 1400,CHANTILLY,VA,20151-1267",1.05,0,0,38.90936653,-77.47411402,1,0
784,"423 E MAIN ST STE 2,BEDFORD,VA,24523-2016",0.5,0,0,37.33327678,-79.51934295,1,0
785,"4231 MARKHAM ST STE 214A,ANNANDALE,VA,22003-3023",0.25,0,0,38.83306119,-77.19836761,1,0
786,"4239 HOLLAND RD STE 762A,VIRGINIA BEACH,VA,23452-1943",4.780147059,1.928581594,2.639423077,36.81907938,-76.11985955,1,0
787,"4239 HOLLAND RD,VIRGINIA BCH,VA,23452-1941",0.083333333,0,0,36.81907938,-76.11985955,1,0
788,"425 W 20TH ST STE 3,NORFOLK,VA,23517-2128",1,0,0,36.86793871,-76.29055801,1,0
789,"426 W WASHINGTON ST,SUFFOLK,VA,23434-5360",1,0,0,36.72959343,-76.58826021,1,0
790,"4260 CROSSINGS BLVD,PRINCE GEORGE,VA,23875-1400",0.583333333,0,0,37.25711507,-77.32614955,1,0
791,"428 9TH ST,WEST POINT,VA,23181-9576",1,0,0,37.53332779,-76.79681821,1,0
792,"42882 TRURO PARISH DR STE 201,BROADLANDS,VA,20148-4458",0,1,0,39.01758042,-77.51830311,1,0
793,"42882 TRURO PARISH DR STE 210,BROADLANDS,VA,20148-4458",0,0,0.333333333,39.01758042,-77.51830311,1,0
794,"4290 CHAIN BRIDGE RD STE 202,FAIRFAX,VA,22030-8158",0.2,0,0,38.8383691,-77.31191645,1,0
795,"4291 HOLLAND RD STE 112,VIRGINIA BEACH,VA,23452-1939",0.076923077,0.209181141,0.201923077,36.82087935,-76.12263776,1,0
796,"4300 CHANTILLY SHOPPING CENTER DR STE 1C,CHANTILLY,VA,20151-4013",1,0,0,38.88671693,-77.44143177,1,0
797,"4300 PLANK RD STE 230,FREDERICKSBURG,VA,22407-0107",1,0,0.25,38.28880854,-77.53647455,1,0
798,"4300 POUNCEY TRACT RD,GLEN ALLEN,VA,23060-6007",0,0.032258065,0,37.65487953,-77.61124859,1,0
799,"4301 W HUNDRED RD,CHESTER,VA,23831-1959",0.0625,0,0,37.35570246,-77.44698874,1,0
800,"43130 AMBERWOOD PLZ STE 230,SOUTH RIDING,VA,20152-4110",0,0.5,1,38.92487182,-77.51057215,1,0
801,"43170 SOUTHERN WALK PLZ STE 104,BROADLANDS,VA,20148-4464",0.5,0,0,39.00848504,-77.50828931,1,0
802,"4321 RIDGEWOOD CENTER DR,WOODBRIDGE,VA,22192-5308",1,0,0,38.67362983,-77.33958338,1,0
803,"43330 JUNCTION PLZ STE 122,ASHBURN,VA,20147-3407",0.5,0,0,39.03585685,-77.50161394,1,0
804,"43480 YUKON DR,ASHBURN,VA,20147-6988",0.2,0,0,39.00854298,-77.49260182,1,0
805,"43490 YUKON DR STE 105,ASHBURN,VA,20147-7303",0,0.5,0,39.00947907,-77.49308222,1,0
806,"43490 YUKON DR STE 114,ASHBURN,VA,20147-7312",1,0,0,39.00959901,-77.49313217,1,0
807,"4356 BONNEY RD # 4,VIRGINIA BEACH,VA,23452-1200",0,0,0.333333333,36.83688001,-76.12461326,1,0
808,"437 S MAGNOLIA AVE,WAYNESBORO,VA,22980-3607",1,0,0,38.06882755,-78.90247521,1,0
809,"4370 STARKEY RD STE C,ROANOKE,VA,24018-0607",0,0,0.2,37.22702587,-79.9830238,1,0
810,"4374 S LABURNUM AVE,RICHMOND,VA,23231-2418",1,0,0,37.52936423,-77.35870933,1,0
811,"4379 RIDGEWOOD CENTER DR STE 102,WOODBRIDGE,VA,22192-8323",3.866666667,0,0,38.67394684,-77.34035344,1,0
812,"4391 RIDGEWOOD CENTER DR UNIT 1C,WOODBRIDGE,VA,22192-5399",0.166666667,0,0,38.67414787,-77.34102361,1,0
813,"44031 PIPELINE PLZ STE 215,ASHBURN,VA,20147-5888",1,0,0,39.021222,-77.4802293,1,0
814,"44075 PIPELINE PLZ STE 210,ASHBURN,VA,20147-5890",0.625,0,0,39.02183367,-77.47753327,1,0
815,"4409 GEORGE WASHINGTON HWY,PORTSMOUTH,VA,23702-2401",1,0,0,36.8002036,-76.32414539,1,0
816,"441 E MAIN ST,PURCELLVILLE,VA,20132-3170",3,0,0,39.13659347,-77.70843955,1,0
817,"44121 HARRY BYRD HWY STE 155,ASHBURN,VA,20147-5669",1,0,0,39.06705673,-77.48360379,1,0
818,"44121 HARRY BYRD HWY STE 265,ASHBURN,VA,20147-5672",0.05,0.5,0,39.06705673,-77.48360379,1,0
819,"44121 HARRY BYRD HWY STE 280,ASHBURN,VA,20147-5672",1,0,0,39.06705673,-77.48360379,1,0
820,"4425 PLANK RD STE B,FREDERICKSBURG,VA,22407-4809",0.5,0,0,38.28904152,-77.53652026,1,0
821,"44330 PREMIER PLZ STE 140,ASHBURN,VA,20147-5071",0.833333333,0,0.142857143,39.06200577,-77.46656069,1,0
822,"44330 PREMIER PLZ STE 200,ASHBURN,VA,20147-5071",1,0,0,39.06200577,-77.46656069,1,0
823,"44355 PREMIER PLZ STE 100,ASHBURN,VA,20147-5050",1,0,0.333333333,39.06163645,-77.46586862,1,0
824,"44365 PREMIER PLZ STE 230,ASHBURN,VA,20147-5058",0.5,0,0,39.06174445,-77.46578607,1,0
825,"444 W BROAD ST STE D,FALLS CHURCH,VA,22046-3362",0,0,1.5,38.88627856,-77.17729807,1,0
826,"4440 SPRINGFIELD RD STE 101,GLEN ALLEN,VA,23060-3410",3,0,0,37.65091734,-77.56118538,1,0
827,"4444 GERMANNA HWY STE 301,LOCUST GROVE,VA,22508-2035",0.833333333,0,0,38.34203452,-77.74229051,1,0
828,"4452 CORPORATION LN,VIRGINIA BEACH,VA,23462-3173",0.833333333,0,0,36.84774658,-76.12713429,1,0
829,"446 EFFINGHAM ST STE 100,PORTSMOUTH,VA,23704-3464",0.176923077,0.209181141,0.201923077,36.83615613,-76.30699823,1,0
830,"446 EFFINGHAM ST,PORTSMOUTH,VA,23704-3464",0.301923077,0.459181141,0.076923077,36.83615613,-76.30699823,1,0
831,"4460 CORPORATION LN STE 190,VIRGINIA BEACH,VA,23462-3150",1,0,0,36.8468457,-76.13035566,1,0
832,"4480 KING ST,ALEXANDRIA,VA,22302-1300",1.142857143,0,0,38.83973272,-77.10573289,1,0
833,"450 GARRISONVILLE RD STE 201,STAFFORD,VA,22554-1532",1.833333333,1,0,38.47459741,-77.43010424,1,0
834,"450 N WASHINGTON ST,FALLS CHURCH,VA,22046-3439",0.5,0,0,38.88536775,-77.16526251,1,0
835,"4516 W HUNDRED RD,CHESTER,VA,23831-1740",2,0,0,37.35393949,-77.45002771,1,0
836,"4520 PRETTY LAKE AVE,NORFOLK,VA,23518-1826",0,0,0.5,36.9252601,-76.18764403,1,0
837,"4530 WALNEY RD STE 102,CHANTILLY,VA,20151-2285",1,0,0,38.87870724,-77.43564273,1,0
838,"4545 RIVERSIDE DR STE C,DANVILLE,VA,24541-5173",0.3,1,0.5,36.58697573,-79.45077469,1,0
839,"456 CHARLES H DIMMOCK PKWY,COLONIAL HEIGHTS,VA,23834",0.25,0,0,37.25220532,-77.38417473,1,0
840,"4585 DAISY REID AVE STE 101,WOODBRIDGE,VA,22192-7802",0.5,0,0,38.67864406,-77.34627505,1,0
841,"4585 DAISY REID AVE STE 105,WOODBRIDGE,VA,22192-7802",0,0,1,38.67864406,-77.34627504,1,0
842,"45985 REGAL PLZ STE 160,STERLING,VA,20165-6144",0.5,0,0,39.03681156,-77.40870264,1,0
843,"4600 JOHN MARR DR STE 302,ANNANDALE,VA,22003-3310",1,0,0,38.82853042,-77.19709561,1,0
844,"4600 WESTGROVE CT,VIRGINIA BEACH,VA,23455-5414",1,0,0,36.87264104,-76.13762145,1,0
845,"4605 PINECREST OFFICE PARK DR STE D,ALEXANDRIA,VA,22312-1442",0,0.5,0,38.82446313,-77.15934996,1,0
846,"46090 LAKE CENTER PLZ STE 202,POTOMAC FALLS,VA,20165-5878",1,0,0,39.03378579,-77.40551803,1,0
847,"46161 WESTLAKE DR STE 120,STERLING,VA,20165-5871",0,0,0.5,39.03705791,-77.40326528,1,0
848,"46161 WESTLAKE DR STE 200,POTOMAC FALLS,VA,20165-5871",0,0,0.5,39.03705791,-77.40326528,1,0
849,"46161 WESTLAKE DR STE 220,STERLING,VA,20165-5871",0.25,0,0,39.03705791,-77.40326528,1,0
850,"46161 WESTLAKE DR STE 310,POTOMAC FALLS,VA,20165-5871",0,1,0,39.03705791,-77.40326528,1,0
851,"46165 WESTLAKE DR STE 200,STERLING,VA,20165-5872",0,0.5,0,39.0369053,-77.40417612,1,0
852,"46165 WESTLAKE DR STE 300,STERLING,VA,20165-5872",0.5,0,0,39.0369053,-77.40417612,1,0
853,"46169 WESTLAKE DR STE 330,STERLING,VA,20165-5875",1,0,0,39.03679139,-77.40240695,1,0
854,"46175 WESTLAKE DR STE 230,STERLING,VA,20165-5884",1,0,0,39.03502211,-77.40226646,1,0
855,"46175 WESTLAKE DR STE 430,STERLING,VA,20165-5886",0,1.166666667,0,39.03501205,-77.40225649,1,0
856,"46179 WESTLAKE DR STE 230,STERLING,VA,20165-5874",0.5,0,0,39.03277863,-77.40396696,1,0
857,"462 N MADISON RD,ORANGE,VA,22960-1095",0.833333333,0,0,38.2542466,-78.1152058,1,0
858,"465 W MAIN ST,ABINGDON,VA,24210-2630",0,1,0,36.70676886,-81.98631982,1,0
859,"46950 JENNINGS FARM DR STE 160,STERLING,VA,20164-8679",1,0,1,39.01835959,-77.3756033,1,0
860,"47 W QUEENS WAY,HAMPTON,VA,23669-4075",2,0,0,37.0255287,-76.34527503,1,0
861,"470 W SPRING ST,WYTHEVILLE,VA,24382-2528",0.333333333,0,0.333333333,36.94664594,-81.08610316,1,0
862,"47100 COMMUNITY PLZ STE 165,STERLING,VA,20164-1894",1,0,0,39.01464745,-77.37551921,1,0
863,"4712 JEFFERSON DAVIS HWY,RICHMOND,VA,23234-3162",0.5,0,0,37.46162551,-77.44270487,1,0
864,"4714 MARSHALL AVE,NEWPORT NEWS,VA,23607-2247",0.5,0,0,36.99797272,-76.42451564,1,0
865,"4722 N SOUTHSIDE PLAZA ST STE 24,RICHMOND,VA,23224-1742",2.670906196,0.195248261,1.685597572,37.50225575,-77.47799622,1,0
866,"4722 N SOUTHSIDE PLAZA ST,RICHMOND,VA,23224-1742",0,0,0.25,37.50225575,-77.47799622,1,0
867,"4732 GEORGE WASHINGTON MEMORIAL HWY STE A,HAYES,VA,23072-2835",0.666666667,0,0,37.33630664,-76.51653821,1,0
868,"477 VIKING DR STE 190,VIRGINIA BEACH,VA,23452-7354",0,0,0.5,36.82779074,-76.07012978,1,0
869,"480 STONEWALL LN,QUICKSBURG,VA,22847-1422",0.2,0,0,38.70513843,-78.66800546,1,0
870,"4805 LAKE BROOK DR STE 150,GLEN ALLEN,VA,23060-9278",0,0,0.25,37.66820263,-77.57355948,1,0
871,"4807 HERMITAGE RD,RICHMOND,VA,23227-3335",2,0,0,37.59785164,-77.466608,1,0
872,"4810 BEAUREGARD ST STE 200,ALEXANDRIA,VA,22312-1709",1,0,0,38.81926642,-77.14319531,1,0
873,"4810 BEAUREGARD ST STE 300,ALEXANDRIA,VA,22312-1709",0.5,0,0,38.81926986,-77.1431943,1,0
874,"4867 BAXTER RD STE 101,VIRGINIA BEACH,VA,23462-4469",0.25,0,0,36.82370453,-76.14938433,1,0
875,"490 S MAIN ST STE 201,ROCKY MOUNT,VA,24151-1762",1,0,0,36.99211369,-79.88986558,1,0
876,"490 S MAIN ST STE 202,ROCKY MOUNT,VA,24151-1769",0,0,0.2,36.99211369,-79.88986558,1,0
877,"4903 STARKEY RD STE 300,ROANOKE,VA,24018-8525",0.5625,0,0,37.21931498,-79.98645649,1,0
878,"4904 MILLRIDGE PKWY E,MIDLOTHIAN,VA,23112-4828",0.5,0,0,37.42199,-77.63724886,1,0
879,"4908 MONUMENT AVE STE 101,RICHMOND,VA,23230-3613",1,0,0,37.57710008,-77.49867576,1,0
880,"4922 W BROAD ST STE B,RICHMOND,VA,23230-3100",0.333333333,0,1,37.5836381,-77.49589121,1,0
881,"5 FAIRGROUNDS RD,ONANCOCK,VA,23417-1303",1,0,0,37.70668137,-75.72895417,1,0
882,"50 RIVERTON COMMONS DR # C-60,FRONT ROYAL,VA,22630-6718",1,0,0,38.96289618,-78.18813315,1,0
883,"50 S PICKETT ST STE 104,ALEXANDRIA,VA,22304-7203",1,0,0,38.81129622,-77.12192854,1,0
884,"50 S PICKETT ST STE 229,ALEXANDRIA,VA,22304-7200",1,0,0,38.81129622,-77.12192854,1,0
885,"500 N MAIN ST,FRANKLIN,VA,23851-1438",1,0,0,36.67961531,-76.92416535,1,0
886,"500 W JUBAL EARLY DR STE 200,WINCHESTER,VA,22601-6508",0.541666667,0,0,39.17036514,-78.18234771,1,0
887,"5002 AIRPORT RD NW STE 30,ROANOKE,VA,24012-1607",0.083333333,0,0,37.31802555,-79.95652216,1,0
888,"5002 AIRPORT RD NW UNIT 130,ROANOKE,VA,24012-1607",2.034836242,0.195248261,1.32775727,37.31802555,-79.95652216,1,0
889,"5011 RIVERSIDE DR STE A,DANVILLE,VA,24541-5642",1.233333333,0,0,36.59292686,-79.46432355,1,0
890,"5011 RIVERSIDE DR STE B,DANVILLE,VA,24541-5642",0.65,0,0,36.59292686,-79.46432355,1,0
891,"5015 COLUMBIA PIKE,ARLINGTON,VA,22204-2906",0.583333333,0,0,38.85562177,-77.11297479,1,0
892,"5017B BACKLICK RD,ANNANDALE,VA,22003-6043",1,0,0,38.8142917,-77.18647022,1,0
893,"504 ELDEN ST STE 1,HERNDON,VA,20170-4741",0.5,0,0,38.96869102,-77.3791477,1,0
894,"5047 BACKLICK RD STE A,ANNANDALE,VA,22003-6045",0,0.5,0,38.81422478,-77.18636653,1,0
895,"505 FAULCONER DR STE 1D,CHARLOTTESVILLE,VA,22903-4981",1,0,0,38.05094344,-78.52465804,1,0
896,"505 WESTFIELD RD,CHARLOTTESVILLE,VA,22901-1725",0,0,0.333333333,38.07056955,-78.48228426,1,0
897,"5055 SEMINARY RD STE 105,ALEXANDRIA,VA,22311-2026",1,0,0,38.83358859,-77.11631127,1,0
898,"506 FLETCHER DR,WARRENTON,VA,20186-2183",1,0,0,38.72717439,-77.79395632,1,0
899,"510 BELFIELD DR,EMPORIA,VA,23847-1218",2,0,0,36.69892721,-77.54076505,1,0
900,"5105C BACKLICK RD,ANNANDALE,VA,22003-6042",2.071428571,0,0,38.8137673,-77.18630019,1,0
901,"5130 DUKE ST STE 8,ALEXANDRIA,VA,22304-2955",0.833333333,0,0,38.81215468,-77.12091712,1,0
902,"5138 LEESBURG PIKE,ALEXANDRIA,VA,22302-1050",0.5,0,0,38.84563047,-77.11654301,1,0
903,"5142 LEESBURG PIKE,ALEXANDRIA,VA,22302-1048",1,0,0,38.8456245,-77.11651352,1,0
904,"517 W GRACE ST,RICHMOND,VA,23220-4911",2,0,0,37.54767846,-77.4476462,1,0
905,"518 POWELL AVE E,BIG STONE GAP,VA,24219-2346",0.5,0,0.5,36.87017005,-82.77596161,1,0
906,"519 W JUBAL EARLY DR STE 101,WINCHESTER,VA,22601-6517",1,1,0,39.17072083,-78.18373476,1,0
907,"520 N 12TH ST RM 228,RICHMOND,VA,23298-5064",0.333333333,0.1,0.747619048,37.54125491,-77.42944448,1,0
908,"520 N 12TH ST,RICHMOND,VA,23298-5064",0,0.1,0.2,37.54125491,-77.42944448,1,0
909,"5200 LYNGATE CT,BURKE,VA,22015-1631",0,0.5,0,38.80982928,-77.25775701,1,0
910,"5202 LEESBURG PIKE,FALLS CHURCH,VA,22041",1,0,0,38.84600252,-77.11746624,1,0
911,"5204 DAWES AVE,ALEXANDRIA,VA,22311-1404",0.2,0.058823529,0.333333333,38.84080926,-77.11643496,1,0
912,"5204B LYNGATE CT,BURKE,VA,22015-4693",0,0,1,38.80963091,-77.25764036,1,0
913,"521 N 11TH ST,RICHMOND,VA,23298-5045",4.333333333,1.65952381,3.172222222,37.54165291,-77.43018078,1,0
914,"5219 LANKFORD HWY,NEW CHURCH,VA,23415-3332",2.666666667,0,0,37.96551154,-75.53249588,1,0
915,"5224 MONUMENT AVE,RICHMOND,VA,23226-1405",0.267857143,0,0.833333333,37.58032483,-77.50412671,1,0
916,"5231 HICKORY PARK DR STE E,GLEN ALLEN,VA,23059-2619",1.5,0,0,37.67739651,-77.58744746,1,0
917,"5234 DAWES AVE,ALEXANDRIA,VA,22311-1404",1,0,0,38.83985533,-77.11957362,1,0
918,"5243 HICKORY PARK DR STE D,GLEN ALLEN,VA,23059-2626",1,0,0,37.67676577,-77.58833954,1,0
919,"5249 DUKE ST STE 101,ALEXANDRIA,VA,22304-2907",1,0,0,38.81271238,-77.12296681,1,0
920,"5249 DUKE ST STE 10L,ALEXANDRIA,VA,22304-2907",0.333333333,0,0,38.81271238,-77.12296681,1,0
921,"5249 DUKE ST STE 210,ALEXANDRIA,VA,22304-2907",1.666666667,0,0.25,38.81271238,-77.12296681,1,0
922,"5249 DUKE ST STE 409,ALEXANDRIA,VA,22304-2907",0.5,0,0,38.81271238,-77.12296681,1,0
923,"5249 DUKE ST,ALEXANDRIA,VA,22304",2,0,0,38.81271238,-77.12296681,1,0
924,"5249 OLDE TOWNE RD STE D,WILLIAMSBURG,VA,23188-8111",1,0,0,37.30810721,-76.75066142,1,0
925,"5251 S LABURNUM AVE,RICHMOND,VA,23231-4437",1,0,0,37.5142505,-77.34953583,1,0
926,"5261 CHALLEDON DR,VIRGINIA BCH,VA,23462-6315",1,0,0,36.82675318,-76.1693584,1,0
927,"5261 CHALLEDON DR,VIRGINIA BEACH,VA,23462-6315",1,0,0,36.82675318,-76.1693584,1,0
928,"5266 DAWES AVE,ALEXANDRIA,VA,22311-1404",1,0,0,38.83970514,-77.1200743,1,0
929,"5274 DAWES AVE,ALEXANDRIA,VA,22311-1404",0,0.5,0,38.83963219,-77.12034625,1,0
930,"528 ALBEMARLE DR STE 200,CHESAPEAKE,VA,23322-5584",1,0,0,36.71442796,-76.2549445,1,0
931,"5284 LYNGATE CT,BURKE,VA,22015-1688",0,1,0,38.80808205,-77.25693583,1,0
932,"5298 REDBUD HWY,HONAKER,VA,24260-7379",1,0,0,37.01400969,-81.96941062,1,0
933,"530 E MAIN ST STE 400,RICHMOND,VA,23219-2431",0.2,0,0,37.54001178,-77.4392769,1,0
934,"5303 PLAZA DR STE 103,HOPEWELL,VA,23860-7331",1.166666667,0,0,37.26021217,-77.32885539,1,0
935,"5322 CHAMBERLAYNE RD,RICHMOND,VA,23227-2958",1,1,0.047619048,37.60458235,-77.45050782,1,0
936,"534 WYTHE CREEK RD STE B,POQUOSON,VA,23662-1563",0,0,0.5,37.12981561,-76.39143809,1,0
937,"5367 DICKENSON HWY,CLINTWOOD,VA,24228-7634",1,0,0,37.1497778,-82.46418571,1,0
938,"537 MAIN ST,BLAND,VA,24315-5480",1,0,0,37.10104097,-81.11531502,1,0
939,"5388 DISCOVERY PARK BLVD STE 240,WILLIAMSBURG,VA,23188-8218",0.44478022,1.459181141,0.201923077,37.282479,-76.7417497,1,0
940,"54 S MEDICAL PARK DR,FISHERSVILLE,VA,22939-2333",0.5,0,0.5,38.09175795,-78.99130288,1,0
941,"540 FORT EVANS RD STE 102,LEESBURG,VA,20176-3379",1,0,0,39.10515926,-77.52806698,1,0
942,"540 FORT EVANS RD STE 110,LEESBURG,VA,20176-3379",0,0.75,0,39.10515926,-77.52806698,1,0
943,"5408 DISCOVERY PARK BLVD STE 101,WILLIAMSBURG,VA,23188-2893",0.2,0,1,37.28345586,-76.74258751,1,0
944,"5412 GLENSIDE DR STE C,RICHMOND,VA,23228-3995",1,0,0,37.61003431,-77.51516414,1,0
945,"5413D BACKLICK RD,NORTH SPRINGFIELD,VA,22151-3915",3,0,0,38.80369177,-77.1838256,1,0
946,"5417D BACKLICK RD STE D,SPRINGFIELD,VA,22151-3915",1.5,0,0,38.80343135,-77.18383434,1,0
947,"545 E MARKET ST STE G,LEESBURG,VA,20176-4172",2,0,0,39.10857373,-77.55173545,1,0
948,"546 E MARKET ST,LEESBURG,VA,20176-4112",0.166666667,0,0,39.10835337,-77.5511998,1,0
949,"548 BATTLEFIELD BLVD S,CHESAPEAKE,VA,23322-5363",0,0,0.333333333,36.70508961,-76.2357662,1,0
950,"548 ROSSER AVE,WAYNESBORO,VA,22980-3561",0.04,0,0,38.07022851,-78.91034994,1,0
951,"5500 COLUMBIA PIKE STE A,ARLINGTON,VA,22204-3173",2,0.5,0.142857143,38.85401819,-77.11764405,1,0
952,"5500 COLUMBIA PIKE STE B,ARLINGTON,VA,22204-5867",0,0.5,0,38.85401819,-77.11764405,1,0
953,"5500 HOLMES RUN PKWY STE C3,ALEXANDRIA,VA,22304-2860",1,0,0,38.81856051,-77.12720827,1,0
954,"5500 MONUMENT AVE STE C,RICHMOND,VA,23226-1452",1,0,0,37.58178179,-77.50655495,1,0
955,"5500 MONUMENT AVE STE K,RICHMOND,VA,23226-1452",0,0,0.558823529,37.58178179,-77.50655495,1,0
956,"5500 MONUMENT AVE STE N,RICHMOND,VA,23226-1452",0,0,1,37.58178179,-77.50655495,1,0
957,"5501 MERCHANTS VIEW SQ STE 704,HAYMARKET,VA,20169-5439",0.2,0,0,38.84313538,-77.6431572,1,0
958,"5506 WHITESIDE RD,SANDSTON,VA,23150-2345",0,1,0,37.51750235,-77.28966499,1,0
959,"5510 WHITESIDE RD,SANDSTON,VA,23150-2345",0.267857143,0,0.833333333,37.5182609,-77.28913923,1,0
960,"5511 PRINCESS ANNE RD STE 201,VIRGINIA BEACH,VA,23462-3321",1,0,0,36.83445489,-76.17816734,1,0
961,"552 FORT EVANS RD STE 100,LEESBURG,VA,20176-3378",0.5,0,0,39.1047718,-77.5273435,1,0
962,"555 GROVE ST STE 108,HERNDON,VA,20170-4728",2,0,0.5,38.96725495,-77.37982055,1,0
963,"5555 COLUMBIA PIKE STE 102,ARLINGTON,VA,22204-3117",1.5,0,0,38.85354197,-77.11965894,1,0
964,"556 SOUTHPARK BLVD,COLONIAL HEIGHTS,VA,23834-3609",0,0,0.558823529,37.2433197,-77.3910829,1,0
965,"56 QUICKS MILL RD,VERONA,VA,24482-2553",1,0,0,38.20381368,-79.00932845,1,0
966,"560 CELEBRATE VIRGINIA PKWY STE 107,FREDERICKSBURG,VA,22406-7298",1,0,0,38.35764214,-77.52196103,1,0
967,"5601 SEMINARY RD STE 3,FALLS CHURCH,VA,22041-3571",1.25,0,0,38.8453956,-77.12357293,1,0
968,"5622 COLUMBIA PIKE STE 103,FALLS CHURCH,VA,22041-2718",1,0,0,38.8530085,-77.12386228,1,0
969,"563 JAMES MADISON HWY STE 102,CULPEPER,VA,22701-2366",2.803822055,0,0,38.48082052,-77.98172005,1,0
970,"5631 BURKE CENTRE PKWY STE D,BURKE,VA,22015-2234",1,0,0,38.79944792,-77.32487713,1,0
971,"5645 COLUMBIA PIKE,FALLS CHURCH,VA,22041-2867",3,0,1,38.85201972,-77.12501103,1,0
972,"5659 COLUMBIA PIKE STE 100,FALLS CHURCH,VA,22041-2879",0.5,0.041666667,0,38.852084,-77.12499825,1,0
973,"5659 COLUMBIA PIKE STE 1000,FALLS CHURCH,VA,22041-2878",0.333333333,0,0,38.852084,-77.12499825,1,0
974,"5666 COLUMBIA PIKE STE A,FALLS CHURCH,VA,22041-2701",0.5,0,0,38.85211904,-77.12556451,1,0
975,"5671 COLUMBIA PIKE STE 101,FALLS CHURCH,VA,22041-2885",0.2,0,0,38.85208398,-77.12499726,1,0
976,"5695 KING CENTRE DR # STEB100,ALEXANDRIA,VA,22315-5744",1.333333333,1,0,38.76980683,-77.13277985,1,0
977,"5700 OLD RICHMOND AVE STE C14,RICHMOND,VA,23226-1828",0,0,1,37.58725967,-77.50535529,1,0
978,"5700 OLD RICHMOND AVE,RICHMOND,VA,23226",1,0,0,37.58725967,-77.50535529,1,0
979,"5715 SELLGER DR,NORFOLK,VA,23502-5239",1.5,0,0,36.83855852,-76.20924149,1,0
980,"5727 CENTRE SQUARE DR,CENTREVILLE,VA,20120-1916",1,0,0,38.84000194,-77.43006332,1,0
981,"5731 CENTRE SQUARE DR,CENTREVILLE,VA,20120-1916",0.333333333,0,0,38.84000194,-77.43006332,1,0
982,"5734 BROOK RD,RICHMOND,VA,23227-2276",1,0,0,37.61017553,-77.45725555,1,0
983,"5764 DOW AVE,ALEXANDRIA,VA,22304",1,0,0,38.80492553,-77.13327464,1,0
984,"5765 BURKE CENTRE PKWY STE M,BURKE,VA,22015-2264",1,0,0,38.79844503,-77.31896727,1,0
985,"58 CEDAR GREEN RD,STAUNTON,VA,24401-5423",0.04,0,0,38.15053398,-79.11970706,1,0
986,"5801 BREMO RD,RICHMOND,VA,23226-1907",0,0.032258065,0.25,37.58392138,-77.51377593,1,0
987,"5826 RUEBUSH RD,DUBLIN,VA,24084-2252",0.333333333,0,0,37.1154712,-80.67025662,1,0
988,"5830 HARRISON RD,FREDERICKSBURG,VA,22407-4202",0.666666667,0,0,38.26959424,-77.53712337,1,0
989,"5833 HARBOUR VIEW BLVD STE A,SUFFOLK,VA,23435-3766",0,0,0.333333333,36.87058356,-76.44302097,1,0
990,"5835 HARBOUR VIEW BLVD STE C,SUFFOLK,VA,23435-2601",0.5,0,0,36.87092492,-76.44272329,1,0
991,"5837 HARBOUR VIEW BLVD,SUFFOLK,VA,23435-2657",1.5,0,0,36.87123588,-76.44240164,1,0
992,"5849 HARBOUR VIEW BLVD STE 120,SUFFOLK,VA,23435-3770",0.2,0,0.5,36.87293635,-76.44016206,1,0
993,"5875 BREMO RD STE 104,RICHMOND,VA,23226-1934",0,0.333333333,0,37.58395545,-77.51372626,1,0
994,"5875 BREMO RD STE 209,RICHMOND,VA,23226-1934",0,0.333333333,0,37.58395545,-77.51372626,1,0
995,"5900 E VIRGINIA BEACH BLVD STE 70,NORFOLK,VA,23502-2514",3.292229726,0.195248261,0.876774043,36.85555044,-76.2034325,1,0
996,"5900 E VIRGINIA BEACH BLVD,NORFOLK,VA,23502-2530",0.083333333,0,0,36.85555044,-76.20343249,1,0
997,"5900 FORT DR STE 209,CENTREVILLE,VA,20121-2425",2,0,0,38.83509087,-77.43282662,1,0
998,"5915 HIGH ST W,PORTSMOUTH,VA,23703-4505",1.416666667,0.25,0,36.86072457,-76.39613218,1,0
999,"5921 HARBOUR LN STE 200,MIDLOTHIAN,VA,23112-2161",0,0,0.333333333,37.41304448,-77.64790998,1,0
1000,"5937 HARBOUR PARK DR,MIDLOTHIAN,VA,23112-2163",1,0,0,37.41363075,-77.6477731,1,0
1001,"595 OLD WAGNER RD,NORTH DINWIDDIE,VA,23805-9307",0,0,0.5,37.18966326,-77.34937713,1,0
1002,"5954 BROOK RD,RICHMOND,VA,23227-2258",1,0,0,37.61351163,-77.45729566,1,0
1003,"5960 KINGSTOWNE TOWNE CTR STE 140,ALEXANDRIA,VA,22315-5897",0.5,0,0,38.7701172,-77.14044806,1,0
1004,"6 PIDGEON HILL DR STE 210,STERLING,VA,20165-6104",2,0,0.392857143,39.03791224,-77.41163525,1,0
1005,"600 BEDFORD AVE,BEDFORD,VA,24523-1966",1,0,0,37.33778192,-79.52961279,1,0
1006,"600 GREEN ST,PORTSMOUTH,VA,23704-3410",1,0,0,36.83433273,-76.3054066,1,0
1007,"600 GREENVILLE AVE,STAUNTON,VA,24401-4881",0.04,0,0,38.13981587,-79.07117549,1,0
1008,"600 GRESHAM DR,NORFOLK,VA,23507-1904",0.125,0,0,36.86236158,-76.3047344,1,0
1009,"600 W VIRGINIA AVE,CREWE,VA,23930-1115",0.416666667,0,0,37.18002646,-78.13057464,1,0
1010,"601 CHILDRENS LN,NORFOLK,VA,23507-1910",0.25,0.601190476,0,36.86166239,-76.30146995,1,0
1011,"601 ROANOKE ST,CHRISTIANSBURG,VA,24073-3142",0.2,0,0,37.13064697,-80.39509659,1,0
1012,"6011 WILSON BLVD,ARLINGTON,VA,22205-1503",1,0,0,38.87387913,-77.13916996,1,0
1013,"6019 CENTREVILLE CREST LN,CENTREVILLE,VA,20121-2346",1,0,1.142857143,38.83670679,-77.43509476,1,0
1014,"603 MOUNTAIN AVE,BEDFORD,VA,24523",0.333333333,0,0,37.33790587,-79.52925319,1,0
1015,"603 S MAIN ST,GRETNA,VA,24557-2018",1,0,0,36.94641269,-79.36276663,1,0
1016,"6031 HARBOUR PARK DR,MIDLOTHIAN,VA,23112-2160",0.267857143,0,0.833333333,37.41333734,-77.64695643,1,0
1017,"6033 PROVIDENCE RD,VIRGINIA BEACH,VA,23464-3815",0.5,0,0.5,36.81272294,-76.20301675,1,0
1018,"604 E CHURCH ST,MARTINSVILLE,VA,24112-3008",2,0,0,36.68833149,-79.86067199,1,0
1019,"6041 LEESBURG PIKE,FALLS CHURCH,VA,22041-2203",1,0,0,38.85593473,-77.13965585,1,0
1020,"6060 ARLINGTON BLVD STE 200,FALLS CHURCH,VA,22044-2943",0.333333333,0,0.142857143,38.86693628,-77.14195295,1,0
1021,"6061 BELSPRING RD,FAIRLAWN,VA,24141-8567",0,0,1.5,37.14869132,-80.58241876,1,0
1022,"6065 ARLINGTON BLVD,FALLS CHURCH,VA,22044-2721",0.333333333,0,0,38.86628335,-77.14173065,1,0
1023,"6066 LEESBURG PIKE STE 101,FALLS CHURCH,VA,22041-2220",0.05,0.5,0,38.8576315,-77.14202832,1,0
1024,"6069 ARLINGTON BLVD,FALLS CHURCH,VA,22044-2721",1,0,0,38.8664186,-77.14208979,1,0
1025,"6079 ARLINGTON BLVD,FALLS CHURCH,VA,22044-2707",1,0,0,38.86694684,-77.14343294,1,0
1026,"6081 ARLINGTON BLVD,FALLS CHURCH,VA,22044-2707",1,0,0,38.86702784,-77.14363094,1,0
1027,"609 E MONROE AVE,ALEXANDRIA,VA,22301-3020",0,0.833333333,0,38.82098994,-77.05160089,1,0
1028,"6095 INDIAN RIVER RD,VIRGINIA BEACH,VA,23464-3818",1,0,0,36.8120704,-76.20512599,1,0
1029,"6101 REDWOOD SQUARE CTR,CENTREVILLE,VA,20121-4265",0,0.5,0,38.8311242,-77.43233516,1,0
1030,"611 S CARLIN SPRINGS RD STE 303,ARLINGTON,VA,22204-1086",0,0,0.333333333,38.85939638,-77.12572445,1,0
1031,"611 S CARLIN SPRINGS RD STE 306,ARLINGTON,VA,22204-1086",0.5,0,0,38.85939638,-77.12572445,1,0
1032,"611 S CARLIN SPRINGS RD STE 408,ARLINGTON,VA,22204-1087",1.5,0,0,38.85939638,-77.12572445,1,0
1033,"6116 ROLLING RD STE 108,SPRINGFIELD,VA,22152-1512",0.5,0,0,38.78461942,-77.23775738,1,0
1034,"6116 ROLLING RD STE 201,SPRINGFIELD,VA,22152-1512",0.333333333,0,0,38.78461942,-77.23775738,1,0
1035,"6120 BRANDON AVE STE 114,SPRINGFIELD,VA,22150-2504",0,1.541666667,0,38.78368033,-77.18189721,1,0
1036,"6120 BRANDON AVE STE 301,SPRINGFIELD,VA,22150-2504",1,0,0,38.78368033,-77.18189721,1,0
1037,"6120 BRANDON AVE STE 317,SPRINGFIELD,VA,22150-2504",1,0,0,38.78368033,-77.18189721,1,0
1038,"6134M ARLINGTON BLVD,FALLS CHURCH,VA,22044-2901",3.5,0,0,38.86827539,-77.14511341,1,0
1039,"6138 REDWOOD SQUARE CTR STE 103,CENTREVILLE,VA,20121-4264",0,0,0.5,38.82995467,-77.43340838,1,0
1040,"614 S MAIN ST,BLACKSBURG,VA,24060-5259",1,0,1.5,37.22500561,-80.40928255,1,0
1041,"615 E JUBAL EARLY DR,WINCHESTER,VA,22601-5178",0.5,0,0,39.16500891,-78.16364169,1,0
1042,"615 WOODBROOK DR,CHARLOTTESVILLE,VA,22901-1149",0.5,0,0,38.09088999,-78.47497753,1,0
1043,"616 CAMPUS DR STE 100,ABINGDON,VA,24210-9706",2,0,0,36.70958872,-81.99353378,1,0
1044,"616 VIRGINIA BEACH BLVD STE 102,VIRGINIA BEACH,VA,23451-4274",0.625,0,0,36.84399224,-75.98227606,1,0
1045,"6161 KEMPSVILLE CIR STE 345,NORFOLK,VA,23502-3950",1.333333333,1,0,36.8503958,-76.19241721,1,0
1046,"6167 FULLER CT,ALEXANDRIA,VA,22310-2541",0.5,0,0,38.78010916,-77.14908858,1,0
1047,"6171 KEMPSVILLE CIR,NORFOLK,VA,23502-3930",0.125,0,0,36.85148966,-76.19423787,1,0
1048,"6180 GROVEDALE CT STE 100,ALEXANDRIA,VA,22310-2552",0.25,0,0,38.77968986,-77.15005603,1,0
1049,"6182 OLD FRANCONIA RD,ALEXANDRIA,VA,22310-2592",1,0,0,38.78030457,-77.15233702,1,0
1050,"6204 LITTLE RIVER TPKE,ALEXANDRIA,VA,22312-1714",2,0,0,38.81785969,-77.14163893,1,0
1051,"6212 PETERS CREEK RD,ROANOKE,VA,24019-4026",1,0,0,37.34243943,-79.96839971,1,0
1052,"6220 PETERS CREEK RD,ROANOKE,VA,24019-4040",0,0,0.2,37.34281439,-79.96786846,1,0
1053,"6224 PORTSMOUTH BLVD STE 100,PORTSMOUTH,VA,23701-1351",3,0,0,36.82146227,-76.39029704,1,0
1054,"6224 PORTSMOUTH BLVD STE 300,PORTSMOUTH,VA,23701-1351",4,0,0,36.82146227,-76.39029704,1,0
1055,"623 ABNEY RD,ROANOKE,VA,24012-1257",1,0,0,37.32756307,-79.95393609,1,0
1056,"623 GARRISONVILLE RD,STAFFORD,VA,22554-3710",1,0,0,38.47337957,-77.44202203,1,0
1057,"6230 ROLLING RD STE E,SPRINGFIELD,VA,22152-2326",1.333333333,0,0.142857143,38.78182377,-77.23508801,1,0
1058,"625 ELDEN ST STE 201,HERNDON,VA,20170-4740",0,0,1,38.96924994,-77.38187037,1,0
1059,"626 MAIN ST,COLOGNE,VA,23181-9603",0.2,0,0,37.53124318,-76.7960751,1,0
1060,"63 SCHOOL BLVD,STUARTS DRAFT,VA,24477-3202",0.04,0,0,38.04689196,-79.00829516,1,0
1061,"6303 LITTLE RIVER TPKE STE 200,ALEXANDRIA,VA,22312-5045",0,0,0.5,38.81842004,-77.14413726,1,0
1062,"6303 LITTLE RIVER TPKE STE 345,ALEXANDRIA,VA,22312-5101",0,0.833333333,0,38.81842004,-77.14413726,1,0
1063,"6312 HOADLY RD,MANASSAS,VA,20112-3422",1,0,0,38.67291776,-77.39369315,1,0
1064,"6316 CASTLE PL STE 201,FALLS CHURCH,VA,22044-1906",3.833333333,0.041666667,0,38.87080852,-77.15585881,1,0
1065,"6319 CASTLE PL STE 3F,FALLS CHURCH,VA,22044-1907",1,0,0,38.87084151,-77.15603423,1,0
1066,"6328 RICHMOND HWY STE F,ALEXANDRIA,VA,22306-6408",0.75,0,0.333333333,38.77937839,-77.07972562,1,0
1067,"6329 ARLINGTON BLVD STE C,FALLS CHURCH,VA,22044-2015",0.5,0,0,38.87213374,-77.15777949,1,0
1068,"633 EAST JACKSON ST,GATE CITY,VA,24251-3276",1,0,0,36.64308522,-82.57133593,1,0
1069,"634 S MONTE VISTA DR,GLADE SPRING,VA,24340-2712",1,0,0,36.78071276,-81.7784097,1,0
1070,"635 PARK BLVD,MARION,VA,24354-4223",1,0,0,36.85031388,-81.50884705,1,0
1071,"635 PILOT HOUSE DR,NEWPORT NEWS,VA,23606-1980",2.5,0,0,37.08118013,-76.47692259,1,0
1072,"6354 WALKER LN STE 103,ALEXANDRIA,VA,22310-3242",0,0.7,0,38.7685132,-77.16040772,1,0
1073,"6372 MECHANICSVILLE TPKE STE 106,MECHANICSVILLE,VA,23111-4710",1,0,0,37.61583045,-77.32339302,1,0
1074,"6377 LITTLE RIVER TPKE,ALEXANDRIA,VA,22312-5002",1,0,0,38.81928783,-77.14953796,1,0
1075,"640 DENBIGH BLVD STE 1,NEWPORT NEWS,VA,23608-4485",0,0,1,37.14259259,-76.51616741,1,0
1076,"6400 ARLINGTON BLVD STE 80,FALLS CHURCH,VA,22042-2325",1,0.5,0,38.87241419,-77.16001542,1,0
1077,"6400 BEULAH ST STE 103,ALEXANDRIA,VA,22310-2628",0,0,1,38.77842801,-77.14719125,1,0
1078,"6400 SEVEN CORNERS PL STE K,FALLS CHURCH,VA,22044-2032",2,0,0,38.87071331,-77.15758316,1,0
1079,"6400 SEVEN CORNERS PL,FALLS CHURCH,VA,22044-2009",1,0,0,38.87071331,-77.15758316,1,0
1080,"6402 LEE HWY,WARRENTON,VA,20187-7902",0.833333333,0,0,38.73503581,-77.77031911,1,0
