idx,IKN_addr,general,pediatric,specialist,Y_lat,X_long,med_indicator,chip_indicator
0,"1 CHOCTAW WAY,TALIHINA,OK,74571-2022",1.0,0.0,1.0,34.76612219,-95.0926791,1,1
1,"100 NW 9TH ST,CHECOTAH,OK,74426-3018",3.0,0.0,0.0,35.47361758,-95.53389778,1,1
2,"100 S BLISS AVE,TAHLEQUAH,OK,74464-2512",9.25,0.0,1.0,35.91243813,-94.94973105,1,1
3,"100 STARLITE DR,KINGFISHER,OK,73750-4944",2.0,0.0,0.0,35.8276935,-97.935015,1,1
4,"100 W 15TH ST,EDMOND,OK,73013-3603",2.0,0.0,0.0,35.63825849,-97.48587354,1,1
5,"1000 N LINCOLN BLVD STE 200,OKLAHOMA CITY,OK,73104-3252",1.0,0.0,0.0,35.47653708,-97.50246871,1,1
6,"1000 N LINCOLN BLVD STE 2000,OKLAHOMA CITY,OK,73104-3252",1.0,0.0,1.5,35.47653708,-97.50246871,1,1
7,"1000 W CHOCTAW AVE STE 10,CHICKASHA,OK,73018-2256",1.0,0.0,0.0,35.05241147,-97.945902,1,1
8,"10004 S MEMORIAL DR,TULSA,OK,74133-6103",3.0,0.0,0.0,36.019377,-95.88664795,1,1
9,"1001 E STATE HIGHWAY 152 STE 113,MUSTANG,OK,73064-5131",1.0,0.0,0.0,35.39167651,-97.70402152,1,1
10,"1001 S 41ST ST E,MUSKOGEE,OK,74403-6253",6.0,0.0,0.0,35.73168300000001,-95.31029387,1,1
11,"1001 W I 240 SERVICE RD,OKLAHOMA CITY,OK,73139-2102",1.0,0.0,0.0,35.39173746,-97.53219444,1,1
12,"10032 S SHERIDAN RD STE F,TULSA,OK,74133-6293",1.0,0.0,0.0,36.01811674,-95.90427499,1,1
13,"1009 24TH AVE NW,NORMAN,OK,73069-6365",1.0,0.0,0.0,35.23064352,-97.48035782,1,1
14,"1009 PARKWOODS DR,NOBLE,OK,73068-9391",2.0,0.0,0.0,35.14940814,-97.39878797,1,1
15,"101 N DOUGLAS BLVD STE T,MIDWEST CITY,OK,73130-3328",1.0,0.0,0.0,35.46506695,-97.37089721,1,1
16,"101 S ADAIR ST,PRYOR,OK,74361-3625",2.0,0.0,0.0,36.305865600000004,-95.31772947,1,1
17,"101 S MOORE AVE,CLAREMORE,OK,74017-5047",3.0,0.0,0.0,36.31642233,-95.62827808,1,1
18,"101 S SAINTS BLVD STE 212,EDMOND,OK,73034-3083",2.0,1.0,0.0,35.65340047,-97.41744673,1,1
19,"1011 N MAIN ST,ELK CITY,OK,73644-2830",2.0,0.0,0.0,35.42008533,-99.40486373,1,1
20,"1015 E 6TH ST,OKMULGEE,OK,74447-4705",1.0,0.0,0.0,35.62344552,-95.95949399,1,1
21,"1019 N COUNCIL AVE STE 2,BLANCHARD,OK,73010-8046",1.0,0.0,0.0,35.14686255,-97.65336245,1,1
22,"102 S CHERRY ST,SKIATOOK,OK,74070-1321",2.0,0.0,0.0,36.36854638,-96.00845741,1,1
23,"102 SW 7TH ST,LINDSAY,OK,73052-5212",2.0,0.0,0.0,34.83692079,-97.61085792,1,1
24,"1020 24TH AVE NW STE 101,NORMAN,OK,73069-6341",1.0,0.0,0.0,35.231157,-97.48043411,1,1
25,"1020 N LAWSON BLVD,CLAYTON,OK,74536",1.0,0.0,0.0,34.59826537,-95.34332794,1,1
26,"1022 W MAIN ST,DUNCAN,OK,73533-4536",1.0,0.0,0.0,34.50209861,-97.96073349999999,1,1
27,"1024 SW 104TH ST,OKLAHOMA CITY,OK,73139-2990",8.0,0.0,0.0,35.36326653,-97.53380099,1,1
28,"1025 E VANDAMENT AVE STE 300,YUKON,OK,73099-4910",1.0,0.0,0.0,35.4934195,-97.73064963,1,1
29,"1025 STRAKA TER,OKLAHOMA CITY,OK,73139-2544",8.0,0.0,0.0,35.38737312,-97.53360258,1,1
30,"103 S BROADWAY ST,CLEVELAND,OK,74020-4614",1.0,0.0,0.0,36.308655,-96.46398742,1,1
31,"103 SW 1ST ST,CHECOTAH,OK,74426-3801",1.0,0.0,0.0,35.47012882,-95.52419503,1,1
32,"10321 N 2274 RD,CLINTON,OK,73601-7521",0.3333333333333333,0.0,0.0,35.51698699,-98.93353382,1,1
33,"10342 E 21ST ST,TULSA,OK,74129-1606",1.0,0.0,0.0,36.13333325,-95.86169061,1,1
34,"104 E MCELROY RD,STILLWATER,OK,74075-3803",1.0,0.0,0.0,36.13056052,-97.05813185,1,1
35,"104 W RAY FINE BLVD UNIT 5,ROLAND,OK,74954-5299",2.0,0.0,0.0,35.40500447,-94.51585269,1,1
36,"1041 E STATE HIGHWAY 152,MUSTANG,OK,73064-5117",2.5,0.0,0.0,35.39167748,-97.7024835,1,1
37,"1044 E LINCOLN AVE,SAPULPA,OK,74066-4505",1.0,0.0,0.0,35.99570252,-96.09920099,1,1
38,"1044 SW 44TH ST STE 510,OKLAHOMA CITY,OK,73109-3609",1.3333333333333333,0.0,0.0,35.42072249,-97.53412338,1,1
39,"105365 S HIGHWAY 102,MCLOUD,OK,74851",2.0,0.0,0.0,35.48730961,-97.08879922,1,1
40,"10587 HIGHWAY 76,HEALDTON,OK,73438-1711",3.0,0.0,0.0,34.23287606,-97.4784685,1,1
41,"106 LONE OAK CIR,FORT GIBSON,OK,74434-5001",2.0,0.0,0.0,35.78645882,-95.24313827,1,1
42,"106 S BROADWAY ST,GROVE,OK,74344-3206",2.0,0.0,0.0,36.59557241,-94.7724599,1,1
43,"1060SW4THSTREET  200,OKLAHOMA CITY,OK,73160",1.0,0.0,0.0,35.3694,-97.50902499,1,1
44,"107 NE F ST,ANTLERS,OK,74523-2603",1.0,0.0,0.0,34.23211015,-95.61295071,1,1
45,"109 KERR AVE,POTEAU,OK,74953-5270",2.0,0.0,0.0,35.02150714,-94.6599035,1,1
46,"109 S MAIN ST,WETUMKA,OK,74883-4015",1.0,0.0,0.0,35.23716246,-96.24159557,1,1
47,"10924 HEFNER POINTE DR,OKLAHOMA CITY,OK,73120-5061",3.0,0.0,0.0,35.58207351,-97.58295499,1,1
48,"1100 E LANSING ST,BROKEN ARROW,OK,74012-2429",1.0,0.0,0.0,36.06293041,-95.77739108,1,1
49,"1103 WALNUT DR,ARDMORE,OK,73401-2354",1.0,2.0,0.0,34.18622677,-97.14921222,1,1
50,"1116 NW ARLINGTON AVE,LAWTON,OK,73507-6535",1.0,0.0,0.0,34.6098385,-98.40599949,1,1
51,"1119 WALNUT DR STE 4,ARDMORE,OK,73401-2360",1.0,0.0,0.0,34.187058,-97.14810325,1,1
52,"1120 18TH ST,WOODWARD,OK,73801-2921",1.0,0.0,0.0,36.43515899,-99.40225579999999,1,1
53,"1123 WALNUT DR,ARDMORE,OK,73401-2354",0.0,0.0,1.0,34.18720199,-97.14925375,1,1
54,"1127 S GEORGE NIGH EXPY,MCALESTER,OK,74501-7143",2.0,0.0,0.0,34.89839866,-95.75939079,1,1
55,"11317 S WESTERN AVE STE 100B,OKLAHOMA CITY,OK,73170-5848",0.0,0.0,1.0,35.35483563,-97.53002518,1,1
56,"114 W MAIN ST,WILBURTON,OK,74578-4044",2.0,0.0,0.0,34.91870755,-95.31039099,1,1
57,"1144 SW 104TH ST,OKLAHOMA CITY,OK,73139-2992",3.0,0.0,0.0,35.36326647,-97.5365505,1,1
58,"115 W WALNUT ST,TECUMSEH,OK,74873-2031",1.0,0.0,0.0,35.26077547,-96.93773916,1,1
59,"116 E 14TH ST,ADA,OK,74820-6518",1.0,0.0,0.0,34.77133451,-96.67774366,1,1
60,"1172 E OKLAHOMA BLVD,ALVA,OK,73717-4015",1.0,0.0,0.0,36.79756551,-98.642493,1,1
61,"11720 E 21ST ST,TULSA,OK,74129-1833",2.0,0.0,0.0,36.13195093,-95.84144666,1,1
62,"119 E 18TH ST,GROVE,OK,74344-3237",1.0,0.0,0.0,36.57811183,-94.7678679,1,1
63,"11910 S MEMORIAL DR,BIXBY,OK,74008-2170",0.0,0.0,1.0,35.99017225,-95.88654694,1,1
64,"120 S GRAND ST,CRESCENT,OK,73028-9100",1.0,0.0,0.0,35.95239991,-97.59543562,1,1
65,"120 W DELAWARE AVE STE A,VINITA,OK,74301-4242",1.0,0.0,0.0,36.63524327,-95.15687184,1,1
66,"1200 CHILDRENS AVE # 8F,OKLAHOMA CITY,OK,73104-4637",1.0,0.0,0.0,35.481249,-97.49881923,1,1
67,"1200 N AIR DEPOT BLVD,MIDWEST CITY,OK,73110-3334",1.0,0.0,0.0,35.48094227,-97.40630871,1,1
68,"1200 N PHILLIPS AVE # 8900,OKLAHOMA CITY,OK,73104-4600",1.0,0.0,0.0,35.48006598,-97.49880617,1,1
69,"1200 S AIR DEPOT BLVD STE A,MIDWEST CITY,OK,73110-4848",3.0,0.0,0.0,35.45313244,-97.40607624,1,1
70,"1200 S AIR DEPOT BLVD,MIDWEST CITY,OK,73110-4866",1.0,0.0,0.0,35.45314241,-97.4060863,1,1
71,"1200 W 4TH ST STE A,TAHLEQUAH,OK,74464-5013",1.0,0.0,0.0,35.90086317,-94.99096696,1,1
72,"1201 E JACKSON ST,HUGO,OK,74743-4229",1.0,0.0,0.0,34.01065497,-95.49958352,1,1
73,"1201 KIOWA ST,ARDMORE,OK,73401-2246",0.0,0.0,1.0,34.18791559,-97.15379363,1,1
74,"1201 N STONEWALL AVE # 230,OKLAHOMA CITY,OK,73117-1214",0.0,0.0,2.0,35.480277,-97.49345742,1,1
75,"1201 N STONEWALL AVE # 442,OKLAHOMA CITY,OK,73117-1214",0.0,0.0,2.0,35.480277,-97.49345742,1,1
76,"1201 N STONEWALL AVE RM 442,OKLAHOMA CITY,OK,73117-1214",0.0,0.0,5.0,35.480277,-97.49345742,1,1
77,"1201 N STONEWALL AVE,OKLAHOMA CITY,OK,73117-1214",34.0,1.0,8.5,35.480277,-97.49345742,1,1
78,"1202 E MAIN ST,TISHOMINGO,OK,73460-2409",1.0,0.0,0.0,34.23050385,-96.66321135,1,1
79,"1203 E 33RD ST STE 100,TULSA,OK,74105-2013",0.0,1.0,0.0,36.11545453,-95.97712243,1,1
80,"1205 E ROSS BYP,TAHLEQUAH,OK,74464-4188",1.5,0.0,0.0,35.9081816,-94.95640259,1,1
81,"121 N MAIN ST,BRISTOW,OK,74010-2429",1.0,0.0,0.0,35.83351799,-96.39102712,1,1
82,"121 S 6TH ST,HENRYETTA,OK,74437-5009",1.0,0.0,0.0,35.43905641,-95.98835724,1,1
83,"1210 SW WASHINGTON ST,IDABEL,OK,74745-4327",1.0,0.0,0.0,33.89278851,-94.8404835,1,1
84,"1211 N SHARTEL AVE STE 1002,OKLAHOMA CITY,OK,73103-2433",1.0,0.0,0.0,35.480583,-97.52560671,1,1
85,"1215 E WRANGLER BLVD,SEMINOLE,OK,74868-3511",1.0,0.0,0.0,35.24636899,-96.65678759,1,1
86,"12195 S YUKON AVE,GLENPOOL,OK,74033-6621",1.0,0.0,0.0,35.98519573,-96.01927017,1,1
87,"1220 MERRICK DR,ARDMORE,OK,73401-1824",3.0,0.0,0.0,34.19178975,-97.14435436,1,1
88,"1224 SW 104TH ST STE B,OKLAHOMA CITY,OK,73139-3021",0.0,0.0,1.0,35.36326452,-97.53790436,1,1
89,"1226 W BROADWAY ST,DRUMRIGHT,OK,74030-5826",7.0,0.0,0.0,35.98798725,-96.61811290000001,1,1
90,"1240 ALAMEDA ST,NORMAN,OK,73071-3007",2.0,0.0,0.0,35.21834951,-97.42166999,1,1
91,"125 E 3RD ST STE A,EDMOND,OK,73034-3822",1.0,0.0,0.0,35.65190442,-97.47864868,1,1
92,"12516 N MAY AVE STE A,OKLAHOMA CITY,OK,73120-1947",1.0,0.0,0.0,35.59744507,-97.56717016,1,1
93,"12716 NE 36TH ST,SPENCER,OK,73084-9167",3.0,0.0,0.0,35.50761453,-97.30525041,1,1
94,"129 N 3RD AVE STE B,PURCELL,OK,73080-4246",1.0,0.0,0.0,35.01341997,-97.36265444,1,1
95,"129 S BROADWAY,COWETA,OK,74429-4101",1.0,0.0,0.0,35.95013498,-95.65051757,1,1
96,"1306 N MAIN ST,MIAMI,OK,74354-3325",1.0,0.0,0.0,36.89002768,-94.87748359,1,1
97,"1308 N KELLY AVE,EDMOND,OK,73003",1.0,0.0,0.0,35.66758096,-97.49602132,1,1
98,"1308 N KELLY AVE,EDMOND,OK,73003-3906",1.0,0.0,0.0,35.66758096,-97.49602132,1,1
99,"1309 JACKIE RD,DUNCAN,OK,73533-1566",1.0,0.0,0.0,34.518987,-97.97770535,1,1
100,"1313 E 20TH ST,OKMULGEE,OK,74447-6303",3.0,0.0,0.0,35.61001784,-95.95401899,1,1
101,"1322 KLABZUBA AVE,PRAGUE,OK,74864-4900",1.0,0.0,0.0,35.49032966,-96.68453676,1,1
102,"1325 N WASHINGTON ST,WEATHERFORD,OK,73096-2443",2.0,0.0,0.0,35.53980258,-98.69420429,1,1
103,"13301 N MERIDIAN AVE STE 702,OKLAHOMA CITY,OK,73120-8357",0.0,0.0,1.0,35.60539533,-97.60299477,1,1
104,"13316 S WESTERN AVE STE B,OKLAHOMA CITY,OK,73170-7309",1.0,0.0,0.0,35.33552005,-97.52986879,1,1
105,"1333 E MAIN ST STE A,WEATHERFORD,OK,73096-5767",1.0,0.0,0.0,35.52825985,-98.69025034,1,1
106,"1333 E MAIN ST STE B,WEATHERFORD,OK,73096-5767",0.0,0.0,1.0,35.52825985,-98.69025034,1,1
107,"1333 E MAIN ST,WEATHERFORD,OK,73096-5766",1.0,0.0,0.0,35.52825985,-98.69025034,1,1
108,"1334 N LANSING AVE,TULSA,OK,74106-5907",3.5,0.0,0.0,36.17470816,-95.98071506,1,1
109,"13509 N MERIDIAN AVE STE 1,OKLAHOMA CITY,OK,73120-8396",1.0,0.0,0.0,35.60766053,-97.603542,1,1
110,"13913 N MAY AVE,OKLAHOMA CITY,OK,73134-5035",1.0,0.0,0.0,35.61187939,-97.56732759,1,1
111,"1401 ARLINGTON ST,ADA,OK,74820-2636",1.0,0.0,0.0,34.78163247,-96.65948258,1,1
112,"1405 S SANGRE RD,STILLWATER,OK,74074-1832",0.0,1.0,0.0,36.10528208,-97.10493594,1,1
113,"1408 N HIGHWAY 81,DUNCAN,OK,73533-1724",2.0,0.0,0.0,34.52072981,-97.96679656,1,1
114,"1408 N SIOUX AVE,CLAREMORE,OK,74017-3126",1.0,0.0,0.0,36.32233436,-95.59686888,1,1
115,"1414 N KENNEDY AVE STE 101,SHAWNEE,OK,74801-4761",1.0,0.0,1.0,35.34669,-96.93875765,1,1
116,"1414 N KENNEDY AVE STE 102,SHAWNEE,OK,74801-4761",1.0,0.0,0.0,35.34669,-96.93875765,1,1
117,"1420 S LEWIS AVE,TULSA,OK,74104-4641",2.0,0.0,0.0,36.14159728,-95.95827497,1,1
118,"14221 N PENNSYLVANIA AVE STE C,OKLAHOMA CITY,OK,73134-6206",2.0,0.0,0.0,35.61505371,-97.54956792,1,1
119,"1430 LONNIE ABBOTT BLVD,ADA,OK,74820-1851",2.0,0.0,0.0,34.79070852,-96.65693927,1,1
120,"1435 W BRITTON RD,OKLAHOMA CITY,OK,73114-1307",1.0,0.0,0.0,35.56562548,-97.53955216,1,1
121,"144 W RUTH AVE,ATOKA,OK,74525-4002",1.0,0.0,0.0,34.35546031,-96.14840379,1,1
122,"14440 N PENNSYLVANIA AVE,OKLAHOMA CITY,OK,73134-6003",2.0,0.0,1.0,35.618238,-97.54948866,1,1
123,"14600 E 88TH PL N,OWASSO,OK,74055-4877",0.0,2.0,0.0,36.28105051,-95.81099374,1,1
124,"14617 S MEMORIAL DR,BIXBY,OK,74008-3767",1.0,0.0,0.0,35.95100742,-95.88637744,1,1
125,"148 W MAIN ST STE D,GLENPOOL,OK,74033-3952",1.0,0.0,0.0,35.95378901,-96.01067443,1,1
126,"1480 W BLUE STARR DR,CLAREMORE,OK,74017-2405",1.0,0.0,0.0,36.32193548,-95.62593351,1,1
127,"150 E HIGHWAY 33,PERKINS,OK,74059-4413",2.0,0.0,0.0,35.98553262,-97.05911029,1,1
128,"1502 W BLUE STARR DR,CLAREMORE,OK,74017-3202",4.0,0.0,0.0,36.32193953,-95.62678102,1,1
129,"1505 E MAIN ST,STIGLER,OK,74462-2913",1.0,0.0,0.0,35.25704716,-95.10635959999999,1,1
130,"1506 S GRAND AVE,CHEROKEE,OK,73728-4529",1.0,0.0,0.0,36.74345724,-98.35792195,1,1
131,"1506 W CHICKASAW AVE,SALLISAW,OK,74955-7200",1.0,0.0,0.0,35.45801870000001,-94.80759392,1,1
132,"1509 W COLUMBIA ST,OKEMAH,OK,74859-2052",1.0,0.0,0.0,35.43513194,-96.31859906,1,1
133,"1512 SW 89TH ST,OKLAHOMA CITY,OK,73159-6307",2.0,0.0,0.0,35.37710447,-97.5440205,1,1
134,"1515 NE LAWRIE TATUM RD,LAWTON,OK,73507-3002",2.0,0.0,0.0,34.6231306,-98.38573458,1,1
135,"1516 S IOWA AVE,CHANDLER,OK,74834-9169",1.0,0.0,0.0,35.69389297,-96.87571963,1,1
136,"152 COONROD AVE,MANNFORD,OK,74044-3437",1.0,0.0,0.0,36.12624624,-96.35621853,1,1
137,"1520 E MAIN ST,TISHOMINGO,OK,73460-3513",1.0,0.0,0.0,34.23042285,-96.65678414,1,1
138,"1520 S MAIN ST,BLACKWELL,OK,74631-4941",3.0,0.0,0.0,36.787194,-97.28302864,1,1
139,"1526 W 8TH AVE,STILLWATER,OK,74074-4372",1.0,0.0,0.0,36.11338654,-97.07774399,1,1
140,"1550 N LEWIS AVE,TULSA,OK,74110-2535",3.6666666666666665,0.0,0.0,36.17813948,-95.95831841,1,1
141,"15951 LITTLE AXE DR,NORMAN,OK,73026-9088",4.0,0.0,0.0,35.23230142,-97.20695958,1,1
142,"1600 GARTH BROOKS BLVD STE 150,YUKON,OK,73099-7412",1.0,0.0,0.0,35.48307599,-97.76027423,1,1
143,"1601 AIRPORT DR,SHAWNEE,OK,74804-4302",2.0,0.0,0.0,35.34815803,-96.93437358,1,1
144,"1601 SW 89TH ST STE G500,OKLAHOMA CITY,OK,73159-6381",1.0,0.0,0.0,35.37715049,-97.5465135,1,1
145,"161 N 2ND ST,FAIRFAX,OK,74637-2063",1.0,0.0,0.0,36.57185052,-96.70289623,1,1
146,"1610 W I 240 SERVICE RD,OKLAHOMA CITY,OK,73159-8201",2.0,0.0,0.0,35.39109053,-97.54588303,1,1
147,"1611 MAIN ST STE 201,WOODWARD,OK,73801-3064",0.0,0.0,1.0,36.43594953,-99.40042286,1,1
148,"1615 W SPRUCE AVE,DUNCAN,OK,73533-2305",1.0,0.0,0.0,34.51410322,-97.96839527,1,1
149,"1618 N 5TH ST STE 4,PONCA CITY,OK,74601-2764",3.0,0.0,0.0,36.722394,-97.07874526,1,1
150,"1618 N 5TH ST,PONCA CITY,OK,74601-2746",1.0,0.0,0.0,36.722394,-97.07874526,1,1
151,"1646 E 6TH ST STE A,TULSA,OK,74120-4001",1.0,0.0,0.0,36.15208549,-95.96766293,1,1
152,"1666 N 3RD ST,VINITA,OK,74301",1.0,0.0,0.0,36.48364283,-95.05960737,1,1
153,"1670 GARTH BROOKS BLVD STE 115,YUKON,OK,73099-6878",2.0,0.0,0.0,35.48152853,-97.76028042,1,1
154,"1671 E 71ST ST,TULSA,OK,74136-5151",2.1666666666666665,0.0,0.0,36.06084347,-95.96653255,1,1
155,"169 E 33RD ST,EDMOND,OK,73013-4602",0.0,1.0,0.0,35.62351575,-97.47935443,1,1
156,"1700 S SUNNYLANE RD,DEL CITY,OK,73115-3118",1.0,0.0,0.0,35.44859649,-97.44143974,1,1
157,"1701 S MORGAN RD,OKLAHOMA CITY,OK,73128-7005",1.0,0.0,0.0,35.44784927,-97.6892577,1,1
158,"1705 W ELM ST,EL RENO,OK,73036-4203",1.0,0.0,0.0,35.52235376,-97.97540585,1,1
159,"1711 INVESTORS AVE,EL RENO,OK,73036-1607",1.0,0.0,0.0,35.51329976,-97.97308839,1,1
160,"17200 N MAY AVE STE 300,EDMOND,OK,73012-9033",0.0,0.0,2.0,35.64790272,-97.5671402,1,1
161,"1745 W 33RD ST STE A,EDMOND,OK,73013-3832",1.0,0.0,0.0,35.62402452,-97.50605681,1,1
162,"18 E DUNLOUP RD,SHAWNEE,OK,74804-3203",2.0,0.0,2.0,35.35756037,-96.91112266,1,1
163,"1801 CHUKKA HINA,DURANT,OK,74701-7117",1.0,0.0,0.0,34.004715000000004,-96.40252249,1,1
164,"1803 S DIVISION ST,GUTHRIE,OK,73044-6061",1.0,0.0,0.0,35.86020219,-97.42543442,1,1
165,"1808 W BROADWAY AVE,SULPHUR,OK,73086-4246",1.0,0.0,0.0,34.50631652,-96.99343191,1,1
166,"1816 N MAIN ST,MIAMI,OK,74354-2748",2.0,0.0,0.0,36.89496933,-94.87751661,1,1
167,"1824 SE WASHINGTON BLVD,BARTLESVILLE,OK,74006-6734",2.0,0.0,0.0,36.72495573,-95.93508258,1,1
168,"1828 W LIBERTY RD,ATOKA,OK,74525-1725",1.0,0.0,0.0,34.3942051,-96.14436913,1,1
169,"1829 S WOOD DR,OKMULGEE,OK,74447-6825",1.0,0.0,0.0,35.60681859,-95.96160874,1,1
170,"1875 N HIGHWAY 66 STE A,CATOOSA,OK,74015-3072",2.0,0.0,0.0,36.18204759,-95.74704959,1,1
171,"19 N 2ND ST,STILWELL,OK,74960-3003",1.0,0.0,0.0,35.81465258,-94.62838896,1,1
172,"19 W INTERSTATE PKWY,SHAWNEE,OK,74804-1331",3.0,0.0,1.0,35.38338952,-96.92422136,1,1
173,"1900 E 15TH ST STE 700A,EDMOND,OK,73013-6692",1.0,0.0,0.0,35.63823754,-97.45602193,1,1
174,"1900 S AIR DEPOT BLVD STE 1,MIDWEST CITY,OK,73110-5522",2.0,0.0,0.0,35.44660833,-97.40601726,1,1
175,"1902 N BROADWAY BLVD,HINTON,OK,73047-9487",1.0,0.0,0.0,35.48892779,-98.35096834,1,1
176,"1908 S POST RD BLDG 3,MIDWEST CITY,OK,73130-6600",0.0,0.0,1.0,35.445213,-97.35313824,1,1
177,"1909 S ELLIOTT ST,PRYOR,OK,74361-8027",1.0,0.0,0.0,36.283203,-95.30983990000001,1,1
178,"1915 W KENOSHA ST,BROKEN ARROW,OK,74012-8945",1.0,0.0,0.0,36.06082328,-95.81174772,1,1
179,"1919 US-81 S,MARLOW,OK,73055",2.0,0.0,0.0,34.62449199,-97.9673291,1,1
180,"1921 STONECIPHER BLVD,ADA,OK,74820",1.0,0.0,0.0,34.73668226,-96.64787016,1,1
181,"1921 STONECIPHER DR,ADA,OK,74820-3439",10.0,1.0,0.0,34.73668226,-96.64787016,1,1
182,"1950 W KENOSHA ST,BROKEN ARROW,OK,74012-8944",1.0,0.0,0.0,36.06096471,-95.81127927,1,1
183,"1991 S DOUGLAS BLVD,MIDWEST CITY,OK,73130-6225",1.0,0.0,0.0,35.44534783,-97.37085619,1,1
184,"20 12TH AVE NW,ARDMORE,OK,73401-5722",1.0,0.0,0.0,34.184884999999994,-97.1251679,1,1
185,"20 E DUNLOUP RD,SHAWNEE,OK,74804-3201",0.0,0.0,1.0,35.35756047,-96.91068175,1,1
186,"200 DALLAS ST,TALIHINA,OK,74571-2402",1.0,0.0,0.0,34.75316689,-95.04977998,1,1
187,"200 E 3RD ST,GROVE,OK,74344-7006",2.0,0.0,0.0,36.59339894,-94.76665168,1,1
188,"200 E CHOCTAW AVE,SALLISAW,OK,74955-4604",1.0,0.0,0.0,35.45955855,-94.78844929,1,1
189,"200 W 7TH ST,WEWOKA,OK,74884-3123",1.0,0.0,0.0,35.15217151,-96.49383299,1,1
190,"2001 W LINDSEY ST,NORMAN,OK,73069-4105",2.0,0.0,0.0,35.20396450000001,-97.4702123,1,1
191,"2004 E MAIN ST,STIGLER,OK,74462-2824",2.0,0.0,0.0,35.260678399999996,-95.09720804,1,1
192,"201 E PARKER MCKENZIE DR,ANADARKO,OK,73005",1.0,0.0,0.0,35.08297119,-98.23870392,1,1
193,"201 S 3RD ST,MCALESTER,OK,74501-5443",1.0,0.0,0.0,34.92908493,-95.7669617,1,1
194,"201 W MAIN ST,PAWHUSKA,OK,74056-4114",1.0,0.0,0.0,36.66362635,-96.34191027,1,1
195,"202 S 6TH ST,HENRYETTA,OK,74437-5002",1.0,0.0,0.0,35.43850825,-95.98827774,1,1
196,"203 N 16TH AVE,DURANT,OK,74701-3600",1.0,0.0,0.0,33.99637002,-96.39276290000001,1,1
197,"2036 S MILLER LN STE B,CATOOSA,OK,74015-1539",3.0,0.0,0.0,36.164805,-95.75858149,1,1
198,"206 E DOWNING ST,TAHLEQUAH,OK,74464-3000",1.0,0.0,0.0,35.91508641,-94.96834949,1,1
199,"2080 HARPER ST,CHOCTAW,OK,73020-8051",2.0,0.0,0.0,35.48998758,-97.27384722,1,1
200,"2101 NW FERRIS AVE,LAWTON,OK,73507-5631",1.0,0.0,0.0,34.61609046,-98.42035075,1,1
201,"2105 E 21ST ST,TULSA,OK,74114-1409",1.0,0.0,1.0,36.1332705,-95.96171241,1,1
202,"2111 NW CACHE RD,LAWTON,OK,73505-5213",1.0,0.0,0.0,34.62341252,-98.42293308,1,1
203,"212 N MUSKOGEE AVE,TAHLEQUAH,OK,74464-2726",1.0,0.0,0.0,35.91456401,-94.9703422,1,1
204,"2128 S SERVICE RD # I-240,MOORE,OK,73160-5549",1.0,0.0,0.0,35.31854435,-97.4887396,1,1
205,"2145 S SHERIDAN RD,TULSA,OK,74129-1001",1.0,0.0,0.0,36.13210225,-95.904536,1,1
206,"215 N 6TH ST,MCALESTER,OK,74501-4737",2.0,0.0,0.0,34.9318099,-95.76090024,1,1
207,"217 S 5TH ST,HENRYETTA,OK,74437-5222",1.0,0.0,0.0,35.43805799,-95.98706476,1,1
208,"2200 N PERKINS RD,STILLWATER,OK,74075-3076",3.0,0.0,0.0,36.14453122,-97.05164801,1,1
209,"2200 NW 122ND ST,OKLAHOMA CITY,OK,73120-8402",1.0,0.0,0.0,35.59461452,-97.55135109,1,1
210,"2209 W I 240 SERVICE RD STE 315,OKLAHOMA CITY,OK,73159-8252",2.0,0.0,0.0,35.3917125,-97.54991193,1,1
211,"221 E 7TH AVE,BRISTOW,OK,74010-2503",2.0,0.0,0.0,35.83386148,-96.38761049,1,1
212,"221 E DOWNING ST,TAHLEQUAH,OK,74464-3011",2.0,0.0,0.0,35.91524996,-94.96797381,1,1
213,"2211 DOWNS AVE,WOODWARD,OK,73801-5309",1.0,0.0,0.0,36.41902047,-99.40850999,1,1
214,"2216 N MARTIN LUTHER KING AVE,OKLAHOMA CITY,OK,73111-2445",1.0,0.0,0.0,35.492013,-97.47667978,1,1
215,"224 W GRAY ST STE 105,NORMAN,OK,73069-7114",2.0,0.0,0.0,35.22078698,-97.44641947,1,1
216,"225 N HIGHWAY 169,OOLOGAH,OK,74053-6364",3.0,0.0,0.0,36.44929859,-95.70818635,1,1
217,"230 E JEFFERSON ST,MANGUM,OK,73554-4202",1.0,0.0,0.0,34.87356054,-99.5030505,1,1
218,"2307 GORDON COOPER DR,SHAWNEE,OK,74801-9007",5.0,0.0,0.0,35.29190129,-96.92612995,1,1
219,"2313 E OKMULGEE ST,MUSKOGEE,OK,74403-5924",1.0,0.0,0.0,35.73863451,-95.34169349,1,1
220,"2321 E 3RD ST,TULSA,OK,74104",1.0,0.0,0.0,36.15662547,-95.95888255,1,1
221,"2321 E 3RD ST,TULSA,OK,74104-1831",1.0,0.0,0.0,36.15662547,-95.95888255,1,1
222,"2328 S 4TH ST,CHICKASHA,OK,73018-6804",2.0,0.0,0.0,35.02604641,-97.93514404,1,1
223,"235 SW 25TH ST,OKLAHOMA CITY,OK,73109-5927",1.0,0.0,0.0,35.43942653,-97.5177405,1,1
224,"2359 NOWATA PL,BARTLESVILLE,OK,74006-4745",2.0,0.0,0.0,36.72996526,-95.95192459,1,1
225,"2397 CHURCH AVE,HARRAH,OK,73045-9781",2.0,0.0,0.0,35.4926233,-97.16748856,1,1
226,"2400 12TH AVE NE STE 140,NORMAN,OK,73071-6841",1.0,0.0,0.0,35.24742941,-97.42355282,1,1
227,"2401 12TH AVE NW STE 103,ARDMORE,OK,73401-1471",2.0,0.0,0.0,34.187504499999996,-97.16006241,1,1
228,"2401 NW 23RD ST STE 23,OKLAHOMA CITY,OK,73107-2429",2.0,0.0,0.0,35.49330474,-97.55490655,1,1
229,"2404 OLD SHAWNEE RD,MUSKOGEE,OK,74403-1561",2.0,0.0,0.0,35.76963754,-95.33711169,1,1
230,"2405 CAPELLA BLVD,HARRAH,OK,73045-9132",1.0,0.0,0.0,35.49364158,-97.17355422,1,1
231,"2406 E SHAWNEE RD STE D,MUSKOGEE,OK,74403-1597",3.0,0.0,0.0,35.77146689,-95.33946057,1,1
232,"2408 PALMER CIR,NORMAN,OK,73069-6301",1.0,0.0,0.0,35.22941173,-97.47896304,1,1
233,"2414 HERITAGE TRL STE A,ENID,OK,73703-1697",1.0,0.0,0.0,36.42002733,-97.90452734,1,1
234,"2424 N MILT PHILLIPS AVE,SEMINOLE,OK,74868-2350",1.0,0.0,0.0,35.24517016,-96.67092735,1,1
235,"244 S SCRAPER ST,VINITA,OK,74301-3740",2.0,0.0,0.0,36.63652564,-95.15722358,1,1
236,"2510 CHICKASAW BLVD,ARDMORE,OK,73401-1341",1.0,0.0,0.0,34.20126457,-97.14043456,1,1
237,"2510 E INDEPENDENCE ST STE 600,SHAWNEE,OK,74804-1839",1.0,0.0,0.0,35.34726408,-96.89445269,1,1
238,"2510 W CHESTNUT AVE STE A,ENID,OK,73703-3906",0.0,0.0,1.0,36.40529772,-97.90989102,1,1
239,"2620 NW EXPRESSWAY STE E,OKLAHOMA CITY,OK,73112-7207",1.0,0.0,0.0,35.52518678,-97.56016827,1,1
240,"2707 N BROADWAY ST STE A,POTEAU,OK,74953-5544",1.0,0.0,0.0,35.08401428,-94.62995536,1,1
241,"2709 S I 35 SERVICE RD,OKLAHOMA CITY,OK,73129-6451",1.0,0.0,0.0,35.43805465,-97.48656767,1,1
242,"2714 BUFORD ST,MUSKOGEE,OK,74403-1601",1.0,0.0,0.0,35.78242449,-95.32777813,1,1
243,"27371 S 4410 RD,VINITA,OK,74301-7953",3.0,0.0,0.0,36.62155274,-95.14362007,1,1
244,"2750 NW 23RD ST,OKLAHOMA CITY,OK,73107-2212",3.0,0.0,0.0,35.49310547,-97.56178183,1,1
245,"2800 N KELLY AVE STE 200,EDMOND,OK,73003-3004",0.0,1.0,0.0,35.68299299,-97.49608868,1,1
246,"2805 N MARTIN LUTHER KING AVE,OKLAHOMA CITY,OK,73111-3317",1.0,0.0,0.0,35.498043,-97.47675725,1,1
247,"2809 SHADYBROOK DR,MIDWEST CITY,OK,73110-3121",1.0,0.0,0.0,35.46510207,-97.40151671,1,1
248,"2815 W ELK AVE STE B,DUNCAN,OK,73533-1518",1.0,0.0,0.0,34.52164651,-97.98492141,1,1
249,"2820 NW 32ND ST,NEWCASTLE,OK,73065-6576",1.0,0.0,0.0,35.29092203,-97.64335694,1,1
250,"2902 AZALEA PARK DR,MUSKOGEE,OK,74401-2282",1.0,0.0,0.0,35.76942821,-95.39882375,1,1
251,"2915 WESTSIDE DR,DURANT,OK,74701-2028",1.0,0.0,0.0,34.01841067,-96.39161819,1,1
252,"3 E MACARTHUR ST,SHAWNEE,OK,74804-2141",2.0,0.0,0.0,35.36168552,-96.92324999,1,1
253,"300 N ASPEN AVE,BROKEN ARROW,OK,74012-2205",4.0,0.0,0.0,36.05493599,-95.81534701,1,1
254,"300 N MARTIN LUTHER KING AVE,COYLE,OK,73027",1.0,0.0,0.0,35.94421026,-97.25190198,1,1
255,"3000 N GRAND BLVD,OKLAHOMA CITY,OK,73107-1818",1.0,0.0,0.0,35.49911394,-97.58027926,1,1
256,"3000 SW 104TH ST  STE 5,OKLAHOMA CITY,OK,73159-7041",1.0,0.0,0.0,35.36305389,-97.56779168,1,1
257,"3000 SW 104TH ST STE 5,OKLAHOMA CITY,OK,73159-7041",1.0,0.0,0.0,35.36305067,-97.56781364,1,1
258,"3003 EDGEWOOD TRL,SAPULPA,OK,74066-9325",1.0,0.0,0.0,36.00056453,-96.06386368,1,1
259,"301 S J T STITES ST,SALLISAW,OK,74955-9302",2.0,0.0,0.0,35.455599,-94.81409678,1,1
260,"3013 AZALEA PARK DR,MUSKOGEE,OK,74401-2285",0.0,0.0,1.0,35.76882444,-95.4000339,1,1
261,"302 S HAYES AVE,WAGONER,OK,74467-5551",1.0,0.0,0.0,35.95849256,-95.39383377,1,1
262,"30273 E STATE HIGHWAY 51,COWETA,OK,74429-7677",0.0,0.0,1.0,35.95189361,-95.61403816,1,1
263,"305 W CADDO ST,CLEVELAND,OK,74020-5211",1.0,0.0,0.0,36.30571545,-96.46739125,1,1
264,"3070 S MUSKOGEE AVE,TAHLEQUAH,OK,74464-5402",1.0,0.0,0.0,35.8805518,-94.97628687,1,1
265,"309 SW 59TH ST STE 105,OKLAHOMA CITY,OK,73109-8322",4.0,0.0,0.0,35.40626752,-97.51794053,1,1
266,"309 SW 59TH ST,OKLAHOMA CITY,OK,73109",1.0,0.0,0.0,35.40626752,-97.51794053,1,1
267,"310 E SHAWNTEL SMITH BLVD,MULDROW,OK,74948-4419",1.0,0.0,0.0,35.40276079,-94.59366521,1,1
268,"3100 S BERRY RD STE 110,NORMAN,OK,73072-7480",1.0,0.0,0.0,35.18544583,-97.46258023,1,1
269,"3101 ELK DR,MCALESTER,OK,74501-7606",1.0,0.0,0.0,34.89135725,-95.77175914,1,1
270,"3104 NW 23RD ST,OKLAHOMA CITY,OK,73107-1902",7.0,0.0,1.0,35.49312954,-97.57053402,1,1
271,"315 S UTICA AVE,TULSA,OK,74104-2203",1.0,0.0,0.0,36.15606067,-95.9670885,1,1
272,"3150 E 41ST ST STE 100,TULSA,OK,74105-3756",2.0,0.0,0.0,36.10428246,-95.9413708,1,1
273,"3150 E 41ST ST STE 108,TULSA,OK,74105-3758",1.0,0.0,0.0,36.10428246,-95.9413708,1,1
274,"317 S SARA RD,MUSTANG,OK,73064-4311",1.0,0.0,0.0,35.389089,-97.70686425,1,1
275,"318 MELVILLE DR,PAULS VALLEY,OK,73075-6631",1.0,0.0,0.0,34.7208524,-97.21455297,1,1
276,"31870 E STATE HIGHWAY 51,COWETA,OK,74429-7900",3.0,0.0,0.0,35.95175238,-95.61534674,1,1
277,"320 S 4TH ST,MCALESTER,OK,74501-5409",2.0,0.0,0.0,34.92737093,-95.76607132,1,1
278,"3200 E MAIN ST,CUSHING,OK,74023-3006",2.0,0.0,0.0,35.88203667,-96.74971938,1,1
279,"3201 W BROADWAY ST,MUSKOGEE,OK,74401-2132",2.0,0.0,0.0,35.75594855,-95.40262194,1,1
280,"321 N CLARENCE NASH BLVD,WATONGA,OK,73772-3605",1.0,0.0,0.0,35.847234,-98.41928441,1,1
281,"322 SE 11TH ST,ANADARKO,OK,73005-4446",1.0,0.0,0.0,35.07170057,-98.22730842,1,1
282,"3225 TEAKWOOD LN,EDMOND,OK,73013-3721",1.0,0.0,0.0,35.62394416,-97.49425377,1,1
283,"3232 E 31ST ST,TULSA,OK,74105-2442",0.0,0.0,2.0,36.11878148,-95.94135,1,1
284,"3247 S HARVARD AVE,TULSA,OK,74135-4447",1.0,0.0,0.0,36.115326,-95.94022645,1,1
285,"327 W SOUTH ST,NEWKIRK,OK,74647-6013",2.0,0.0,0.0,36.87582146,-97.05786325,1,1
286,"329 W CARL ALBERT PKWY,MCALESTER,OK,74501-4418",0.0,1.0,0.0,34.93444589,-95.77404384,1,1
287,"3290 TRI CITY DR,NEWCASTLE,OK,73065-6324",1.0,0.0,0.0,35.29179296,-97.60504502,1,1
288,"3300 CHANDLER RD STE 111,MUSKOGEE,OK,74403-4909",2.0,0.0,0.0,35.74066343,-95.331681,1,1
289,"3300 CHANDLER RD,MUSKOGEE,OK,74403-4957",0.0,0.0,0.5,35.74066343,-95.33168099,1,1
290,"3304 NW 23RD ST,OKLAHOMA CITY,OK,73107-1802",1.0,0.0,0.0,35.49318452,-97.57509261,1,1
291,"3305 E 45TH ST,TULSA,OK,74135-2901",0.0,0.0,1.0,36.09960048,-95.93983586,1,1
292,"3315 NW 63RD ST,OKLAHOMA CITY,OK,73116-3791",1.0,0.0,0.0,35.53672144,-97.57542074,1,1
293,"3345 S HARVARD AVE STE 103,TULSA,OK,74135-1800",0.0,0.0,1.0,36.11385916,-95.94021998,1,1
294,"340 W VANDAMENT AVE,YUKON,OK,73099-4640",1.0,0.0,0.0,35.49337248,-97.74805049,1,1
295,"3441 W ROCK CREEK RD,NORMAN,OK,73072-2435",1.0,0.0,0.0,35.24757374,-97.49196342,1,1
296,"3451 W KENOSHA ST,BROKEN ARROW,OK,74012-8949",1.0,0.0,0.0,36.06083652,-95.83141033,1,1
297,"3503 CHANDLER RD,MUSKOGEE,OK,74403-4911",1.0,0.0,0.0,35.74051357,-95.32632135,1,1
298,"3518 CHANDLER RD,MUSKOGEE,OK,74403-4910",0.5,0.0,0.0,35.74065345,-95.32573718,1,1
299,"3560 R C LUTTRELL DR,NORMAN,OK,73072",1.0,0.0,0.0,35.25860699,-97.49340764,1,1
300,"3560 RC LUTTRELL DR,NORMAN,OK,73072-9702",0.0,0.0,1.0,35.25860699,-97.49340764,1,1
301,"3600 W TECUMSEH RD,NORMAN,OK,73072-1840",1.0,0.0,0.0,35.26189051,-97.49496213,1,1
302,"3613 NW 56TH ST STE 105,OKLAHOMA CITY,OK,73112-4520",0.0,1.0,0.0,35.52828249,-97.58119274,1,1
303,"3617 W GORE BLVD STE B,LAWTON,OK,73505-6373",1.0,0.0,0.0,34.60893946,-98.4386025,1,1
304,"3621 NW 63RD ST STE A,OKLAHOMA CITY,OK,73116-2041",0.0,0.0,1.0,35.53682647,-97.58219252,1,1
305,"3621 NW 63RD ST STE B,OKLAHOMA CITY,OK,73116-2041",0.0,0.0,1.0,35.53682647,-97.58219252,1,1
306,"3627 NW EXPRESSWAY,OKLAHOMA CITY,OK,73112-4405",0.0,0.0,1.0,35.53382602,-97.58280487,1,1
307,"3701 N KICKAPOO AVE,SHAWNEE,OK,74804-1703",1.0,0.0,0.0,35.367426,-96.9297773,1,1
308,"3811 E 51ST ST,TULSA,OK,74135-3603",1.0,0.0,0.0,36.08984253,-95.93452366,1,1
309,"3902 S 113TH WEST AVE,SAND SPRINGS,OK,74063-2724",3.0,0.0,0.0,36.10699091,-96.11899649,1,1
310,"3905 S STATE HIGHWAY 97 STE 100,SAND SPRINGS,OK,74063-6670",0.25,0.0,0.0,36.10612619,-96.11715762,1,1
311,"3919 N MACARTHUR BLVD,WARR ACRES,OK,73122-2005",4.0,0.0,0.0,35.51057043,-97.61898809,1,1
312,"395200 W 2900 RD,OCHELATA,OK,74051-2463",1.0,0.0,0.0,36.59764444,-95.97131204,1,1
313,"400  FAIRVIEW AVE  STE 2,PONCA CITY,OK,74601-1910",1.0,0.0,0.0,36.72588577,-97.06957674,1,1
314,"400 FAIRVIEW AVE STE 1,PONCA CITY,OK,74601-1910",1.0,0.0,0.0,36.72588577,-97.06957674,1,1
315,"400 MAIN ST,BROKEN BOW,OK,74728-2982",1.0,0.0,0.0,34.03052966,-94.73707083,1,1
316,"401 FOREST ST,PAWNEE,OK,74058-3048",1.0,0.0,0.0,36.33562753,-96.80100283,1,1
317,"401 S UTICA AVE STE A,TULSA,OK,74104-2638",2.0,0.0,0.0,36.155475,-95.96707596,1,1
318,"401 W MAIN ST,STROUD,OK,74079-3613",1.0,0.0,0.0,35.74909052,-96.65789383,1,1
319,"402 S OAKWOOD RD STE A,ENID,OK,73703-4945",0.0,0.0,1.0,36.39364149,-97.92670049,1,1
320,"403 W BROADWAY AVE,MCLOUD,OK,74851-8266",1.0,0.0,0.0,35.43601045,-97.09222033,1,1
321,"404 S MUSTANG RD,YUKON,OK,73099-6754",2.0,0.0,0.0,35.462466,-97.72469722,1,1
322,"405 S OKLAHOMA AVE,CHEROKEE,OK,73728-2545",2.0,0.0,0.0,36.75459288,-98.35843768,1,1
323,"405 W CLAY AVE,COALGATE,OK,74538-2030",1.0,0.0,0.0,34.53856105,-96.22309406,1,1
324,"407 E CHEROKEE AVE,ENID,OK,73701-5814",1.0,0.0,0.0,36.39421898,-97.87325734,1,1
325,"409 E MAIN ST,LOCUST GROVE,OK,74352-5116",2.0,0.0,0.0,36.20000545,-95.16494224,1,1
326,"411 N BRYANT AVE,EDMOND,OK,73034-3207",1.0,0.0,0.0,35.6590035,-97.46049942,1,1
327,"4125 W OWEN K GARRIOTT RD,ENID,OK,73703-4820",5.0,0.0,0.0,36.39063051,-97.92934208,1,1
328,"415 E HARTFORD AVE,PONCA CITY,OK,74601-1512",1.0,0.0,0.0,36.72420645,-97.07991223,1,1
329,"416 S MUSTANG RD STE A,YUKON,OK,73099-7314",1.0,0.0,0.0,35.462466,-97.72469625,1,1
330,"417 E DON TYLER AVE,DEWEY,OK,74029-2315",1.0,0.0,0.0,36.79920049,-95.93619316,1,1
331,"420 24TH AVE SW,NORMAN,OK,73069-5110",3.0,0.0,0.0,35.21227477,-97.47673364,1,1
332,"421 STONE WOOD DR,BROKEN ARROW,OK,74012-1026",0.0,0.0,1.0,36.07417467,-95.79537011,1,1
333,"423 N VAN BUREN ST,ENID,OK,73703-4454",1.0,0.0,0.0,36.40030443,-97.88993658,1,1
334,"425 W TRUMAN PL,PURCELL,OK,73080-3209",2.0,0.0,0.0,35.01743046,-97.36534809999999,1,1
335,"425 W WASHINGTON ST,BROKEN ARROW,OK,74012-6450",1.0,1.0,0.0,36.03187931,-95.79471546,1,1
336,"427 W DOOLIN AVE,BLACKWELL,OK,74631-1602",1.0,0.0,0.0,36.81147947,-97.28842033,1,1
337,"430 W 6TH ST,CHELSEA,OK,74016-1640",1.0,0.0,0.0,36.53691274,-95.43467657,1,1
338,"4329 S PEORIA AVE STE 335,TULSA,OK,74105-3936",2.0,0.0,0.0,36.09975839,-95.97564558,1,1
339,"4341 SE 15TH ST,DEL CITY,OK,73115-3001",2.0,0.0,0.0,35.44981917,-97.44002282,1,1
340,"440 N PORTLAND AVE STE 1000,OKLAHOMA CITY,OK,73107-6110",1.0,0.0,0.0,35.47009061,-97.58327507,1,1
341,"4404 W HOUSTON ST,BROKEN ARROW,OK,74012-4645",0.0,1.0,0.0,36.04642323,-95.84505129,1,1
342,"4409 N KICKAPOO AVE,SHAWNEE,OK,74804-1206",0.5,0.0,0.0,35.37569674,-96.92975777,1,1
343,"4409 N KICKAPOO ST,SHAWNEE,OK,74804",1.0,0.0,0.0,35.37569674,-96.92975777,1,1
344,"4417 W GORE BLVD  STE 1 STE 11,LAWTON,OK,73505-5978",1.0,0.0,0.0,34.60898346,-98.44699105,1,1
345,"4417 W GORE BLVD STE 11,LAWTON,OK,73505-5978",0.0,2.0,0.0,34.60899246,-98.44750316,1,1
346,"4440 NW EXPRESSWAY STE A,OKLAHOMA CITY,OK,73116-1533",1.0,0.0,0.0,35.54092804,-97.59968478,1,1
347,"4505 S PENNSYLVANIA AVE,OKLAHOMA CITY,OK,73119-4902",1.0,0.0,0.0,35.42041716,-97.54798669,1,1
348,"4618 N FRANKFORT AVE,TULSA,OK,74126-3217",0.5,0.0,0.0,36.221175,-95.98903409,1,1
349,"47 NE 23RD ST,OKLAHOMA CITY,OK,73105-3001",2.0,0.0,0.0,35.49327649,-97.51022355,1,1
350,"47 W 2ND ST,BEAVER,OK,73932",1.0,0.0,0.0,36.81613452,-100.5206898,1,1
351,"4715 E 91ST ST STE 101,TULSA,OK,74137-2840",1.0,0.0,0.0,36.03189346,-95.92421973,1,1
352,"4715 E 91ST ST STE 110,TULSA,OK,74137-2847",1.0,0.0,0.0,36.03189346,-95.92421973,1,1
353,"4716 W URBANA ST,BROKEN ARROW,OK,74012-5997",0.0,0.0,5.0,36.03432153,-95.8504635,1,1
354,"471688 HIGHWAY 51,STILWELL,OK,74960-4490",1.0,0.0,0.0,35.90686810000001,-94.82989903,1,1
355,"4770 S HARVARD AVE,TULSA,OK,74135-3024",1.0,0.0,0.0,36.093015,-95.94018501,1,1
356,"4800 E HIGHWAY 37,TUTTLE,OK,73089-8723",1.0,0.0,0.0,35.29089054,-97.72806149,1,1
357,"4824 S UNION AVE,TULSA,OK,74107-7838",1.0,0.0,0.0,36.09316699,-96.01173791,1,1
358,"4913 W RENO AVE,OKLAHOMA CITY,OK,73127-6339",4.0,0.0,0.0,35.46445745,-97.60770008,1,1
359,"4955 S PEORIA AVE,TULSA,OK,74105-4629",4.0,0.0,0.0,36.09174401,-95.97568172,1,1
360,"5 W DAWES AVE,BIXBY,OK,74008-4422",2.0,0.0,0.0,35.94240246,-95.88349366,1,1
361,"500 E 8TH ST,OKMULGEE,OK,74447-5503",2.0,0.0,0.0,35.62133552,-95.96617208,1,1
362,"500 N EASTERN AVE,MOORE,OK,73160-5851",2.0,0.0,0.0,35.343009,-97.47682777,1,1
363,"500 N MAIN ST,HENNESSEY,OK,73742-1019",1.0,0.0,0.0,36.11440841,-97.89894497,1,1
364,"500 N WALKER AVE STE E500,OKLAHOMA CITY,OK,73102-1608",1.0,0.0,0.0,35.47232197,-97.52125726,1,1
365,"500 S MAIN ST,MILLERTON,OK,74750",1.0,0.0,0.0,33.98130666,-95.0138085,1,1
366,"500 SW 44TH ST,OKLAHOMA CITY,OK,73109-3540",1.0,0.0,0.0,35.42073149,-97.52187294,1,1
367,"500 W MAIN ST # 200,NORMAN,OK,73069-7061",1.0,0.0,0.0,35.21835148,-97.44973199,1,1
368,"501 S MUSTANG RD STE K,YUKON,OK,73099-6854",1.0,0.0,0.0,35.4612158,-97.72476524,1,1
369,"5010 E 68TH ST STE 200,TULSA,OK,74136-3305",0.0,0.0,1.0,36.06451549,-95.92053299,1,1
370,"502 W CHEROKEE AVE,SALLISAW,OK,74955-4212",2.0,0.0,0.0,35.46010449,-94.79526035,1,1
371,"503 N 14TH ST,PONCA CITY,OK,74601-4655",3.0,0.0,0.0,36.70763547,-97.06726179,1,1
372,"5031 S 33RD WEST AVE,TULSA,OK,74107-7409",1.0,0.0,0.0,36.09050358,-96.02952752,1,1
373,"504 E CHEROKEE AVE,SALLISAW,OK,74955-4842",2.0,0.0,0.0,35.46078756,-94.78475038,1,1
374,"504 S LYNN RIGGS BLVD # 100,CLAREMORE,OK,74017-7814",1.0,0.0,0.0,36.30791549,-95.61898109,1,1
375,"504 SHAWNEE MALL DR,SHAWNEE,OK,74804-1317",0.0,0.0,1.0,35.38537443,-96.92817841,1,1
376,"504A S LYNN RIGGS BLVD # 100,CLAREMORE,OK,74017-7814",1.0,0.0,0.0,36.30791549,-95.61898109,1,1
377,"508 W VANDAMENT AVE STE 200,YUKON,OK,73099-4666",0.0,0.0,1.0,35.49336848,-97.75036349,1,1
378,"51 GOODER SIMPSON BLVD STE A,PIEDMONT,OK,73078-9237",1.0,0.0,0.0,35.65048451,-97.74356399,1,1
379,"510 S DUCK ST,STILLWATER,OK,74074-4051",5.0,0.0,0.0,36.11623595,-97.06274642,1,1
380,"5100 N BROOKLINE AVE STE 870,OKLAHOMA CITY,OK,73112-3603",1.0,0.0,0.0,35.52301936,-97.5678592,1,1
381,"5113 SE 15TH ST,DEL CITY,OK,73115-3952",1.0,0.0,0.0,35.44969451,-97.42772152,1,1
382,"518 W I 240 SERVICE RD,OKLAHOMA CITY,OK,73139-4400",2.0,0.0,0.0,35.39103054,-97.52158297,1,1
383,"519 S 30TH ST,CLINTON,OK,73601-3632",1.0,0.0,0.0,35.51102958,-98.9971677,1,1
384,"5222 N PORTLAND AVE,OKLAHOMA CITY,OK,73112-2070",3.0,0.0,0.0,35.52394597,-97.58338872,1,1
385,"5225 SE 15TH ST,DEL CITY,OK,73115-4513",1.0,0.0,0.0,35.44967949999999,-97.42620035,1,1
386,"527 W 3RD ST,KONAWA,OK,74849-1415",1.0,0.0,0.0,34.96056794,-96.76073883,1,1
387,"530 PLAZA CT,SAND SPRINGS,OK,74063-7915",1.0,0.0,0.0,36.13925178,-96.10272467,1,1
388,"5304 S HARVARD AVE,TULSA,OK,74135-3817",0.0,0.0,3.0,36.085923,-95.94018548,1,1
389,"5314 NW CACHE RD,LAWTON,OK,73505-3313",2.0,0.0,0.0,34.62338052,-98.46056508,1,1
390,"5401 TAYLOR DR # 1800,BARTLESVILLE,OK,74006-7827",1.0,0.0,0.0,36.73935152,-95.91681086,1,1
391,"5401 TAYLOR DR,BARTLESVILLE,OK,74006-7827",1.0,0.0,0.0,36.73935152,-95.91681086,1,1
392,"5405 SW DAUN,LAWTON,OK,73505-8508",1.0,0.0,2.0,34.5926505,-98.46087202,1,1
393,"550 S PEORIA AVE,TULSA,OK,74120-3820",2.0,0.0,0.0,36.15323302,-95.97563806,1,1
394,"5500 NW EXPRESSWAY STE B,WARR ACRES,OK,73132-5218",1.0,0.0,0.0,35.54550921,-97.61014262,1,1
395,"5510 S MEMORIAL DR STE D,TULSA,OK,74145-9011",1.0,0.0,0.0,36.084734999999995,-95.88664702,1,1
396,"5524 NW 39TH ST,WARR ACRES,OK,73122-2203",1.0,0.0,0.0,35.51116247,-97.61135399,1,1
397,"5602 S MEMORIAL DR,TULSA,OK,74145-9016",1.0,0.0,0.0,36.08394575,-95.88664748,1,1
398,"5676 W SKELLY DR STE A,TULSA,OK,74107-9134",1.0,0.0,0.0,36.07993575,-96.05006617,1,1
399,"5676 W SKELLY DR STE B,TULSA,OK,74107-9134",0.0,0.0,1.0,36.07993575,-96.05006617,1,1
400,"5691 TINKER DIAGONAL,MIDWEST CITY,OK,73110-2821",4.0,0.0,0.0,35.44406591,-97.42093527,1,1
401,"5701 N PORTLAND AVE STE 121,OKLAHOMA CITY,OK,73112-1670",1.0,0.0,0.0,35.52830442,-97.58352042,1,1
402,"5818 NW 50TH ST STE 100,OKLAHOMA CITY,OK,73122-5121",3.0,0.0,0.0,35.52225553,-97.61643097,1,1
403,"5920 N MAY AVE,OKLAHOMA CITY,OK,73112-4277",3.0,0.0,0.0,35.53147121,-97.56563507,1,1
404,"6 S ROWE ST,PRYOR,OK,74361-4623",3.0,0.0,0.0,36.30650778,-95.3147209,1,1
405,"601 E BROADWAY ST,CUSHING,OK,74023-3432",1.0,0.0,0.0,35.97992051,-96.76619083,1,1
406,"601 NW 23RD ST # 200,OKLAHOMA CITY,OK,73103-1415",1.0,0.0,0.0,35.49334278,-97.52260364,1,1
407,"601 W 2ND ST,WATONGA,OK,73772-2601",1.0,0.0,0.0,35.84655452,-98.41953108,1,1
408,"602 S UTICA AVE,TULSA,OK,74104-2641",5.0,1.0,0.0,36.15177599,-95.96715401,1,1
409,"604 S JEFFERSON ST,ENID,OK,73701-5529",0.0,0.0,1.0,36.39077548,-97.8840721,1,1
410,"607 S ORCHARD ST,STILLWATER,OK,74074-4218",0.0,0.0,1.0,36.11548841,-97.07941798,1,1
411,"610 E 24TH ST,TISHOMINGO,OK,73460-3245",3.0,0.0,0.0,34.22321635,-96.67430282,1,1
412,"611 S GEORGE NIGH EXPY,MCALESTER,OK,74501-7277",4.0,0.0,0.0,34.91514033,-95.74564652,1,1
413,"6130 E 61ST ST,TULSA,OK,74136-2117",1.0,0.0,0.0,36.07536252,-95.90729331,1,1
414,"6143 E 91ST ST,TULSA,OK,74137-3104",0.0,0.0,1.0,36.03188253,-95.90608349,1,1
415,"6144 S LEWIS AVE,TULSA,OK,74136-1062",1.0,0.0,0.0,36.07370172,-95.95799804,1,1
416,"617 E TOM STAFFORD ST,WEATHERFORD,OK,73096-5431",1.0,0.0,0.0,35.52818152,-98.70019183,1,1
417,"6217 S WESTERN AVE,OKLAHOMA CITY,OK,73139-1605",6.0,0.0,0.0,35.40361597,-97.53020768,1,1
418,"6301 NW 23RD ST,BETHANY,OK,73008-5931",1.0,0.0,0.0,35.49332649,-97.62535341,1,1
419,"640 24TH AVE SW,NORMAN,OK,73069-3913",1.0,0.0,0.0,35.20988966,-97.47669446,1,1
420,"6416 S ELM PL,BROKEN ARROW,OK,74011-4819",2.0,0.0,0.0,35.99022083,-95.79746752,1,1
421,"6565 S YALE AVE STE 401,TULSA,OK,74136-8305",0.0,1.0,0.0,36.069146999999994,-95.92205846,1,1
422,"6565 S YALE AVE STE 510,TULSA,OK,74136-8306",0.0,0.0,1.0,36.069146999999994,-95.92205846,1,1
423,"6616 S WESTERN AVE,OKLAHOMA CITY,OK,73139-1708",1.0,0.0,0.0,35.399745,-97.53011778,1,1
424,"6632 S MEMORIAL DR,TULSA,OK,74133-2050",1.0,0.0,0.0,36.06625179,-95.88656141,1,1
425,"6634 S MEMORIAL DR,TULSA,OK,74133-2050",4.0,0.0,0.0,36.06623599,-95.88656141,1,1
426,"6800 S WESTERN AVE,OKLAHOMA CITY,OK,73139-1809",1.0,0.0,0.0,35.39809813,-97.53011776,1,1
427,"6801 E ADMIRAL PL,TULSA,OK,74115-8707",1.0,0.0,0.0,36.16076448,-95.90028192,1,1
428,"6846 S CANTON AVE STE 135,TULSA,OK,74136-3434",1.0,0.0,0.0,36.06321591,-95.91877702,1,1
429,"6907 W BOEING DR,MIDWEST CITY,OK,73110-3011",1.0,0.0,0.0,35.43669449,-97.40735991,1,1
430,"698 WESTSIDE DR STE 104,DURANT,OK,74701-3085",0.0,0.0,1.0,34.00177682,-96.40329248,1,1
431,"698 WESTSIDE DR STE B,DURANT,OK,74701-3084",0.0,0.0,1.0,34.00177682,-96.40329248,1,1
432,"7 CEDAR SPRINGS DR,TUTTLE,OK,73089-7929",0.5,0.0,0.0,35.29073971,-97.7191562,1,1
433,"700 CHANDLER RD,PURCELL,OK,73080-5000",1.0,0.0,0.0,34.98926991,-97.38165548,1,1
434,"700 S MUSTANG RD,YUKON,OK,73099-6777",1.5,0.0,0.0,35.45837919,-97.72467779,1,1
435,"7000 NW EXPRESSWAY STE F,OKLAHOMA CITY,OK,73132-3509",1.0,0.0,0.0,35.55723209,-97.63693224,1,1
436,"701 SHEDECK PKWY,YUKON,OK,73099-6021",6.0,0.0,0.0,35.48340845,-97.75656523,1,1
437,"701 W MAIN ST,NORMAN,OK,73069-6918",4.0,0.0,0.0,35.21840349,-97.45334074,1,1
438,"701 W WATTS ST,EL RENO,OK,73036-4458",1.0,0.0,0.0,35.52953848,-97.960734,1,1
439,"703 S OKLAHOMA AVE,LAVERNE,OK,73848",1.0,0.0,0.0,36.70410201,-99.89494472,1,1
440,"704 S 2ND ST,STILWELL,OK,74960-4820",1.0,0.0,0.0,35.80763856,-94.6292508,1,1
441,"708 CEDAR ST,PERRY,OK,73077-6421",1.0,0.0,0.0,36.28601853,-97.28932016,1,1
442,"709 S BROADWAY,EDMOND,OK,73034-3936",1.0,0.0,0.0,35.64784945,-97.48236729,1,1
443,"7100 SE 15TH ST,MIDWEST CITY,OK,73110-5234",1.0,0.0,0.0,35.44961448,-97.40164016,1,1
444,"7104 S SHERIDAN RD STE 8,TULSA,OK,74133-2765",2.0,0.0,0.0,36.059922,-95.90428601,1,1
445,"7130 W HEFNER RD,OKLAHOMA CITY,OK,73162-4502",2.0,0.0,0.0,35.5800655,-97.6402521,1,1
446,"716 S HIGHWAY 77 STE A,NEWKIRK,OK,74647-7009",1.0,0.0,0.0,36.87354025,-97.06715562,1,1
447,"716 S HIGHWAY 77,NEWKIRK,OK,74647-7009",2.0,0.0,0.0,36.87354025,-97.06715562,1,1
448,"717 NE 36TH ST,OKLAHOMA CITY,OK,73105-7203",1.0,0.0,0.0,35.50778945,-97.50018229999999,1,1
449,"720 BRYAN DR,DURANT,OK,74701-7032",1.0,0.0,0.0,34.0037969,-96.39982501,1,1
450,"720 S THORNTON ST,VIAN,OK,74962-5026",1.0,0.0,0.0,35.49239979999999,-94.97153639,1,1
451,"7200 S PENNSYLVANIA AVE STE B,OKLAHOMA CITY,OK,73159-3336",1.0,0.0,0.0,35.3948859,-97.5476968,1,1
452,"7233 N MAY AVE,OKLAHOMA CITY,OK,73116-3243",1.0,0.0,0.0,35.54392207,-97.56571578,1,1
453,"725 NW 67TH ST,LAWTON,OK,73505-4202",2.0,0.0,0.0,34.61920158,-98.47474057,1,1
454,"725 W MAIN ST,JENKS,OK,74037-3518",1.0,0.0,0.0,36.02319177,-95.9787821,1,1
455,"7300 S WESTERN AVE,OKLAHOMA CITY,OK,73139-2002",1.5,0.0,0.0,35.39359568,-97.53007047,1,1
456,"7316 E 91ST ST,TULSA,OK,74133-6016",0.0,0.0,1.0,36.03183147,-95.89350149,1,1
457,"732 W NEW ORLEANS ST STE 132,BROKEN ARROW,OK,74011-1845",1.0,0.0,0.0,36.01744650000001,-95.80037408,1,1
458,"7322 E 91ST ST,TULSA,OK,74133-6016",0.0,0.0,1.0,36.03178931,-95.89384998,1,1
459,"7640 NW EXPRESSWAY STE 207,OKLAHOMA CITY,OK,73132-1622",1.0,0.0,0.0,35.56250905,-97.64899279,1,1
460,"7705 E 81ST ST,TULSA,OK,74133-4200",0.0,0.0,1.0,36.04639652,-95.89063083,1,1
461,"7715 E 91ST ST STE A,TULSA,OK,74133-6060",1.0,0.0,0.0,36.0318865,-95.889042,1,1
462,"7801 S WESTERN AVE STE 101,OKLAHOMA CITY,OK,73139-2411",3.0,0.0,0.0,35.38833325,-97.53017467,1,1
463,"7901 S SHERIDAN RD UNIT A,TULSA,OK,74133-8902",1.0,0.0,0.0,36.04811483,-95.90420001,1,1
464,"800 12TH AVE NW,ARDMORE,OK,73401-5708",1.0,0.0,0.0,34.18690855,-97.13953644,1,1
465,"800 W FORREST AVE,EUFAULA,OK,74432-3249",2.0,0.0,0.0,35.282721,-95.59004547,1,1
466,"801 24TH AVE NW,NORMAN,OK,73069-6313",2.0,0.0,0.0,35.22855855,-97.47962065,1,1
467,"801 S LEE ST STE A,FORT GIBSON,OK,74434-8710",1.0,0.0,0.0,35.78979922,-95.24597632,1,1
468,"801 WALL ST,NORMAN,OK,73069-6303",1.0,0.0,0.0,35.227638,-97.48161788,1,1
469,"8011 S SHERIDAN RD UNIT G,TULSA,OK,74133-8950",0.5,0.0,0.0,36.04728153,-95.90416421,1,1
470,"802 S LEE ST,FORT GIBSON,OK,74434-8709",1.0,0.0,0.0,35.79068649,-95.24641926,1,1
471,"803 N MONTE VISTA ST,ADA,OK,74820-7711",0.0,0.0,1.0,34.78251625,-96.63484592,1,1
472,"804 S 1ST ST STE C,MADILL,OK,73446-3846",1.0,0.0,0.0,34.08121499,-96.76573288,1,1
473,"806 N YORK ST,MUSKOGEE,OK,74403-3863",0.0,1.0,0.0,35.7502316,-95.34034549,1,1
474,"806 S 8TH ST,MCLOUD,OK,74851-8628",1.0,0.0,0.0,35.42629485,-97.09685904,1,1
475,"806 S PINE ST,STILLWATER,OK,74074-4349",2.0,0.0,0.0,36.11283255,-97.07714744,1,1
476,"809 E VETERANS MEMORIAL HWY,BLANCHARD,OK,73010-9215",1.0,0.0,0.0,35.14100757,-97.64965531,1,1
477,"809 SW 89TH ST STE A,OKLAHOMA CITY,OK,73139-9300",0.0,1.0,0.0,35.37717948,-97.52725366,1,1
478,"810 N YORK ST,MUSKOGEE,OK,74403-3863",1.0,0.0,0.0,35.75026319,-95.34034582,1,1
479,"810 W GARY BLVD,CLINTON,OK,73601-2720",2.0,0.0,0.0,35.51534447,-98.97030051,1,1
480,"8101 S WALKER AVE STE E,OKLAHOMA CITY,OK,73139-9406",0.0,0.0,1.0,35.385687,-97.52127471,1,1
481,"814 W GORE BLVD,LAWTON,OK,73501-3719",0.0,0.0,2.0,34.60862651,-98.40125249,1,1
482,"816 S MUSTANG RD,YUKON,OK,73099-6767",0.0,0.0,1.0,35.45726319,-97.72468028,1,1
483,"817 E 6TH ST,TISHOMINGO,OK,73460-1800",2.0,0.0,0.0,34.23449479,-96.66678003,1,1
484,"817 S ELM PL STE 102,BROKEN ARROW,OK,74012-5369",1.0,0.0,0.0,36.04410866,-95.79743848,1,1
485,"8194 E 111TH ST S,BIXBY,OK,74008-2421",1.0,0.0,0.0,36.00278747,-95.88459124,1,1
486,"820 ALLISON AVE,CHANDLER,OK,74834-3834",1.0,0.0,0.0,35.701794,-96.87947862,1,1
487,"820 S MUSTANG RD,YUKON,OK,73099-6767",3.0,0.0,0.0,35.45727219,-97.72467621,1,1
488,"821 24TH AVE NW,NORMAN,OK,73069-6313",1.0,0.0,0.0,35.22930686,-97.48032087,1,1
489,"8222 E 103RD ST STE 133,TULSA,OK,74133-7027",3.0,0.0,0.0,36.01369149,-95.88464091,1,1
490,"823 W CHICKASHA AVE,CHICKASHA,OK,73018-2307",1.0,0.0,0.0,35.05116752,-97.94338102,1,1
491,"828 A ST NW,MIAMI,OK,74354-4605",2.0,0.0,0.0,36.88448441,-94.87858812,1,1
492,"828 SW 66TH ST,OKLAHOMA CITY,OK,73139-4213",0.0,1.0,0.0,35.39944149,-97.5292028,1,1
493,"8283 S WALKER AVE STE A,OKLAHOMA CITY,OK,73139-9414",1.0,0.0,0.0,35.383887,-97.52127417,1,1
494,"8301 S WALKER AVE STE 101,OKLAHOMA CITY,OK,73139-9416",0.0,0.0,2.0,35.383284,-97.52127575,1,1
495,"833 SW 119TH ST,OKLAHOMA CITY,OK,73170-6005",2.0,0.0,0.0,35.34884808,-97.52870331,1,1
496,"8383 S PENNSYLVANIA AVE,OKLAHOMA CITY,OK,73159-5249",1.0,0.0,0.0,35.38271198,-97.54789673,1,1
497,"8470 NW EXPRESSWAY,OKLAHOMA CITY,OK,73162-6009",1.0,0.0,0.0,35.56921779,-97.66448237,1,1
498,"8811 E RENO AVE STE 103,MIDWEST CITY,OK,73110-7726",1.0,0.0,0.0,35.46457495,-97.37215475,1,1
499,"900 E CHEROKEE ST,WAGONER,OK,74467-4718",1.0,0.0,0.0,35.9592705,-95.36692366,1,1
500,"900 E PROSPECT AVE STE 800,PONCA CITY,OK,74601-1600",0.0,0.0,1.0,36.73856251,-97.0726123,1,1
501,"900 E WILL ROGERS BLVD STE A,CLAREMORE,OK,74017-6307",2.0,0.0,0.0,36.30739347,-95.59891333,1,1
502,"900 N OWEN WALTERS BLVD,SALINA,OK,74365-5003",1.0,0.0,0.0,36.30149954,-95.14653919,1,1
503,"9002 E 62ND ST,TULSA,OK,74133-6371",0.0,0.0,1.0,36.07398127,-95.87591258,1,1
504,"9006 E 62ND ST STE A,TULSA,OK,74133-6371",3.0,0.0,0.0,36.07402554,-95.87546999,1,1
505,"901 HOSPITAL CIR,KINGFISHER,OK,73750-5006",1.0,0.0,0.0,35.81189908,-97.94473989,1,1
506,"901 SW 50TH ST,OKLAHOMA CITY,OK,73109-3801",1.0,0.0,0.0,35.41496345,-97.53057016,1,1
507,"902 E LINCOLN RD,IDABEL,OK,74745-7337",2.0,0.0,0.0,33.88084513,-94.81689224,1,1
508,"9063 E 31ST ST,TULSA,OK,74145-1703",1.0,0.0,0.0,36.11899249,-95.87220308,1,1
509,"9072 W HIGHWAY 70,DURANT,OK,74701-6513",2.0,0.0,0.0,33.99807691,-96.46307176,1,1
510,"9101 S TOLEDO AVE,TULSA,OK,74137-2719",0.0,0.0,0.5,36.03134702,-95.92723758,1,1
511,"911 RIDGE POINTE DR,SAPULPA,OK,74066-4463",1.0,0.0,0.0,35.98728449,-96.08809884,1,1
512,"9118 S TOLEDO AVE,TULSA,OK,74137-2700",0.0,0.0,1.0,36.030767299999994,-95.9273735,1,1
513,"913 W MAPLE AVE,ENID,OK,73701-3869",1.0,0.0,0.0,36.39906558,-97.8896645,1,1
514,"916 SW 38TH ST STE A,LAWTON,OK,73505-7005",0.0,0.0,1.0,34.60049944,-98.43969908,1,1
515,"916 SW 38TH ST,LAWTON,OK,73505",0.0,0.0,1.0,34.60049944,-98.43969908,1,1
516,"920 N WASHINGTON ST,ARDMORE,OK,73401-6735",1.0,0.0,0.0,34.18244495,-97.12464007,1,1
517,"920 S MURPHY ST APT 12302,STILLWATER,OK,74074-1767",1.0,0.0,0.0,36.11129812,-97.11639993,1,1
518,"9202 S PENNSYLVANIA AVE,OKLAHOMA CITY,OK,73159-6902",2.5,0.0,0.0,35.37501358,-97.54778926,1,1
519,"925 W BROADWAY AVE,SULPHUR,OK,73086-4409",2.0,0.0,0.0,34.50639949,-96.97938051,1,1
520,"930 SW 107TH ST STE B,OKLAHOMA CITY,OK,73170-5249",1.0,0.0,0.0,35.35922642,-97.53260566,1,1
521,"930 SW 107TH ST,OKLAHOMA CITY,OK,73170-5244",1.0,0.0,0.0,35.35922642,-97.53260566,1,1
522,"9404 S ELWOOD AVE,JENKS,OK,74037-2317",1.0,0.0,0.0,36.02658519,-95.99379702,1,1
523,"9405 N PENN AVE,OKLAHOMA CITY,OK,73120",2.0,0.0,0.0,35.56570766,-97.54931908,1,1
524,"9405 N PENNSYLVANIA PL,OKLAHOMA CITY,OK,73120",1.0,0.0,0.0,35.56451031,-97.54957108,1,1
525,"9405 N PENNSYLVANIA PL,OKLAHOMA CITY,OK,73120-3801",2.0,0.0,0.0,35.56451031,-97.54957108,1,1
526,"9721 S PENNSYLVANIA AVE,OKLAHOMA CITY,OK,73159-6900",0.0,0.0,1.0,35.37040466,-97.5477857,1,1
527,"9729 E 79TH ST,TULSA,OK,74133-4566",1.0,0.0,0.0,36.05004745,-95.8647608,1,1
528,"9801 S PENNSYLVANIA AVE,OKLAHOMA CITY,OK,73159-6925",1.0,2.0,0.0,35.36998255,-97.54778719,1,1
529,"9840 E 81ST ST STE 100,TULSA,OK,74133-4583",1.0,0.0,0.0,36.04633896,-95.86630858,1,1
530,"9908 E 21ST ST,TULSA,OK,74129-1620",4.166666666666666,0.0,0.0,36.13335422,-95.86576833,1,1
531,"BUSINESS 270,HOLDENVILLE,OK,74848",1.0,0.0,1.0,35.07409294,-96.4060515,1,1
532,"OK-56,WEWOKA,OK,74884",4.333333333333333,0.0,0.0,35.18222672,-96.49162826,1,1
533,"PO BOX 609,SHATTUCK,OK,73858-0609",1.0,0.0,0.0,36.253634999999996,-99.88565299,1,1
