idx,BOD_Home_addr,general,pediatric,specialist,CensusCountyFips,Latitude,Longitude,med_indicator,chip_indicator
0,"#1 PARK DRIVE, SUITE D,HOLIDAY ISLAND,AR,72631.0",1,0,0,15,36.45310538,-93.72111263,0,0
1,"#10 HERITAGE PARK CIRCLE,NORTH LITTLE ROCK,AR,72116.0",1,0,0,119,34.79273558,-92.23761452,0,0
2,"#3 TEMPLETON DR.,CABOT,AR,72023.0",1,0,0,85,34.95658284,-92.01004812,0,0
3,"#4 SUGAR CREEK RD.,NORTH LITTLE ROCK,AR,72116.0",0,0,1,119,34.80455517,-92.24244164,0,0
4,"#5 OFFICE PARK, SUITE #104,LITTLE ROCK,AR,72211.0",0,0,1,119,34.75064069,-92.41709215,0,0
5,"#7 AVENTURA WAY,HOT SPRINGS VILLAGE,AR,71909.0",1,0,0,51,34.61941483,-92.89120946,0,0
6,"#8 HOSPITAL CIRCLE,BATESVILLE,AR,72501.0",1,0,0,63,35.7930104,-91.65536336,0,0
7,"#8 TEN TEE CIRCLE,MAUMELLE,AR,72113.0",1,0,0,119,34.84201699,-92.42028742,0,0
8,"10 GLENLEIGH DR.,LITTLE ROCK,AR,72227.0",1,0,0,119,34.78268754,-92.37236799,0,0
9,"10 GLENLEIGH DRIVE,LITTLE ROCK,AR,72227.0",1,0,0,119,34.78268754,-92.37236799,0,0
10,"100 CHERRYWOOD LANE,CROSSETT,AR,71635.0",1,0,0,3,33.11483893,-91.96054598,0,0
11,"100 WALCO LN,MALVERN,AR,72104.0",1,0,0,59,34.34968587,-92.83580218,0,0
12,"1001 KENNEDY ST.,STAR CITY,AR,71667.0",1,0,0,79,33.94001121,-91.85790181,0,0
13,"1001 SE 28TH ST. SUITE 7,BENTONVILLE,AR,72712.0",1,0,0,7,36.34273525,-94.19744278,0,0
14,"1001 SE 28TH ST., SUITE 7,BENTONVILLE,AR,72712.0",1,0,0,7,36.34273525,-94.19744278,0,0
15,"1002 SUNSET VALLEY DR,MOUNTAIN VIEW,AR,72560.0",1,0,0,137,35.98864004,-92.09031089,0,0
16,"10025 WEST MARKHAM,LITTLE ROCK,AR,72205.0",1,0,0,119,34.75353852,-92.38491448,0,0
17,"1003 HORSEBARN RD.,ROGERS,AR,72758.0",3,0,0,7,36.32339454,-94.18872932,0,0
18,"1005 NW PROVENCE PL.,BENTONVILLE,AR,72712.0",1,0,0,7,36.40324374,-94.22138252,0,0
19,"1007 EAST 16TH ST,RUSSELLVILLE,AR,72801.0",1,0,0,115,35.26404282,-93.12208161,0,0
20,"101 CARNELIAN DR.,SHERWOOD,AR,72120.0",1,0,0,119,34.84290699,-92.20030276,0,0
21,"101 DENTISTA DRIVE,HOT SPRINGS,AR,71909.0",1,0,0,51,34.67817719,-92.99481314,0,0
22,"1010 N. MADISON,EL DORADO,AR,71730.0",1,0,0,139,33.22100819,-92.65987323,0,0
23,"1018 AIRPORT RD., SUITE 108,HOT SPRINGS,AR,71913.0",1,0,0,51,34.47767128,-93.11568351,0,0
24,"1018 CANTERBURY RD.,FAYETTEVILLE,AR,72701.0",1,0,0,143,36.0758654,-94.1159823,0,0
25,"102 BERRY STREET,LITTLE ROCK,AR,72205.0",0,0,1,119,34.75407868,-92.3065782,0,0
26,"10220 W. MARKHAM, SUITE 120,LITTLE ROCK,AR,72205.0",1,0,0,119,34.7538305,-92.38738146,0,0
27,"10220 WEST MARKHAM, SUITE 101,LITTLE ROCK,AR,72205.0",1,0,0,119,34.7538305,-92.38738146,0,0
28,"1025 SIDNEY ST.,BATESVILLE,AR,72501.0",1,0,0,63,35.76862467,-91.63685879,0,0
29,"103 CARLTON DRIVE,DUMAS,AR,71639.0",1,0,0,41,33.87767843,-91.48080859,0,0
30,"103 PLAZA CARMONA PLACE,HOT SPRINGS VILLAGE,AR,71909.0",1,0,0,51,34.68702149,-92.99803804,0,0
31,"10319 W. MARKHAM, SUITE 600,LITTLE ROCK,AR,72205.0",2,0,0,119,34.75371518,-92.38825249,0,0
32,"10319 WEST MARKHAM, STE. 100,LITTLE ROCK,AR,72205.0",1,0,0,119,34.75371518,-92.38825249,0,0
33,"10319 WEST MARKHAM, SUITE 200,LITTLE ROCK,AR,72205.0",0,0,1,119,34.75371518,-92.38825249,0,0
34,"10334 SHANNON HILLS DRIVE,SHANNON HILLS,AR,72103.0",1,0,0,125,34.62366924,-92.3950066,0,0
35,"104  COUNTRY OAK DR.,DARDANELLE,AR,72834.0",1,0,0,149,35.23727919,-93.18777247,0,0
36,"104 E. BOND ST.,WEST MEMPHIS,AR,72301.0",1,0,0,35,35.14814199,-90.18471458,0,0
37,"104 WEST GARLAND,MAGNOLIA,AR,71753.0",1,0,0,27,33.27285184,-93.24018355,0,0
38,"105 GEORGIAN ST.,HOT SPRINGS,AR,71901.0",1,0,0,51,34.4696723,-93.02852357,0,0
39,"105 W. 5TH ST.,EL DORADO,AR,71730.0",1,0,0,139,33.22210339,-92.66464394,0,0
40,"105 WEST 5TH,EL DORADO,AR,71730.0",1,0,0,139,33.22210339,-92.66464394,0,0
41,"1050 MORNINGSIDE DRIVE,CONWAY,AR,72034.0",1,0,0,45,35.09271514,-92.46639042,0,0
42,"10500 W. MARKHAM, #104,LITTLE ROCK,AR,72205.0",1,0,0,119,34.75388136,-92.38948071,0,0
43,"106 N LOCUST AVE,FAYETTEVILLE,AR,72701.0",1,0,0,143,36.0641213,-94.1628562,0,0
44,"106 W. MAIN, SUITE 212,EL DORADO,AR,71730.0",1,0,0,139,33.21195951,-92.66379613,0,0
45,"10660 KELLER ROAD,CENTERTON,AR,72719.0",1,0,0,7,36.37741235,-94.31001853,0,0
46,"10662 UNION STAR CHURCH RD,WEST FORK,AR,72774.0",1,0,0,143,35.89224689,-94.20495345,0,0
47,"10678 HWY 82,TEXARKANA,AR,71854.0",1,0,0,91,33.42878613,-93.89744552,0,0
48,"108 GLENMERE CT.,HOT SPRINGS,AR,71913.0",1,0,0,51,34.43704511,-93.00722326,0,0
49,"108 MARSEILLE DRIVE,MAUMELLE,AR,72113.0",1,0,0,119,34.84775375,-92.40290014,0,0
50,"108 SOUTH 10TH ST.,CABOT,AR,72012.0",1,0,0,145,35.0737149,-91.92727941,0,0
51,"10809 EXECUTIVE CENTER DR #100,LITTLE ROCK,AR,72202.0",1,0,0,119,34.73918971,-92.3945145,0,0
52,"10809 EXECUTIVE CENTER DR.,LITTLE ROCK,AR,72211.0",1,0,0,119,34.73918971,-92.3945145,0,0
53,"1088 NORTH HILLS RD.,BENTON,AR,72019.0",1,0,0,125,34.60367849,-92.58328476,0,0
54,"1099 WILBURN RD.,HEBER SPRINGS,AR,72543.0",1,0,0,23,35.49665258,-91.98211763,0,0
55,"1099 WILBURN ROAD,HEBER SPRINGS,AR,72543.0",1,0,0,23,35.49665258,-91.98211763,0,0
56,"11 OFFICE PARK DRIVE,LITTLE ROCK,AR,72211.0",1,0,0,119,34.74650269,-92.39694745,0,0
57,"11 WELLINGTON PARISH COVE,LITTLE ROCK,AR,72211.0",1,0,0,119,34.77039895,-92.44089963,0,0
58,"110 S. 20TH STREET,ROGERS,AR,72756.0",1,0,0,7,36.33325301,-94.14584078,0,0
59,"110 SOUTH INGLEWOOD,RUSSELLVILLE,AR,72801.0",1,0,0,115,35.28556086,-93.16480391,0,0
60,"1104 SW EDINBURGH AVE.,BENTONVILLE,AR,72712.0",1,0,0,7,36.32548532,-94.2247347,0,0
61,"1105 HWY. 64 EAST,WYNNE,AR,72396.0",1,0,0,37,35.24949922,-90.77096653,0,0
62,"1111 S. BOWMAN, SUITE B5,LITTLE ROCK,AR,72211.0",1,0,0,119,34.74346785,-92.40724939,0,0
63,"1112 AUTUMN OAKS LANE,FORT SMITH,AR,72903.0",0,1,0,131,35.37143595,-94.3796145,0,0
64,"1116 ALMETTA DR.,WYNNE,AR,72396.0",1,0,0,37,35.23113493,-90.82298781,0,0
65,"1118 E. CARMICHAEL RD,CABOT,AR,72023.0",1,0,0,119,34.97045082,-92.09279856,0,0
66,"1118 E. KIEHL AVE.,SHERWOOD,AR,72120.0",1,0,0,119,34.83065372,-92.18178023,0,0
67,"1119 NE SAINT IVES RD,BENTONVILLE,AR,72712.0",1,0,0,7,36.39480692,-94.19488196,0,0
68,"1119 SPRINGHHILL RD., UNIT B,BARLING,AR,72923.0",1,0,0,131,35.31590398,-94.30790573,0,0
69,"112 S. ROCKWOOD DR., SUITE A,CABOT,AR,72023.0",1,0,0,85,34.98095049,-92.03801248,0,0
70,"1122 S. WALDRON ROAD,FORT SMITH,AR,72903.0",0,0,1,131,35.37215081,-94.3726814,0,0
71,"1122 SOUTH WALDRON ROAD, STE. A,FORT SMITH,AR,72903.0",1,0,0,131,35.37215081,-94.3726814,0,0
72,"1125 SOUTH AMITY RD.,CONWAY,AR,72032.0",1,0,0,45,35.07325739,-92.36154048,0,0
73,"11300 CANTRELL ROAD, SUITE 303,LITTLE ROCK,AR,72212.0",0,0,1,119,34.79032533,-92.39425489,0,0
74,"11324 ROCKY VALLEY DR.,LITTLE ROCK,AR,72212.0",1,0,0,119,34.78634363,-92.39989446,0,0
75,"11327 ARCADE DR., SUITE D,LITTLE ROCK,AR,72212.0",1,0,0,119,34.76988886,-92.40010016,0,0
76,"11327 ARCADE DR.,LITTLE ROCK,AR,72212.0",1,0,0,119,34.76988886,-92.40010016,0,0
77,"1134 N SKYLINE DR,FAYETTEVILLE,AR,72701.0",1,0,0,143,36.0662177,-94.1440833,0,0
78,"114 DYER STREET,MOUNTAIN HOME,AR,72653.0",1,0,0,5,36.34037325,-92.38862196,0,0
79,"11414 W. MARKHAM ST.,LITTLE ROCK,AR,72211.0",1,0,0,119,34.75408872,-92.40224503,0,0
80,"1155 MOUNTAIN RIDGE RD,BATESVILLE,AR,72501.0",1,0,0,63,35.7930104,-91.65536336,0,0
81,"116 FRONT STREET,LONOKE,AR,72086.0",1,0,0,85,34.78441181,-91.89988554,0,0
82,"11600 KANIS RD., SUITE 800,LITTLE ROCK,AR,72211.0",1,0,0,119,34.74348277,-92.40290196,0,0
83,"1171 HIGHWAY 62/412,ASH FLAT,AR,72513.0",1,0,0,135,36.22607182,-91.65150164,0,0
84,"11811 HINSON RD., SUITE 100,LITTLE ROCK,AR,72212.0",0,0,1,119,34.77244099,-92.40486639,0,0
85,"11811 HINSON RD., SUITE 200,LITTLE ROCK,AR,72212.0",1,0,0,119,34.77244099,-92.40486639,0,0
86,"11815 MARA LYNN ROAD,LITTLE ROCK,AR,72211.0",0,0,1,119,34.75778824,-92.40359816,0,0
87,"12 OFFICE PARK DRIVE,LITTLE ROCK,AR,72211.0",1,0,0,119,34.74660769,-92.39709088,0,0
88,"120 LAGRUE,SHERWOOD,AR,72120.0",1,0,0,119,34.81044182,-92.2288223,0,0
89,"1201 NW ANGEL FALLS RD.,BENTONVILLE,AR,72712.0",1,0,0,7,36.38374328,-94.24240237,0,0
90,"12018 CHENAL PARKWAY,LITTLE ROCK,AR,72211.0",1,0,0,119,34.74964608,-92.40923214,0,0
91,"1202 HWY. 35 NORTH,BENTON,AR,72015.0",1,0,0,125,34.55730879,-92.57215962,0,0
92,"1210 HOGAN LANE, STE. 200,CONWAY,AR,72034.0",1,0,0,45,35.09654028,-92.49763244,0,0
93,"1210 OUACHITA COVE,BENTON,AR,72019.0",1,0,0,125,34.63535248,-92.68945976,0,0
94,"1211 EAST WALNUT ST.,ROGERS,AR,72756.0",0,0,1,7,36.32459299,-94.09723139,0,0
95,"1212 LAYMAN DR.,JONESBORO,AR,72404.0",1,0,0,31,35.78995272,-90.72919624,0,0
96,"1215 BRECKENRIDGE DR.,LITTLE ROCK,AR,72205.0",1,0,0,119,34.76534103,-92.38778815,0,0
97,"1220 N. DIVISION,FORREST CITY,AR,72335.0",1,0,0,123,35.01968797,-90.78968403,0,0
98,"1225 BRECKENRIDGE DR., #210,LITTLE ROCK,AR,72205.0",0,0,1,119,34.76543906,-92.38778838,0,0
99,"1225 BRECKENRIDGE DRIVE,LITTLE ROCK,AR,72205.0",1,0,1,119,34.76543906,-92.38778838,0,0
100,"1230 E. CENTERTON BLVD.,CENTERTON,AR,72719.0",1,0,0,7,36.35956958,-94.30096005,0,0
101,"12419 CANTRELL ROAD,LITTLE ROCK,AR,72223.0",0,0,1,119,34.79775897,-92.41127903,0,0
102,"125 PRESIDENTIAL DRIVE,LOWELL,AR,72745.0",1,0,0,7,36.25232319,-94.13537915,0,0
103,"125 SISCO STREET,HARRISON,AR,72601.0",1,0,0,9,36.253404,-93.1260041,0,0
104,"127 W. INDUSTRIAL PARK RD.,HARRISON,AR,72601.0",1,0,0,9,36.2511428,-93.1251927,0,0
105,"127 WEST INDUSTRIAL PARK ROAD,HARRISON,AR,72601.0",1,0,0,9,36.2511428,-93.1251927,0,0
106,"12710 PLEASANT VIEW DR.,LITTLE ROCK,AR,72212.0",1,0,0,119,34.78982707,-92.41351322,0,0
107,"128 N. MOCK,PRAIRIE GROVE,AR,72753.0",1,0,0,143,35.97632513,-94.31738162,0,0
108,"12921 CANTRELL RD., STE. 101,LITTLE ROCK,AR,72223.0",1,0,0,119,34.7978131,-92.41439072,0,0
109,"12921 CANTRELL RD., STE. 200,LITTLE ROCK,AR,72223.0",0,0,1,119,34.7978131,-92.41439072,0,0
110,"12921 CANTRELL RD., STE. 301,LITTLE ROCK,AR,72223.0",1,0,0,119,34.7978131,-92.41439072,0,0
111,"12921 CANTRELL ROAD, SUITE 301,LITTLE ROCK,AR,72223.0",1,0,0,119,34.7978131,-92.41439072,0,0
112,"13 HERITAGE PARK CIRCLE,N. LITTLE ROCK,AR,72116.0",1,0,0,119,34.79354005,-92.23553257,0,0
113,"1306 E. MAIN,VAN BUREN,AR,72956.0",1,0,0,33,35.43658199,-94.34569723,0,0
114,"1308 S. PLEASANT ST.,SPRINGDALE,AR,72764.0",1,0,0,143,36.17261326,-94.14359318,0,0
115,"1309 RICHLAND DR.,W. MEMPHIS,AR,72301.0",1,0,0,35,35.15852891,-90.21326398,0,0
116,"1313 HWY. 65/62 NORTH, SUITE D,HARRISON,AR,72601.0",1,0,0,9,36.23721614,-93.09177009,0,0
117,"1316 W. COLLIN RAYE DRIVE,DEQUEEN,AR,71832.0",1,0,0,133,34.04649164,-94.35488948,0,0
118,"1316 WEST COLLIN RAYE DRIVE,DEQUEEN,AR,71832.0",1,0,0,133,34.04649164,-94.35488948,0,0
119,"13212 FAIRWAY VILLAGE CT,LITTLE ROCK,AR,72212.0",1,0,0,119,34.7768973,-92.42209153,0,0
120,"13239 CANTRELL, SUITE B,LITTLE ROCK,AR,72223.0",0,0,1,119,34.79979425,-92.41952481,0,0
121,"13240 CRYSTAL HILL ROAD,NORTH LITTLE ROCK,AR,72113.0",1,0,0,119,34.82970686,-92.39169443,0,0
122,"13480 MEADOW RIDGE,FAYETTEVILLE,AR,72704.0",1,0,0,143,36.10358413,-94.29661022,0,0
123,"13500 OTTER CREEK PARKWAY,LITTLE ROCK,AR,72210.0",1,0,0,119,34.65819218,-92.42673078,0,0
124,"136 FILES ROAD,HOT SPRINGS,AR,71913.0",0,0,1,51,34.45355596,-93.06855031,0,0
125,"137 S. COLLEGE,MOUNTAIN HOME,AR,72653.0",1,0,0,5,36.33908173,-92.38055199,0,0
126,"13805 DEGRAFF RD.,ROGERS,AR,72756.0",1,0,0,7,36.42965611,-94.06211205,0,0
127,"13907 NAPOLEON DR.,LITTLE ROCK,AR,72211.0",1,0,0,119,34.76457924,-92.4283014,0,0
128,"13924 HINSON RD.,LITTLE ROCK,AR,72212.0",2,0,0,119,34.78850715,-92.42868819,0,0
129,"1396 DESOTO BLVD,HOT SPRINGS VILLAGE,AR,71909.0",0,0,1,125,34.67086614,-92.96901356,0,0
130,"14 ANTIGUA LANE,HOT SPRINGS VILLAGE,AR,71909.0",1,0,0,125,34.65769192,-92.95350591,0,0
131,"140 DARNELL,CAMDEN,AR,71701.0",1,0,0,103,33.58387392,-92.83633415,0,0
132,"14000 NAPOLEON RD,LITTLE ROCK,AR,72211.0",1,0,0,119,34.76477141,-92.42842934,0,0
133,"1401 SUMAC ST,SMACKOVER,AR,71762.0",1,0,0,139,33.35173537,-92.73060986,0,0
134,"1406 WEST 42ND AVENUE,PINE BLUFF,AR,71603.0",1,0,0,69,34.18641383,-92.01648724,0,0
135,"14092 LAKE POINT DR.,LOWELL,AR,72745.0",1,0,0,7,36.24148783,-94.05971672,0,0
136,"1410 PRINCE STREET,CONWAY,AR,72034.0",1,0,0,45,35.09187,-92.44357515,0,0
137,"1415 BRECKENRIDGE DR., SUITE D,LITTLE ROCK,AR,72227.0",2,0,0,119,34.76678702,-92.38658648,0,0
138,"1421 COUNTRY CLUB ROAD,SHERWOOD,AR,72120.0",1,0,0,119,34.81718997,-92.20945075,0,0
139,"1438 E. AUGUSTINE LN., STE. 1,FAYETTEVILLE,AR,72703.0",1,0,0,143,36.1220791,-94.1387467,0,0
140,"1438 EAST AUGUSTINE LANE,FAYETTEVILLE,AR,72703.0",1,0,0,143,36.1220791,-94.1387467,0,0
141,"144 SOUTH MAIN,EUDORA,AR,71640.0",1,0,0,17,33.109604,-91.26201435,0,0
142,"14533 EAST HWY. 12,ROGERS,AR,72756.0",1,0,0,7,36.34247926,-94.05941845,0,0
143,"14922 CANTRELL,LITTLE ROCK,AR,72223.0",1,0,0,119,34.80101865,-92.43986474,0,0
144,"1493 FOREST HILLS BLVD,,BELLA VISTA,AR,72715.0",1,0,0,7,36.47021158,-94.29601442,0,0
145,"15 COMMENTRY DR,LITTLE ROCK,AR,72223.0",1,0,0,119,34.81349617,-92.5150955,0,0
146,"15 GLENDALE COVE,CABOT,AR,72023.0",1,0,0,85,34.9834378,-92.02005553,0,0
147,"150 S TULSA AVE,RUSSELLVILLE,AR,72801.0",1,0,0,115,35.28314375,-93.15212844,0,0
148,"150 SOUTH TULSA,RUSSELLVILLE,AR,72801.0",1,0,0,115,35.28314375,-93.15212844,0,0
149,"1501 WEST C STREET,RUSSELLVILLE,AR,72801.0",1,0,0,115,35.28350209,-93.14640035,0,0
150,"1510 S.E. 14TH STREET,BENTONVILLE,AR,72712.0",1,0,0,7,36.35754687,-94.23453131,0,0
151,"1512 MACON DRIVE, SUITE 2,LITTLE ROCK,AR,72211.0",1,0,0,119,34.76780326,-92.40052126,0,0
152,"1513 COUNTRY CLUB DR.,SHERWOOD,AR,72120.0",1,0,0,119,34.81608673,-92.20940716,0,0
153,"1515 ALDERSGATE RD.,LITTLE ROCK,AR,72205.0",1,0,0,119,34.74000512,-92.38992735,0,0
154,"1515 ROCK SPRINGS ROAD,HARRISON,AR,72601.0",1,0,0,9,36.2560409,-93.1260648,0,0
155,"152 N OKLAHOMA WAY,FAYETTEVILLE,AR,72701.0",1,0,0,143,36.0641812,-94.1483725,0,0
156,"16 SUMMERS LANDING,CADDO VALLEY,AR,71923.0",1,0,0,19,34.21061903,-93.08541396,0,0
157,"1602 CHOCTAW ST,HARRISON,AR,72601.0",1,0,0,9,36.2359319,-93.1270478,0,0
158,"1603 SW REGIONAL AIRPORT BLVD,BENTONVILLE,AR,72712.0",1,0,0,7,36.33568765,-94.23034368,0,0
159,"1607 E. MAIN,VAN BUREN,AR,72956.0",1,0,0,33,35.43671005,-94.34257153,0,0
160,"1607 EAST MAIN STREET,VAN BUREN,AR,72956.0",1,0,0,33,35.43689836,-94.34222855,0,0
161,"16115 ST. VINCENT WAY,LITTLE ROCK,AR,72223.0",1,0,0,119,34.78818692,-92.51303985,0,0
162,"1619 WEST MAIN ST., SUITE A,CLARKSVILLE,AR,72830.0",1,0,0,71,35.47159622,-93.48116662,0,0
163,"1639 E BEEBE CAPPS EXPY,SEARCY,AR,72143.0",1,0,0,145,35.24094912,-91.72004055,0,0
164,"16524 CHENAL PKWY,LITTLE ROCK,AR,72223.0",1,0,0,119,34.75855621,-92.45028323,0,0
165,"168 ARLINGTON PARK TERRACE,HOT SPRINGS,AR,71901.0",0,0,1,51,34.526908,-92.97170369,0,0
166,"1680 E. JOYCE BLVD., SUITE 1,FAYETTEVILLE,AR,72703.0",0,0,1,143,36.1209687,-94.1358154,0,0
167,"17 VALLEY CREST CT.,LITTLE ROCK,AR,72223.0",1,0,0,119,34.79381519,-92.45920391,0,0
168,"1702 DOCTORS DRIVE,PINE BLUFF,AR,71603.0",1,0,0,69,34.18539222,-92.01971126,0,0
169,"1703 SW GOSFORD AVE,BENTONVILLE,AR,72712.0",1,0,0,7,36.32980935,-94.23111301,0,0
170,"17200 CHENAL PKWY., SUITE 400,LITTLE ROCK,AR,72223.0",1,0,0,119,34.77779044,-92.46309867,0,0
171,"1759 N SAMANTHA AVE,FAYETTEVILLE,AR,72703.0",1,0,0,143,36.085268,-94.142559,0,0
172,"179 NORTH CHURCH ST., #102,FAYETTEVILLE,AR,72701.0",1,0,0,143,36.064571,-94.1620189,0,0
173,"180 ARENA ROAD,CABOT,AR,72023.0",1,0,0,85,34.95755771,-92.056487,0,0
174,"1800 WOODSPOINT COVE,JONESBORO,AR,72401.0",1,0,0,31,35.82430153,-90.68435372,0,0
175,"1801 RAHLING RD.,LITTLE ROCK,AR,72223.0",1,0,0,119,34.7736002,-92.44578718,0,0
176,"1803 SOUTH GREENWOOD AVE.,FORT SMITH,AR,72901.0",1,0,0,131,35.36584148,-94.40381317,0,0
177,"1803 WOODSPRINGS RD.,JONESBORO,AR,72401.0",1,0,0,31,35.81872333,-90.73086286,0,0
178,"1803 WOODSPRINGS ROAD,JONESBORO,AR,72401.0",1,0,0,31,35.81872333,-90.73086286,0,0
179,"1808 NORTH TAYLOR,LITTLE ROCK,AR,72207.0",1,0,0,119,34.76832725,-92.33600717,0,0
180,"1815 IVY POINT COVE,JONESBORO,AR,72401.0",1,0,0,31,35.87921206,-90.66090513,0,0
181,"1815 N. MARION WAY #303,FAYETTEVILLE,AR,72704.0",1,0,0,143,36.0868336,-94.2135431,0,0
182,"1831 N. GREEN ACRES RD.,FAYETTEVILLE,AR,72703.0",0,0,1,143,36.0869859,-94.1558113,0,0
183,"1854 COUNTY RD. 3731,LAMAR,AR,72846.0",1,0,0,71,35.50109596,-93.30899797,0,0
184,"1867 CHUKKER DRIVE,FAYETTEVILLE,AR,72703.0",1,0,0,143,36.1047936,-94.0216499,0,0
185,"1874 N HUNTER'S RIDGE,FAYETTEVILLE,AR,72701.0",1,0,0,143,36.0865753,-94.1171046,0,0
186,"1874 N. HUNTER'S RIDGE, #1,FAYETTEVILLE,AR,72701.0",1,0,0,143,36.0865753,-94.1171046,0,0
187,"1874 NORTH HUNTERS  RIDGE, #2,FAYETTEVILLE,AR,72701.0",1,0,0,143,36.0865753,-94.1171046,0,0
188,"18773 COPPERMINE RD.,ROGERS,AR,72756.0",1,0,0,7,36.33064995,-93.96498055,0,0
189,"19 W. MAIN ST.,FARMINGTON,AR,72730.0",1,0,0,143,36.0415658,-94.2415853,0,0
190,"19 WEATHERSTONE PT.,LITTLE ROCK,AR,72211.0",1,0,0,119,34.75064069,-92.41709215,0,0
191,"1919 MALVERN AVE.,HOT SPRINGS,AR,71901.0",1,0,0,51,34.48667963,-93.03372653,0,0
192,"1919 N. FILLMORE STREET,LITTLE ROCK,AR,72207.0",1,0,0,119,34.76943236,-92.33697584,0,0
193,"192 DEER RUN LANE,MENA,AR,71953.0",1,0,0,113,34.57777233,-94.19577218,0,0
194,"2 BURNETT ROAD,GREENBRIER,AR,72058.0",0,0,1,45,35.18174616,-92.46955403,0,0
195,"20 E. SHORT MOUNTAIN,PARIS,AR,72855.0",1,0,0,83,35.25292641,-93.67873135,0,0
196,"200 N. 24TH ST.,ROGERS,AR,72756.0",1,0,0,7,36.33580406,-94.15199761,0,0
197,"200 N. PHOENIX,RUSSELLVILLE,AR,72801.0",1,0,0,115,35.28310044,-93.14757855,0,0
198,"200 S. RHODES, STE. B,WEST MEMPHIS,AR,72301.0",1,0,0,35,35.14531487,-90.18772218,0,0
199,"200 WHITE AVENUE,GREEN FOREST,AR,72638.0",1,0,0,15,36.33601034,-93.43323798,0,0
200,"2000 S. UNIVERSITY AVE., SUITE K,LITTLE ROCK,AR,72204.0",1,0,0,119,34.73403606,-92.34189761,0,0
201,"2001 GREEN ACRES ROAD,FAYETTEVILLE,AR,72703.0",1,0,2,143,36.088863,-94.1557974,0,0
202,"2002 NO. UNIVERSITY,LITTLE ROCK,AR,72207.0",1,0,0,119,34.77046225,-92.34067607,0,0
203,"201 N. 34TH ST.,ROGERS,AR,72756.0",1,0,0,7,36.33593627,-94.16654973,0,0
204,"201 N. 34TH STREET,ROGERS,AR,72756.0",1,0,0,7,36.33593627,-94.16654973,0,0
205,"201 RICE STREET,BERRYVILLE,AR,72616.0",1,0,0,15,36.35718274,-93.55302872,0,0
206,"201 S. CHERRY ST.,HAMBURG,AR,71646.0",1,0,0,3,33.22426988,-91.79483185,0,0
207,"2010 REBSAMEN PARK RD. #311,LITTLE ROCK,AR,72202.0",1,0,0,119,34.76953613,-92.31089396,0,0
208,"2011 NORTH VAN BUREN,LITTLE ROCK,AR,72207.0",1,0,0,119,34.77008876,-92.32957057,0,0
209,"2015 WEST PARKWAY DRIVE,RUSSELLVILLE,AR,72802.0",0,0,1,115,35.28946101,-93.15358837,0,0
210,"2017 GREEN ACRES ROAD,FAYETTEVILLE,AR,72703.0",1,0,0,143,36.0894103,-94.1565688,0,0
211,"203 LAKEVIEW DRIVE,FAIRFIELD BAY,AR,72088.0",1,0,0,141,35.57339802,-92.28480915,0,0
212,"203 N 24TH ST D,ROGERS,AR,72756.0",1,0,0,7,36.33631207,-94.15178127,0,0
213,"203 STEARNS POINT D1,HOT SPRINGS,AR,71913.0",1,0,0,51,34.47941678,-93.12359045,0,0
214,"204 SEMINOLE LANE,MAUMELLE,AR,72113.0",1,0,0,119,34.8497451,-92.43199481,0,0
215,"20590 BELLVUE DRIVE,LITTLE ROCK,AR,72210.0",1,0,0,119,34.71394887,-92.5044208,0,0
216,"206 S. COLLEGE STREET,MOUNTAIN HOME,AR,72653.0",1,0,0,5,36.33778222,-92.38075012,0,0
217,"208 A  NORTH 26TH STREET,ARKADELPHIA,AR,71923.0",1,0,0,19,34.12316016,-93.08035979,0,0
218,"208 NORTH MAIN,BERRYVILLE,AR,72616.0",1,0,0,15,36.36584732,-93.56813895,0,0
219,"209 SOUTH STATE ST.,LITTLE ROCK,AR,72201.0",1,0,0,119,34.74815258,-92.27880413,0,0
220,"20920 PRESLEY DRIVE,ROLAND,AR,72135.0",1,0,0,119,34.82841259,-92.50036473,0,0
221,"21 E. CENTER ST., APT. 205,FAYETTEVILLE,AR,72701.0",1,0,0,143,36.0624237,-94.1588958,0,0
222,"21 PIPER LANE,LITTLE ROCK,AR,72223.0",1,0,0,119,34.78818692,-92.51303985,0,0
223,"2101 #C, CONGO ROAD,BENTON,AR,72015.0",1,0,0,125,34.58317735,-92.572164,0,0
224,"2101 DALLAS STREET,FORT SMITH,AR,72901.0",1,0,0,131,35.35348688,-94.4117951,0,0
225,"2101 GREEN ACRES ROAD,FAYETTEVILLE,AR,72703.0",1,0,0,143,36.0905965,-94.1558414,0,0
226,"2102 W. PLEASANT GROVE RD.,ROGERS,AR,72758.0",1,0,0,7,36.28311386,-94.14941095,0,0
227,"2105 FIRST NATIONAL DR.,HARRISON,AR,72601.0",1,0,0,9,36.23721614,-93.09177009,0,0
228,"2105 FIRST NATIONAL DRIVE,HARRISON,AR,72601.0",2,0,0,9,36.23721614,-93.09177009,0,0
229,"2109 SOUTH 54TH STREET,,ROGERS,AR,72758.0",1,0,0,7,36.31615468,-94.19403221,0,0
230,"212 CHENAL WOODS DRIVE,LITTLE ROCK,AR,72223.0",1,0,0,119,34.78818692,-92.51303985,0,0
231,"213 PARKER POINT,HOT SPRINGS,AR,71913.0",1,0,0,51,34.48233477,-93.12555162,0,0
232,"214 HICKORY HILLS DRIVE,RUSSELLVILLE,AR,72802.0",1,0,0,115,35.29607349,-93.17608557,0,0
233,"214 RIVER TRACE DR.,MARION,AR,72364.0",1,0,0,35,35.21661295,-90.19239539,0,0
234,"214 SOUTH 3RD ST.,ROGERS,AR,72756.0",1,0,0,7,36.33206061,-94.11896711,0,0
235,"220 BELLA VITA ST,SPRINGDALE,AR,72762.0",1,0,0,143,36.18766484,-94.22335842,0,0
236,"2200 FORT ROOTS DRIVE,N. LITTLE ROCK,AR,72114.0",1,0,0,119,34.77329426,-92.28941283,0,0
237,"2203 EAST PARKWAY,RUSSELLVILLE,AR,72802.0",1,0,0,115,35.3109922,-93.07084163,0,0
238,"2203 RED WOLF BLVD., SUITE A,JONESBORO,AR,72401.0",1,0,0,31,35.87921206,-90.66090513,0,0
239,"2205 BRIGADOON DRIVE,FORT SMITH,AR,72908.0",1,0,0,131,35.28784966,-94.41146954,0,0
240,"2213 PAULA DRIVE,JONESBORO,AR,72404.0",1,0,0,31,35.81091054,-90.74021808,0,0
241,"2217 HIGHWAY 110 WEST,HEBER SPRINGS,AR,72543.0",1,0,0,23,35.48990275,-92.05466093,0,0
242,"2217 HWY 110 WEST,HEBER SPRINGS,AR,72543.0",1,0,0,23,35.48990275,-92.05466093,0,0
243,"222 E. DUNBAR LN. #215,FAYETTEVILLE,AR,72703.0",1,0,1,143,36.11869,-94.153923,0,0
244,"2220 MALVERN AVE., SUITE B,HOT SPRINGS,AR,71901.0",1,0,0,51,34.47382913,-93.02338488,0,0
245,"22450 INTERSTATE 30,BRYANT,AR,72022.0",1,0,0,125,34.61391758,-92.50906767,0,0
246,"225 NORTH NEWTON,EL DORADO,AR,71730.0",1,0,0,139,33.21390478,-92.6716976,0,0
247,"228 RED HAWK CIRCLE,PARON,AR,71602.0",0,0,1,69,34.26709409,-92.14304744,0,0
248,"23 W. MISSISSIPPI,MARIANNA,AR,72360.0",1,0,0,77,34.77131817,-90.75799087,0,0
249,"2300 PLEASANT GROVE RD.,JONESBORO,AR,72401.0",1,0,0,31,35.87147055,-90.64921246,0,0
250,"2302 N. REYNOLDS RD.,BRYANT,AR,72022.0",1,0,0,125,34.61678592,-92.49824583,0,0
251,"2316 STRINGTOWN RD,MALVERN,AR,72104.0",1,0,0,59,34.45920237,-92.73316745,0,0
252,"2372 SPRINGHILL RD,BRYANT,AR,72022.0",1,0,0,125,34.61495307,-92.51603465,0,0
253,"2386 GREEN ACRES RD.,FAYETTEVILLE,AR,72703.0",1,0,0,143,36.0945071,-94.1568837,0,0
254,"2405 HICKORYNUT CT.,LITTLE ROCK,AR,72211.0",1,0,0,119,34.73254107,-92.4037048,0,0
255,"2411 MCCAIN BLVD.,NORTH LITTLE ROCK,AR,72116.0",1,0,0,119,34.79790208,-92.23987623,0,0
256,"2414 S. 58TH,FORT SMITH,AR,72903.0",1,0,0,131,35.35992958,-94.36864803,0,0
257,"2420 SOUTH 51ST COURT,FORT SMITH,AR,72903.0",1,0,0,131,35.35973282,-94.3762063,0,0
258,"2422 SPRINGHILL ROAD,BRYANT,AR,72022.0",1,0,0,125,34.61676418,-92.51595953,0,0
259,"2425 DAVE WARD DRIVE SUITE 501,CONWAY,AR,72034.0",0,0,1,45,35.0698876,-92.4616784,0,0
260,"2425 PRINCE ST., SUITE 1,CONWAY,AR,72034.0",1,0,0,45,35.09166903,-92.46201,0,0
261,"2425 PRINCE STREET #6,CONWAY,AR,72034.0",0,0,1,45,35.09166903,-92.46201,0,0
262,"245 VAN ASCHE DR,FAYETTEVILLE,AR,72703.0",1,0,0,143,36.11730705,-94.16303019,0,0
263,"24708 PLEASANT GROVE ROAD,ROLAND,AR,72135.0",1,0,0,119,34.83393098,-92.54030155,0,0
264,"250 BUCHER DRIVE,MOUNTAIN HOME,AR,72653.0",1,0,0,5,36.33431766,-92.39627012,0,0
265,"2500 BROWNS LANE,JONESBORO,AR,72401.0",2,0,0,31,35.81579861,-90.68683974,0,0
266,"2501 CRESTWOOD, #102,NORTH LITTLE ROCK,AR,72116.0",0,0,1,119,34.80024319,-92.23611313,0,0
267,"2501 CRESTWOOD, SUITE 103,NORTH LITTLE ROCK,AR,72116.0",1,0,0,119,34.80024319,-92.23611313,0,0
268,"2501 CRESTWOOD, SUITE 203,NORTH LITTLE ROCK,AR,72116.0",1,0,0,119,34.80024319,-92.23611313,0,0
269,"2504 MCCAIN BLVD., SUITE 201,NORTH LITTLE ROCK,AR,72116.0",1,0,0,119,34.79620951,-92.23666494,0,0
270,"2504 MCCAIN PLACE, SUITE #200,NORTH LITTLE ROCK,AR,72116.0",1,0,0,119,34.79620951,-92.23666494,0,0
271,"2512 CRESTWOOD,NORTH LITTLE ROCK,AR,72116.0",1,0,0,119,34.79870583,-92.23537282,0,0
272,"2516 B ALEXANDER DR.,JONESBORO,AR,72401.0",1,0,0,31,35.81160232,-90.72408494,0,0
273,"2522 S. PINNACLE HILLS PKWY, STE. 102,ROGERS,AR,72758.0",1,0,0,7,36.30986723,-94.18668418,0,0
274,"2523 N. UNIVERSITY,LITTLE ROCK,AR,72207.0",1,0,0,119,34.7750837,-92.34034809,0,0
275,"2524 CRESTWOOD, SUITE 2,NORTH LITTLE ROCK,AR,72116.0",1,0,0,119,34.80014307,-92.23743332,0,0
276,"2538 E. JOYCE BLVD.,FAYETTEVILLE,AR,72703.0",1,0,0,143,36.1202688,-94.1249131,0,0
277,"2599 E. FRONTIER ELM DRIVE,FAYETTEVILLE,AR,72703.0",1,0,0,143,36.1301453,-94.1239052,0,0
278,"26 WEST JERICHO DRIVE,GREENBRIER,AR,72058.0",0,0,1,45,35.1831938,-92.4907323,0,0
279,"2600 MARKET TRACE,FORT SMITH,AR,72908.0",1,0,0,131,35.30140365,-94.40793748,0,0
280,"2601 COUNTY AVE.,TEXARKANA,AR,71854.0",1,0,0,91,33.44741773,-94.03823904,0,0
281,"2606 W. PULLEN,PINE BLUFF,AR,71601.0",1,0,0,69,34.23074416,-92.02981763,0,0
282,"2616 W. BEEBE CAPPS EXPRESSWAY,SEARCY,AR,72143.0",1,0,0,145,35.24731182,-91.77498451,0,0
283,"2618 SOUTH EAST J STREET,BENTONVILLE,AR,72712.0",1,0,0,7,36.34501101,-94.19739109,0,0
284,"2621 W. MAIN, SUITE 2,RUSSELLVILLE,AR,72801.0",1,0,0,115,35.28576988,-93.15985998,0,0
285,"2630 E. CITIZENS DR., #8,FAYETTEVILLE,AR,72703.0",1,0,0,143,36.0893021,-94.1242114,0,0
286,"2650 JOHN HARDEN DR., SUITE G,JACKSONVILLE,AR,72076.0",1,0,0,119,34.89282179,-92.09992236,0,0
287,"2662 E. JOYCE BLVD., SUITE 1,FAYETTEVILLE,AR,72703.0",1,0,0,143,36.1208419,-94.1226672,0,0
288,"2680 E. JOYCE,FAYETTEVILLE,AR,72703.0",1,0,0,143,36.1203148,-94.1226589,0,0
289,"2690 BELLA VISTA WAY,BELLA VISTA,AR,72712.0",1,0,0,7,36.44315769,-94.23887055,0,0
290,"2690 BELLA VISTA WAY,BELLA VISTA,AR,72714.0",1,0,0,7,36.44315769,-94.23887055,0,0
291,"2701 N. I,FORT SMITH,AR,72901.0",1,0,0,131,35.36641443,-94.41577143,0,0
292,"2702 AMERICAN ST.,SPRINGDALE,AR,72764.0",1,0,0,143,36.1607709,-94.14520254,0,0
293,"2704 E. NETTLETON,JONESBORO,AR,72401.0",1,0,0,31,35.82849275,-90.67473633,0,0
294,"2706 SW COMANCHE CT,BENTONVILLE,AR,72712.0",1,0,0,7,36.35900366,-94.2416282,0,0
295,"2707 W. HUNTSVILLE AVENUE,SPRINGDALE,AR,72762.0",1,0,0,143,36.18915351,-94.16235449,0,0
296,"2732 E. LONDONDERRY DR.,FAYETTEVILLE,AR,72701.0",1,0,0,143,36.0807564,-94.1225735,0,0
297,"2737 PAULA DRIVE,JONESBORO,AR,72404.0",1,0,0,31,35.81097826,-90.74330246,0,0
298,"274 PINKLEY ROAD,SPRINGDALE,AR,72762.0",1,0,0,143,36.20782556,-94.20066752,0,0
299,"28 ISBELL LANE,LITTLE ROCK,AR,72223.0",1,0,0,119,34.81601106,-92.40276154,0,0
300,"2800 E. KIEHL AVE.,SHERWOOD,AR,72120.0",1,0,0,119,34.83230921,-92.20626939,0,0
301,"2801 MAIN DRIVE,FAYETTEVILLE,AR,72704.0",1,0,0,143,36.1331139,-94.1621799,0,0
302,"2804 E. MATTHEWS,JONESBORO,AR,72401.0",1,0,0,31,35.83324408,-90.66830049,0,0
303,"2804 SEMINOLE COURT,ROGERS,AR,72758.0",1,0,0,7,36.31851565,-94.16469329,0,0
304,"2805 FOREST AVENUE,TEXARKANA,AR,71854.0",1,0,0,91,33.40903971,-94.01448401,0,0
305,"2814 W. NEW HOPE ROAD,ROGERS,AR,72758.0",1,0,0,7,36.31252071,-94.16238105,0,0
306,"2840 TWIN RIVERS DRIVE,ARKADELPHIA,AR,71923.0",1,0,0,19,34.12491575,-93.08650214,0,0
307,"2850 BROWNS LANE,JONESBORO,AR,72401.0",2,0,0,31,35.81129939,-90.68697943,0,0
308,"2886 W. WALNUT ST.,ROGERS,AR,72756.0",1,0,0,7,36.33437192,-94.16010528,0,0
309,"2890 W. HUNTSVILLE,SPRINGDALE,AR,72762.0",0,0,1,143,36.18935962,-94.16345937,0,0
310,"29 INVERNESS CIRCLE,LITTLE ROCK,AR,72212.0",1,0,0,119,34.78324738,-92.40606133,0,0
311,"2900 LEE AVE.,LITTLE ROCK,AR,72205.0",1,0,0,119,34.75503013,-92.30581098,0,0
312,"2910 JENNY LIND ROAD, SUITE #7,FORT SMITH,AR,72901.0",1,0,0,131,35.35652856,-94.41321696,0,0
313,"2913 SO. 74TH,FORT SMITH,AR,72903.0",1,0,0,131,35.35502972,-94.35090414,0,0
314,"2915 EAST MOORE, SUITE 2,SEARCY,AR,72143.0",1,0,0,145,35.25369224,-91.70095605,0,0
315,"2916 HAWKINS DRIVE,SEARCY,AR,72143.0",1,0,0,145,35.25166309,-91.70073607,0,0
316,"2920 WEST WALNUT,ROGERS,AR,72756.0",1,0,0,7,36.33444985,-94.16299303,0,0
317,"2923 CHARTER OAK,LITTLE ROCK,AR,72227.0",1,0,0,119,34.77969323,-92.38142408,0,0
318,"2926  PHELPS ROAD,STRONG,AR,71765.0",1,0,0,139,33.20590948,-92.32772757,0,0
319,"2927 N. BROOKBURY XING,FAYETTEVILLE,AR,72703.0",1,0,0,143,36.1039404,-94.1164892,0,0
320,"296 GEM TRAIL,MALVERN,AR,72104.0",1,0,0,59,34.33884895,-92.80925213,0,0
321,"3 CORDOBA CIRCLE,HOT SPRINGS VILLAGE,AR,71909.0",1,0,0,51,34.6547799,-93.05310727,0,0
322,"3 WINDY RIDGE,SEARCY,AR,72143.0",1,0,0,145,35.22892217,-91.73565255,0,0
323,"30 RAHLING CIRCLE,LITTLE ROCK,AR,72223.0",1,0,0,119,34.76876553,-92.4558288,0,0
324,"300 E. 6TH,TEXARKANA,AR,71854.0",1,0,0,91,33.42694402,-94.04095803,0,0
325,"300 S. 20TH ST.,ROGERS,AR,72758.0",1,0,0,7,36.33104084,-94.14619958,0,0
326,"300 SOUTH 20TH STREET,ROGERS,AR,72758.0",1,0,0,7,36.33104084,-94.14619958,0,0
327,"3001 HORIZON ST.,BRYANT,AR,72022.0",1,0,0,125,34.62163872,-92.49748705,0,0
328,"3001 HORIZON STREET,BRYANT,AR,72022.0",1,0,0,125,34.62163872,-92.49748705,0,0
329,"3001 JOHN F. KENNEDY BOULEVARD,NORTH LITTLE ROCK,AR,72116.0",1,0,0,119,34.78246757,-92.2616638,0,0
330,"301 COLLEGE STREET,MOUNTAIN HOME,AR,72653.0",1,0,0,5,36.33677693,-92.38060795,0,0
331,"302 NORTH HUGHES STREET,HUNTSVILLE,AR,72740.0",1,0,0,87,36.08859968,-93.73672437,0,0
332,"3020 NORTH RODNEY PARHAM RD.,LITTLE ROCK,AR,72112.0",0,0,1,67,35.57973821,-91.22611303,0,0
333,"3024 OLIVE ST.,PINE BLUFF,AR,71603.0",1,0,0,69,34.19923177,-92.00711467,0,0
334,"3031 31ST TERRACE,VAN BUREN,AR,72956.0",1,0,0,33,35.48233783,-94.32171801,0,0
335,"305 GRAHAM STREET,FORDYCE,AR,71742.0",1,0,0,39,33.81180779,-92.41457155,0,0
336,"305 WEST DREW AVENUE,MONETTE,AR,72447.0",1,0,0,31,35.89020106,-90.33687766,0,0
337,"306 NE BLAKE ST., STE. 3,BENTONVILLE,AR,72712.0",1,0,0,7,36.37438961,-94.20670627,0,0
338,"306 NE BLAKE ST.,BENTONVILLE,AR,72712.0",1,0,0,7,36.37438961,-94.20670627,0,0
339,"3060 ALBERT PIKE, SUITE H,HOT SPRINGS,AR,71913.0",1,0,0,51,34.50245663,-93.12475452,0,0
340,"3066 INDIAN SPRINGS AVE.,SPRINGDALE,AR,72762.0",1,0,0,7,36.21785185,-94.16309039,0,0
341,"307-M CARPENTER DAM ROAD,HOT SPRINGS,AR,71901.0",1,0,0,51,34.47057653,-93.02056612,0,0
342,"307M CARPENTER DAM ROAD,HOT SPRINGS,AR,71901.0",1,0,0,51,34.47057653,-93.02056612,0,0
343,"308 N. JAMES ST.,JACKSONVILLE,AR,72076.0",1,0,0,119,34.87041673,-92.11864503,0,0
344,"308 S. UNIVERSITY AVE., APT. 2523,LITTLE ROCK,AR,72205.0",1,0,0,119,34.75035963,-92.34135114,0,0
345,"308 S. UNIVERSITY, APT. 2411,LITTLE ROCK,AR,72205.0",1,0,0,119,34.75035963,-92.34135114,0,0
346,"309 BOULDER DR,VAN BUREN,AR,72956.0",1,0,0,33,35.47036186,-94.36434213,0,0
347,"31 SCENIC POINT,LITTLE ROCK,AR,72207.0",1,0,0,119,34.77969856,-92.32987529,0,0
348,"3109 NORTH WALTON,BENTONVILLE,AR,72712.0",1,0,0,7,36.41056085,-94.2177392,0,0
349,"311 E. MERRIMAN,WYNNE,AR,72396.0",1,0,0,37,35.23113493,-90.82298781,0,0
350,"3119 EAST MISSION BLVD,FAYETTEVILLE,AR,72703.0",0,0,1,143,36.0876196,-94.1166115,0,0
351,"312 ARKANSAS BLVD.,TEXARKANA,AR,71854.0",1,0,0,91,33.46017796,-94.04011358,0,0
352,"312 E. KIEHL AVENUE,SHERWOOD,AR,72120.0",1,0,0,119,34.83254411,-92.22870222,0,0
353,"312 N. PINE ST.,LITTLE ROCK,AR,72205.0",0,0,1,119,34.75340812,-92.31636488,0,0
354,"312 S. MAIN ST.,BENTONVILLE,AR,72712.0",1,0,0,7,36.36913109,-94.20898429,0,0
355,"313 DUNWOODY,JONESBORO,AR,72404.0",1,0,0,31,35.7890155,-90.7068506,0,0
356,"313 POPLAR STREET,HOT SPRINGS,AR,71901.0",0,1,0,51,34.52892842,-93.05642735,0,0
357,"314 S. UNIVERSITY AVE., APT. 1315,LITTLE ROCK,AR,72205.0",1,0,0,119,34.75030453,-92.34135114,0,0
358,"3144 N. TARTAN WAY,FAYETTEVILLE,AR,72703.0",1,0,0,143,36.1091152,-94.124143,0,0
359,"3163 NEVIS DRIVE,FAYETTEVILLE,AR,72703.0",1,0,0,143,36.10764968,-94.08782243,0,0
360,"3163 SUMMERSHADE DR.,FAYETTEVILLE,AR,72703.0",1,0,0,143,36.1023794,-94.1160111,0,0
361,"320 EAST 7TH ST.,MOUNTAIN HOME,AR,72653.0",1,0,0,5,36.33460988,-92.38210136,0,0
362,"320 EAST 7TH STREET,MOUNTAIN HOME,AR,72653.0",1,0,0,5,36.33460988,-92.38210136,0,0
363,"3200 ROGERS, SUITE 111,FORT SMITH,AR,72903.0",1,0,0,131,35.37395631,-94.39757439,0,0
364,"3201 CLUB MANOR DR, #A,MAUMELLE,AR,72113.0",1,0,0,119,34.85106149,-92.40710126,0,0
365,"3201 CLUB MANOR DRIVE STE E,MAUMELLE,AR,72113.0",1,0,0,119,34.85106149,-92.40710126,0,0
366,"3206 ELMHURST DR.,JONESBORO,AR,72404.0",1,0,0,31,35.77594004,-90.78172205,0,0
367,"3207 ARAPAHO DRIVE,ROGERS,AR,72758.0",1,0,0,7,36.31320308,-94.17016081,0,0
368,"3207 W ARAPAHO DRIVE,ROGERS,AR,72758.0",1,0,0,7,36.31320308,-94.17016081,0,0
369,"325 SHORT ST.,BENTON,AR,72015.0",1,0,0,125,34.56590372,-92.58932071,0,0
370,"325 SHORT STREET,BENTON,AR,72015.0",1,0,0,125,34.56590372,-92.58932071,0,0
371,"326 E. 13TH STREET,MURFREESBORO,AR,71958.0",1,0,0,109,34.07003351,-93.68476393,0,0
372,"3284 HWY. 367 SOUTH,CABOT,AR,72023.0",1,0,0,85,34.95755771,-92.056487,0,0
373,"3289 LAUREL SPRING CV.,SPRINGDALE,AR,72762.0",1,0,0,143,36.18776687,-94.22925788,0,0
374,"33 AURIEL DR.,LITTLE ROCK,AR,72223.0",1,0,0,119,34.77944957,-92.46192043,0,0
375,"3301 S WALTON BLVD,BENTONVILLE,AR,72712.0",1,0,0,7,36.33911286,-94.21079509,0,0
376,"3301 S. WALTON BLVD., STE. 19,BENTONVILLE,AR,72712.0",1,0,0,7,36.33911286,-94.21079509,0,0
377,"3302 SW SATINWOOD AVE.,BENTONVILLE,AR,72713",1,0,0,7,36.333272,-94.24925,0,0
378,"332 GRASSY DRIVE,GASSVILLE,AR,72635.0",1,0,0,5,36.25753694,-92.49206964,0,0
379,"332 S. 12TH,PARAGOULD,AR,72450.0",1,0,0,55,36.05387746,-90.47113808,0,0
380,"3321 INDIAN SPRINGS AVE.,SPRINGDALE,AR,72762.0",1,0,0,7,36.21734218,-94.16592324,0,0
381,"333 E. MARKET,SEARCY,AR,72143.0",1,0,0,145,35.24957864,-91.74032292,0,0
382,"3394 FUTRALL DRIVE ST. #2,FAYETTEVILLE,AR,72703.0",1,0,0,143,36.11506826,-94.04885095,0,0
383,"3400 HAZELWOOD DR.,BENTON,AR,72015.0",1,0,0,125,34.59446275,-92.53810481,0,0
384,"3400 S. BOWMAN RD., APT. 1511,LITTLE ROCK,AR,72211.0",1,0,0,119,34.72271156,-92.40730853,0,0
385,"3400 S. BOWMAN RD., APT. 507,LITTLE ROCK,AR,72211.0",1,0,0,119,34.72271156,-92.40730853,0,0
386,"3401 SPRINGHILL DR.,NORTH LITTLE ROCK,AR,72117.0",1,0,0,119,34.78486332,-92.22020355,0,0
387,"3405 RIDGE ROAD,NORTH LITTLE ROCK,AR,72116.0",1,0,0,119,34.7862444,-92.26793214,0,0
388,"3425 BELLSHIRE,FAYETTEVILLE,AR,72703.0",1,0,0,143,36.11357541,-94.13795756,0,0
389,"349 STONERIDGE CR.,RUSSELLVILLE,AR,72802.0",1,0,0,115,35.28493825,-93.02858838,0,0
390,"3500 BLACK FOREST DR., STE. 1,FAYETTEVILLE,AR,72703.0",1,0,0,143,36.0782054,-94.2103936,0,0
391,"3501 SOUTH GARY,FORT SMITH,AR,72903.0",1,0,0,131,35.34936686,-94.39452956,0,0
392,"3505 JFK BOULEVARD,NORTH LITTLE ROCK,AR,72116.0",1,0,0,119,34.80044868,-92.24495051,0,0
393,"3517 JFK BLVD,NORTH LITTLE ROCK,AR,72116.0",0,0,1,119,34.80044868,-92.24495051,0,0
394,"3603 DORAL DRIVE,LITTLE ROCK,AR,72212.0",1,0,0,119,34.7866239,-92.40597083,0,0
395,"3612 SOUTHERN HILLS BLVD.,ROGERS,AR,72758.0",1,0,0,7,36.28645389,-94.16402505,0,0
396,"3680 E. RACE STREET,SEARCY,AR,72143.0",1,0,0,145,35.25052113,-91.69421952,0,0
397,"3700 S, CARAWAY, APT. H14,JONESBORO,AR,72404.0",1,0,0,31,35.79665483,-90.67842218,0,0
398,"3718 S PINNACLE HILLS PKWY,ROGERS,AR,72758.0",1,0,0,7,36.30267108,-94.18938276,0,0
399,"3758 CALDWELL RD,PROCTOR,AR,72327.0",1,0,0,35,35.0843105,-90.29296327,0,0
400,"38 DUCLAIR CT,LITTLE ROCK,AR,72223.0",1,0,0,119,34.77721446,-92.46498657,0,0
401,"38 ST. ANDREWS DR.,LITTLE ROCK,AR,72212.0",1,0,0,119,34.7824975,-92.40609892,0,0
402,"3801 SOUTH OLIVE ST.,PINE BLUFF,AR,71603.0",1,0,0,69,34.19114419,-92.0068158,0,0
403,"3801 WOODLAND HEIGHTS RD.,LITTLE ROCK,AR,72212.0",1,0,0,119,34.79033971,-92.40170711,0,0
404,"3812 CENTRAL AVE., SUITE I & J,HOT SPRINGS,AR,71913.0",0,0,1,51,34.44813956,-93.09524419,0,0
405,"3877 MORNING MIST,FAYETTEVILLE,AR,72704.0",1,0,0,143,36.09698708,-94.21655262,0,0
406,"3885 N. SUNBEST PLACE,FAYETTEVILLE,AR,72703.0",1,0,0,143,36.1216574,-94.12387,0,0
407,"389 LAKE HAMILTON DR., APT. J23,HOT SPRINGS,AR,71913.0",1,0,0,51,34.4469893,-93.07641839,0,0
408,"390 E. LONGVIEW ST.,FAYETTEVILLE,AR,72703.0",0,0,1,143,36.1117272,-94.1517121,0,0
409,"3903 FINANCIAL PARKWAY,ROGERS,AR,72758.0",1,0,0,7,36.31372645,-94.172335,0,0
410,"3905 W PROVIDENCE DR,FAYETTEVILLE,AR,72704.0",1,0,0,143,36.0690999,-94.215936,0,0
411,"3920 W. WALNUT STREET,ROGERS,AR,72756.0",0,0,1,7,36.33472889,-94.17423984,0,0
412,"3924 BRIDLEWOOD DR.,SPRINGDALE,AR,72764.0",1,0,0,143,36.1210903,-94.0609281,0,0
413,"395 BRANDON LOOP,SPRINGDALE,AR,72762.0",1,0,0,143,36.188148,-94.2135504,0,0
414,"4 JENNY LYNNE DRIVE,SEARCY,AR,72143.0",1,0,0,145,35.23820558,-91.7484909,0,0
415,"4 MEDICAL LANE,CONWAY,AR,72034.0",1,0,0,45,35.09157419,-92.45981073,0,0
416,"4 MONTVALE DRIVE,LITTLE ROCK,AR,72212.0",1,0,0,119,34.78107175,-92.43359519,0,0
417,"400 PINE AVENUE,MENA,AR,71953.0",1,0,0,113,34.57935949,-94.23183028,0,0
418,"400 PLAZA,WEST HELENA,AR,72390.0",1,0,0,107,34.54416189,-90.64024041,0,0
419,"400 S. 18TH ST.,FORT SMITH,AR,72901.0",1,0,0,131,35.3801201,-94.41411024,0,0
420,"4001 W. FINANCIAL PARKWAY,ROGERS,AR,72758.0",1,0,0,7,36.31403144,-94.17424961,0,0
421,"4003 FINANCIAL PARKWAY,ROGERS,AR,72758.0",0,0,1,7,36.31403302,-94.17429072,0,0
422,"402 E. PARKWAY DRIVE,RUSSELLVILLE,AR,72801.0",1,0,0,115,35.28105918,-93.1281413,0,0
423,"402 EAST PARKWAY DR,RUSSELLVILLE,AR,72801.0",1,0,0,115,35.28105918,-93.1281413,0,0
424,"402 S. METRO PARKWAY,ROGERS,AR,72758.0",1,0,0,7,36.33277255,-94.18732484,0,0
425,"4025 N. STEELE BLVD., APT. 105,FAYETTEVILLE,AR,72703.0",1,0,0,143,36.1244967,-94.1569758,0,0
426,"405 HOGAN LANE, SUITE 2,CONWAY,AR,72034.0",1,0,0,45,35.08404257,-92.49882314,0,0
427,"4102 N. MALL AVE.,FAYETTEVILLE,AR,72703.0",1,0,0,143,36.1257177,-94.1490579,0,0
428,"4104 HUNTER WAY,FORT SMITH,AR,72903.0",1,0,0,131,35.34238965,-94.33889486,0,0
429,"4104 LONGTREE COVE,LITTLE ROCK,AR,72212.0",1,0,0,119,34.7947257,-92.43070066,0,0
430,"4105 COUNTRY CLUB AVE.,FORT SMITH,AR,72903.0",0,0,1,131,35.35523944,-94.38742017,0,0
431,"411 EAST 7TH,MOUNTAIN HOME,AR,72653.0",1,0,0,5,36.33474132,-92.37957519,0,0
432,"411 WEST 16TH STREET,HOPE,AR,71801.0",1,0,0,57,33.65381936,-93.59214338,0,0
433,"4114 SOUTH 25TH STREET,FORT SMITH,AR,72901.0",1,0,0,131,35.34392304,-94.40709532,0,0
434,"4115 JEFFERSON AVE.,TEXARKANA,AR,71854",1,0,0,91,33.463616,-94.029484,0,0
435,"412 SHAMROCK DR.,LITTLE ROCK,AR,72205.0",0,0,1,119,34.75584236,-92.35661864,0,0
436,"412 W. BROADWAY,POCAHONTAS,AR,72455.0",1,0,0,121,36.2628485,-90.9737048,0,0
437,"4120 ZACHARY TRAIL,CONWAY,AR,72034.0",1,0,0,45,35.0073083,-92.46087077,0,0
438,"4126 CAMBRAY DR.,FAYETTEVILLE,AR,72703.0",1,0,0,143,36.125903,-94.1324799,0,0
439,"413 N. UNIVERSITY,LITTLE ROCK,AR,72205.0",1,0,0,119,34.75478328,-92.3409341,0,0
440,"414 HAZEL,TEXARKANA,AR,71854.0",1,0,0,91,33.4249047,-94.03947923,0,0
441,"416 WEST CHERRY,PIGGOTT,AR,72454.0",1,0,0,21,36.38427876,-90.19363806,0,0
442,"418 N. CEDAR ST.,LITTLE ROCK,AR,72205.0",1,0,0,119,34.75446046,-92.31742748,0,0
443,"419 THOMPSON,EL DORADO,AR,71730.0",1,0,0,139,33.21497719,-92.67035972,0,0
444,"420 VALLEY RANCH CIRCLE,LITTLE ROCK,AR,72223.0",1,0,1,119,34.78818692,-92.51303985,0,0
445,"4200 N. RODNEY PARHAM RD. #200,LITTLE ROCK,AR,72212.0",1,0,0,119,34.79029858,-92.39782238,0,0
446,"4200 N. RODNEY PARHAM RD.,LITTLE ROCK,AR,72212.0",1,0,0,119,34.79029858,-92.39782238,0,0
447,"4220 N. RODNEY PARHAM RD,LITTLE ROCK,AR,72212.0",1,0,0,119,34.7903879,-92.39772041,0,0
448,"4220 N. RODNEY PARHAM RD.,LITTLE ROCK,AR,72212.0",1,0,0,119,34.7903879,-92.39772041,0,0
449,"4220 N. RODNEY PARHAM, #200,LITTLE ROCK,AR,72212.0",1,0,0,119,34.7903879,-92.39772041,0,0
450,"4220 N. RODNEY PARHAM,LITTLE ROCK,AR,72212.0",2,0,1,119,34.7903879,-92.39772041,0,0
451,"4279 W WATER LILLY CT,FAYETTEVILLE,AR,72704.0",1,0,0,143,36.0938006,-94.2217531,0,0
452,"43 CHATEL DRIVE,LITTLE ROCK,AR,72223.0",1,0,0,119,34.80662408,-92.48075012,0,0
453,"4301 W. MARKHAM, SLOT #609,LITTLE ROCK,AR,72205.0",1,0,0,119,34.75029959,-92.35022893,0,0
454,"4305 MAKALA LANE,JONESBORO,AR,72404.0",1,0,0,31,35.77594004,-90.78172205,0,0
455,"432 NORTH WILLOW AVENUE,FAYETTEVILLE,AR,72701.0",0,0,1,143,36.0697143,-94.1542899,0,0
456,"433 S. MAIN STREET,MONTICELLO,AR,71655.0",1,0,0,43,33.62106484,-91.79150984,0,0
457,"4403 CENTRAL AVE.,HOT SPRINGS,AR,71913.0",2,0,0,51,34.45100704,-93.07811823,0,0
458,"4502C EAST VAN BUREN,EUREKA SPRINGS,AR,72632.0",1,0,0,15,36.37354928,-93.74482055,0,0
459,"453 PENZO AVE.,SPRINGDALE,AR,72762.0",1,0,0,143,36.18776687,-94.22925788,0,0
460,"4553 W. DIVIDE DR.,FAYETTEVILLE,AR,72704.0",1,0,0,143,36.10358413,-94.29661022,0,0
461,"47 HALLEN COURT,LITTLE ROCK,AR,72223.0",1,0,0,119,34.77741405,-92.47850423,0,0
462,"4700 WEST MARKHAM,LITTLE ROCK,AR,72205.0",1,0,0,119,34.75181718,-92.32507836,0,0
463,"4701 FAIRWAY, SUITE C,NORTH LITTLE ROCK,AR,72116.0",0,0,1,119,34.79864139,-92.23293103,0,0
464,"4720 CAMP ROBINSON, SUITE B,NORTH LITTLE ROCK,AR,72118.0",1,0,0,119,34.80161644,-92.26492456,0,0
465,"4816 WEST CROFT DR,FAYETTEVILLE,AR,72704.0",1,0,0,143,36.0674391,-94.2298353,0,0
466,"5 CHAMPAGNOLLE COURT,LITTLE ROCK,AR,72223.0",1,0,0,119,34.76945722,-92.47317636,0,0
467,"5 VAN CIRCLE,LITTLE ROCK,AR,72207.0",1,0,0,119,34.76303558,-92.33904552,0,0
468,"500 WEST 26TH,NORTH LITTLE ROCK,AR,72114.0",1,0,0,119,34.77861186,-92.27278409,0,0
469,"5008 SOUTH U  #101A,FORT SMITH,AR,72903.0",1,0,0,131,35.35140609,-94.36027995,0,0
470,"501 BRANDON DRIVE,BEEBE,AR,72012.0",1,0,0,145,35.07228402,-91.92284478,0,0
471,"501 N 6TH STREET,BLYTHEVILLE,AR,72315.0",2,0,0,93,35.93143019,-89.91008919,0,0
472,"501 PARK DRIVE,BENTONVILLE,AR,72712.0",1,0,0,7,36.39308037,-94.21490186,0,0
473,"505 EAST SIXTH ST.,TEXARKANA,AR,71854.0",1,0,0,91,33.42814674,-94.03882089,0,0
474,"505 FOREST OAK CV.,JACKSONVILLE,AR,72076.0",1,0,0,119,34.87806284,-92.15700364,0,0
475,"507 HUTSON,BLYTHEVILLE,AR,72315.0",1,0,0,93,35.93339334,-89.90859809,0,0
476,"508 S. 52ND ST.,ROGERS,AR,72758.0",2,0,0,7,36.32979789,-94.18671467,0,0
477,"51 ENCLAVE,PARAGOULD,AR,72450.0",1,0,0,55,36.03958456,-90.52999765,0,0
478,"5100 HAWTHORNE WAY,SPRINGDALE,AR,72762.0",1,0,0,143,36.14086897,-94.16384473,0,0
479,"5116 MADISON AVE.,JACKSONVILLE,AR,72076.0",1,0,0,119,34.8807038,-92.17408932,0,0
480,"5125 JOHN F. KENNEDY BLVD.,NORTH LITTLE ROCK,AR,72116.0",1,0,0,119,34.80273894,-92.25454167,0,0
481,"517 LYTTON AVE,FAYETTEVILLE,AR,72701.0",1,0,0,143,36.0567103,-94.1494685,0,0
482,"519 W. FAULKNER,EL DORADO,AR,71730.0",1,0,0,139,33.21448958,-92.65816311,0,0
483,"52 LAKELAND DR.,CABOT,AR,72023.0",1,0,0,85,35.03558824,-92.06366043,0,0
484,"520 HAMILTON LANE,GREENWOOD,AR,72936.0",1,0,0,131,35.21944657,-94.27503273,0,0
485,"520 S. 14TH,FORT SMITH,AR,72901.0",1,0,0,131,35.3790521,-94.41888691,0,0
486,"520 SOUTH 14TH STREET,FORT SMITH,AR,72901.0",1,0,0,131,35.3790521,-94.41888691,0,0
487,"5204 VILLAGE PARKWAY, SUITE 14,ROGERS,AR,72758.0",0,1,0,7,36.31700332,-94.19075726,0,0
488,"5220 STUDER RD,LITTLE ROCK,AR,72223.0",1,0,0,119,34.78818692,-92.51303985,0,0
489,"5240 MOUNT BETHEL DRIVE,ALTUS,AR,72821.0",1,0,0,47,35.44220677,-93.72355998,0,0
490,"525 N 2ND ST.,BLYTHEVILLE,AR,72315.0",1,0,0,93,35.93210282,-89.90434995,0,0
491,"5301 BRIDGER PARK CT.,JONESBORO,AR,72401.0",1,0,0,31,35.87921206,-90.66090513,0,0
492,"5320 W. SUNSET AVE., STE. 154,SPRINGDALE,AR,72762.0",1,0,0,143,36.17550775,-94.18893734,0,0
493,"54 MIDDLE ROAD,CONWAY,AR,72032.0",1,0,0,45,35.07600093,-92.39044049,0,0
494,"54 STONEHENGE DR.,BENTONVILLE,AR,72712.0",1,0,0,7,36.3984382,-94.22611306,0,0
495,"540 E. STATE HWY. 239,BLYTHEVILLE,AR,72315.0",1,0,0,93,35.92232181,-89.89185101,0,0
496,"5400 CHENONCEAU BLVD. #122,LITTLE ROCK,AR,72223.0",1,0,0,119,34.8078589,-92.46871848,0,0
497,"5400 CHENONCEAU BLVD., APT. 102,LITTLE ROCK,AR,72223.0",0,0,1,119,34.8078589,-92.46871848,0,0
498,"5400 CHENONCEAU BLVD., APT. 715,LITTLE ROCK,AR,72223.0",1,0,0,119,34.8078589,-92.46871848,0,0
499,"5402 WOODBURY COVE,PARAGOULD,AR,72450.0",1,0,0,55,36.02463393,-90.56001176,0,0
500,"5417 PINNACLE POINT DR.,ROGERS,AR,72758.0",1,0,0,7,36.311772,-94.18806976,0,0
501,"5422 EUPER LANE,FORT SMITH,AR,72903.0",1,0,0,131,35.36423283,-94.37257682,0,0
502,"550 CHESTNUT STREET,CONWAY,AR,72032.0",2,0,0,45,35.08710825,-92.43774753,0,0
503,"550 CHESTNUT,CONWAY,AR,72032.0",1,0,0,45,35.08710825,-92.43774753,0,0
504,"550 W. 46TH AVE.,PINE BLUFF,AR,71603.0",1,0,0,69,34.18357251,-92.0072985,0,0
505,"5500 W. MARKHAM,LITTLE ROCK,AR,72205.0",1,0,0,119,34.75210623,-92.33474757,0,0
506,"5504 S. LANSHIRE,ROGERS,AR,72758.0",1,0,0,7,36.28237399,-94.21260945,0,0
507,"5505 EUPER LANE,FORT SMITH,AR,72903.0",1,0,0,131,35.36439506,-94.3716249,0,0
508,"5508 PINNACLE POINT DR STE A,ROGERS,AR,72758.0",1,0,0,7,36.31214068,-94.19016809,0,0
509,"562 LOCUST ST.,CONWAY,AR,72034.0",1,0,0,45,35.08588345,-92.44100675,0,0
510,"562 LOCUST,CONWAY,AR,72034.0",1,0,0,45,35.08588345,-92.44100675,0,0
511,"5645 GREENE 628 RD,PARAGOULD,AR,72450.0",1,0,0,55,35.96528285,-90.46783521,0,0
512,"5709 RED LEAF POINT,BENTON,AR,72019.0",1,0,0,125,34.63535248,-92.68945976,0,0
513,"58 BELLE MEADOW LANE,LITTLE ROCK,AR,72210.0",1,0,0,119,34.69263425,-92.43770003,0,0
514,"5921 HWY 5 NORTH,BRYANT,AR,72022.0",1,0,0,125,34.62712719,-92.49719257,0,0
515,"6 AUBURN HILLS DR.,GREENBRIER,AR,72058.0",1,0,0,45,35.18871773,-92.45078733,0,0
516,"6 LONDONDERRY CIR.,WYNNE,AR,72396.0",1,0,0,37,35.2247058,-90.77310847,0,0
517,"6 LONGLEA COVE,LITTLE ROCK,AR,72212.0",1,0,0,119,34.78472575,-92.42749718,0,0
518,"6 WINDSONG DRIVE,NORTH LITTLE ROCK,AR,72113.0",0,0,1,119,34.81698364,-92.3488027,0,0
519,"601 W WALNUT,ROGERS,AR,72756.0",1,0,0,7,36.33345925,-94.12249474,0,0
520,"604 S. 52ND ST.,ROGERS,AR,72758.0",1,0,0,7,36.32792268,-94.18700751,0,0
521,"606 OLD CANYON COVE,JONESBORO,AR,72404.0",0,0,1,31,35.80494819,-90.71237449,0,0
522,"606 W. SEARCY ST.,HEBER SPRINGS,AR,72543.0",0,0,1,23,35.49082912,-92.03458439,0,0
523,"607 ASBURY ROAD,LITTLE ROCK,AR,72211.0",1,0,0,119,34.75059736,-92.42649504,0,0
524,"607 FRONT ST.,CONWAY,AR,72032.0",1,0,0,45,35.0873729,-92.43952788,0,0
525,"607 FRONT STREET,CONWAY,AR,72032.0",1,0,1,45,35.0873729,-92.43952788,0,0
526,"608 SHADY ACRES LANE,PRAIRIE GROVE,AR,72753.0",1,0,0,143,35.98342185,-94.32513959,0,0
527,"610 W. MAIN,HEBER SPRINGS,AR,72543.0",1,0,0,23,35.49187791,-92.03518479,0,0
528,"6104 NOBLE ST.,ROGERS,AR,72758.0",1,0,0,7,36.28498632,-94.20255338,0,0
529,"613 LEXINGTON,FORT SMITH,AR,72901.0",1,0,0,131,35.3781348,-94.41756586,0,0
530,"615 EAST APPLEBY,FAYETTEVILLE,AR,72703.0",1,0,0,143,36.1047466,-94.149591,0,0
531,"616 SAINT MICHAEL PL,LITTLE ROCK,AR,72211.0",0,0,1,119,34.75936264,-92.42949362,0,0
532,"619 BEECHWOOD,LITTLE ROCK,AR,72205.0",1,0,0,119,34.75663893,-92.32411303,0,0
533,"6226 BASELINE RD.,LITTLE ROCK,AR,72209.0",1,0,0,119,34.66934493,-92.34709411,0,0
534,"624 W. POPLAR,ROGERS,AR,72756.0",1,0,0,7,36.33134356,-94.12335344,0,0
535,"635 BOSWELL STREET,BATESVILLE,AR,72501.0",1,0,0,63,35.77156202,-91.64757935,0,0
536,"635 E. BOSWELL,BATESVILLE,AR,72501.0",1,0,0,63,35.77156202,-91.64757935,0,0
537,"640 N. GARLAND AVE SUITE 104,FAYETTEVILLE,AR,72701.0",1,0,0,143,36.0728261,-94.1751674,0,0
538,"6515 W. PLEASANT WAY,ROGERS,AR,72758.0",1,0,0,7,36.28963072,-94.20645971,0,0
539,"6562 BROADLEAF DRIVE,ALMA,AR,72921.0",1,0,0,33,35.54757259,-94.17754631,0,0
540,"659 E ABBLEBY RD.,FAYETTEVILLE,AR,72703.0",1,0,0,143,36.1049794,-94.1487715,0,0
541,"6600 BASELINE RD.,LITTLE ROCK,AR,72209.0",1,0,0,119,34.66945941,-92.35092272,0,0
542,"6602 WEST BRAEBOURNE DR.,ROGERS,AR,72758.0",1,0,0,7,36.2814613,-94.21114483,0,0
543,"6605 SOUTH S STREET,FORT SMITH,AR,72903.0",1,0,0,131,35.36186372,-94.35958159,0,0
544,"6771 FREEDOM PLACE,SPRINGDALE,AR,72762.0",1,0,0,143,36.15582883,-94.20584457,0,0
545,"7 EDENWOOD LANE,NORTH LITTLE ROCK,AR,72116.0",1,0,0,119,34.81635476,-92.24777396,0,0
546,"701 S. HORSEBARN RD., STE. 102,ROGERS,AR,72758.0",1,0,0,7,36.3278004,-94.18862529,0,0
547,"701 WEST OAK STREET,EL DORADO,AR,71730.0",1,0,0,139,33.21370195,-92.67179659,0,0
548,"705 WEST FAULKNER,EL DORADO,AR,71730.0",0,0,1,139,33.2146314,-92.67201547,0,0
549,"707 W. FAULKNER ST.,EL DORADO,AR,71730.0",0,0,1,139,33.21463415,-92.67211942,0,0
550,"7104 ELLSWORTH ROAD,FORT SMITH,AR,72903.0",0,0,1,131,35.36613768,-94.35400273,0,0
551,"712 W. MEADOW ST.,SPRINGDALE,AR,72764.0",1,0,0,143,36.18442956,-94.13703151,0,0
552,"714 N. MARR ST.,POCAHONTAS,AR,72455.0",1,0,0,121,36.26487766,-90.9679219,0,0
553,"716 S. PINE,HARRISON,AR,72601.0",1,0,0,9,36.23721614,-93.09177009,0,0
554,"7208 M STREET,LITTLE ROCK,AR,72207.0",1,0,0,119,34.76455024,-92.35403874,0,0
555,"7215 SHERIDAN RD.,WHITE HALL,AR,71602.0",1,0,0,69,34.25436688,-92.0871571,0,0
556,"7247 BROOKLYN AVE.,SPRINGDALE,AR,72762.0",1,0,0,143,36.17983456,-94.2108062,0,0
557,"727 N. CARDINAL,MOUNTAIN HOME,AR,72653.0",1,0,0,5,36.34660348,-92.3709094,0,0
558,"737 EAST 9TH,RECTOR,AR,72461.0",1,0,0,21,36.25905169,-90.28538365,0,0
559,"740 SOUTH HOLLY STREET,SILOAM SPRINGS,AR,72761.0",1,0,0,7,36.17870923,-94.55944312,0,0
560,"7500 E WHITE RIVER RIDGE,FAYETTEVILLE,AR,72701.0",0,0,1,143,36.0931601,-94.0512571,0,0
561,"7517 WARDEN ROAD,SHERWOOD,AR,72120.0",1,0,0,119,34.82465304,-92.19440365,0,0
562,"791 ROBERTS DRIVE,MONTICELLO,AR,71655.0",1,0,0,43,33.63090277,-91.74648856,0,0
563,"7924 CANTRELL RD.,LITTLE ROCK,AR,72227.0",1,0,0,119,34.77527656,-92.36193668,0,0
564,"8 KEENELAND DRIVE,LITTLE ROCK,AR,72223.0",1,0,0,119,34.81313587,-92.4601063,0,0
565,"8 RIDGEVIEW COURT,LITTLE ROCK,AR,72227.0",1,0,0,119,34.77926776,-92.36969253,0,0
566,"8 RIVER VIEW PT.,LITTLE ROCK,AR,72227.0",1,0,0,119,34.79042032,-92.37059355,0,0
567,"800 LOCUST,CONWAY,AR,72034.0",1,0,0,45,35.08898645,-92.44232784,0,0
568,"800 MARSHALL, SLOT 707,LITTLE ROCK,AR,72201.0",0,1,0,119,34.74727583,-92.27979049,0,0
569,"800 MT. HOLLY ROAD,EL DORADO,AR,71730.0",1,0,0,139,33.20201387,-92.62922902,0,0
570,"800 WEST B STREET,RUSSELLVILLE,AR,72801.0",1,0,0,115,35.28084581,-93.13976305,0,0
571,"8028 CANTRELL RD.,LITTLE ROCK,AR,72227.0",1,0,1,119,34.77623237,-92.36300449,0,0
572,"805 N PALM,LITTLE ROCK,AR,72205.0",1,0,0,119,34.7582424,-92.32523937,0,0
573,"805 N. 20TH PLACE #2,ROGERS,AR,72756.0",1,0,0,7,36.34137392,-94.14627043,0,0
574,"805 N. PALM,LITTLE ROCK,AR,72205.0",2,0,0,119,34.7582424,-92.32523937,0,0
575,"806 N. 20TH PL.,ROGERS,AR,72756.0",1,0,0,7,36.34135684,-94.1460933,0,0
576,"806 N. 20TH PLACE,ROGERS,AR,72756.0",1,0,0,7,36.34135684,-94.1460933,0,0
577,"807 W. GRAND AVE.,HOT SPRINGS,AR,71913.0",1,0,0,51,34.50168881,-93.06576156,0,0
578,"809 MARSHALL ROAD,JACKSONVILLE,AR,72076.0",1,0,0,119,34.87260638,-92.12677243,0,0
579,"811 S.E. 28TH ST. SUITE 7,BENTONVILLE,AR,72712.0",1,0,0,7,36.3427337,-94.20236332,0,0
580,"811 SOUTHEAST 28TH ST., SUITE 7,BENTONVILLE,AR,72712.0",1,0,0,7,36.3427337,-94.20236332,0,0
581,"8116 CANTRELL RD., #C,LITTLE ROCK,AR,72227.0",1,0,0,119,34.77678634,-92.3643372,0,0
582,"815 MARSHALL ROAD,JACKSONVILLE,AR,72076.0",1,0,0,119,34.87331824,-92.1267595,0,0
583,"815 W. PERSIMMON,ROGERS,AR,72756.0",1,0,0,7,36.33727249,-94.1258832,0,0
584,"817 NO. WASHINGTON,MAGNOLIA,AR,71753.0",1,0,0,27,33.35820934,-93.29943631,0,0
585,"82 SOUTHWINDS DRIVE,FARMINGTON,AR,72730.0",1,0,0,143,36.03970859,-94.2506619,0,0
586,"82 SOUTHWINDS,FARMINGTON,AR,72730.0",1,0,0,143,36.03970859,-94.2506619,0,0
587,"820 N. UNIVERSITY AVE.,LITTLE ROCK,AR,72205.0",1,0,0,119,34.75845102,-92.34111377,0,0
588,"824 N. SPRING,HARRISON,AR,72601.0",1,0,0,9,36.23721614,-93.09177009,0,0
589,"8309 PHEONIX AVE,FORT SMITH,AR,72903.0",2,0,0,131,35.34583966,-94.34064992,0,0
590,"8309 PHOENIX AVE,FORT SMITH,AR,72903.0",1,0,0,131,35.34583966,-94.34064992,0,0
591,"831 S. MAIN ST.,SEARCY,AR,72143.0",1,0,0,145,35.24026845,-91.73619999,0,0
592,"833 N. CURTIS,PEA RIDGE,AR,72751.0",1,0,0,7,36.4488462,-94.11537373,0,0
593,"8420 MILE TREE DRIVE,FORT SMITH,AR,72903.0",0,0,1,131,35.36469311,-94.3390252,0,0
594,"8450 SR 164 E,RUSSELLVILLE,AR,72802.0",1,0,0,115,35.35978189,-92.9849457,0,0
595,"8524 LEATRICE,LITTLE ROCK,AR,72227.0",1,0,0,119,34.77096444,-92.36863126,0,0
596,"87 RIDGE CREEK POINT,ARKADELPHIA,AR,71923.0",1,0,0,19,34.15219776,-93.09215271,0,0
597,"8901 JENNY LIND AVE., STE. 6-A,FORT SMITH,AR,72908.0",1,0,0,131,35.30131724,-94.40917457,0,0
598,"891 NORTH MAIN AVENUE,FAYETTEVILLE,AR,72701.0",1,0,0,143,36.0085184,-94.1738617,0,0
599,"900 SOUTHWEST DR., SUITE D,JONESBORO,AR,72401.0",1,0,0,31,35.81023362,-90.71865903,0,0
600,"9004 JENNY LIND RD.,FORT SMITH,AR,72908.0",1,0,0,131,35.30649934,-94.40914798,0,0
601,"9007 KANIS RD.,LITTLE ROCK,AR,72205.0",1,0,0,119,34.74029452,-92.37352131,0,0
602,"904 AUTUMN ROAD, SUITE 450,LITTLE ROCK,AR,72211.0",1,0,0,119,34.74692965,-92.40288686,0,0
603,"906 S. PINE ST. #5,CABOT,AR,72023.0",1,0,0,85,34.95961647,-92.00850364,0,0
604,"911 N. WALTON BLVD.,BENTONVILLE,AR,72712.0",1,0,0,7,36.38225713,-94.22123307,0,0
605,"920 W. EMMA AVE.,SPRINGDALE,AR,72762.0",1,0,0,143,36.18516199,-94.13759205,0,0
606,"920 WEST EMMA,SPRINGDALE,AR,72764.0",2,0,0,143,36.18516199,-94.13759205,0,0
607,"945 N. GASKILL ST. SUITE #1,HUNTSVILLE,AR,72740.0",1,0,0,87,36.09462735,-93.74330774,0,0
608,"95 BEAVERFORK ROAD,CONWAY,AR,72032.0",1,0,0,45,35.13668287,-92.41870528,0,0
609,"9501 RODNEY PARHAM RD.,LITTLE ROCK,AR,72227.0",2,0,0,119,34.75903256,-92.3790714,0,0
610,"9509 HIGHWAY 107,SHERWOOD,AR,72120.0",1,0,0,119,34.84185484,-92.23166911,0,0
611,"960 B SOUTH MT. OLIVE,SILOAM SPRINGS,AR,72761.0",1,0,0,7,36.17015303,-94.45813089,0,0
612,"9601 BAPTIST HEALTH DR #950,LITTLE ROCK,AR,72205.0",1,0,0,119,34.75029959,-92.35022893,0,0
613,"9601 BAPTIST HEALTH DR., SUITE 104,LITTLE ROCK,AR,72205.0",1,0,0,119,34.75029959,-92.35022893,0,0
614,"9601 BAPTIST HEALTH DR.,LITTLE ROCK,AR,72205.0",1,0,0,119,34.75029959,-92.35022893,0,0
615,"9801 STAGECOACH RD.,LITTLE ROCK,AR,72210.0",2,0,0,119,34.66298227,-92.42320971,0,0
616,"9911 GLEN FLORA CIR.,FORT SMITH,AR,72908.0",0,0,1,131,35.28985898,-94.38944279,0,0
617,"998 SHADY GROVE RD STE G,HOT SPRINGS,AR,71901.0",1,0,0,51,34.46321224,-93.02675954,0,0
618,"9C CRESTVIEW PLAZA,JACKSONVILLE,AR,72076.0",1,0,0,119,34.86778834,-92.12319913,0,0
619,"ARKANSAS DEPARTMENT OF CORRE/,PINE BLUFF,AR,71602.0",1,0,0,69,34.26709409,-92.14304744,0,0
620,"HOT SPRINGS REHAB CENTER,HOT SPRINGS,AR,71901.0",1,0,0,51,34.526908,-92.97170369,0,0
621,"P O BOX 1267,HEBER SPRINGS,AR,72543.0",1,0,0,23,35.45357073,-91.98886553,0,0
622,"P.O BOX 69,FLIPPIN,AR,72634.0",1,0,0,89,36.20351868,-92.52833344,0,0
623,"P.O. BOX 10,SALEM,AR,72576.0",1,0,0,49,36.35160344,-91.8466703,0,0
624,"P.O. BOX 1022,BRYANT,AR,72089.0",1,0,0,125,34.596252,-92.486894,0,0
625,"P.O. BOX 10548,CONWAY,AR,72034.0",1,0,0,45,35.05045535,-92.4868005,0,0
626,"P.O. BOX 1115,CABOT,AR,72023.0",1,0,0,85,34.95755771,-92.056487,0,0
627,"P.O. BOX 1133,MAGNOLIA,AR,71754.0",1,0,0,27,33.267422,-93.23923,0,0
628,"P.O. BOX 1426,GRAVETTE,AR,72736.0",1,0,0,7,36.41216819,-94.4640715,0,0
629,"P.O. BOX 154,AMITY,AR,71921.0",1,0,0,19,34.24925995,-93.3934793,0,0
630,"P.O. BOX 175,WEST MEMPHIS,AR,72303.0",1,0,0,35,35.14701,-90.185924,0,0
631,"P.O. BOX 180520,FORT SMITH,AR,72918.0",1,0,0,131,35.301729,-94.408019,0,0
632,"P.O. BOX 197,MENA,AR,71953.0",1,0,0,113,34.61428097,-94.19488117,0,0
633,"P.O. BOX 216,CALICO ROCK,AR,72519.0",1,0,0,65,36.12025659,-92.18658823,0,0
634,"P.O. BOX 217,QUITMAN,AR,72131.0",1,0,0,23,35.4099423,-92.1922348,0,0
635,"P.O. BOX 3237,BELLA VISTA,AR,72715.0",1,0,0,7,36.46533054,-94.30633621,0,0
636,"P.O. BOX 368,MELBOURNE,AR,72556.0",1,0,0,65,36.02358676,-91.95912559,0,0
637,"P.O. BOX 4,GLENWOOD,AR,71943.0",1,0,0,109,34.33946339,-93.59492485,0,0
638,"P.O. BOX 61,PARAGOULD,AR,72450.0",1,0,0,55,36.07938065,-90.51878352,0,0
639,"P.O. BOX 679,SILOAM SPRINGS,AR,72761.0",1,0,0,7,36.17015303,-94.45813089,0,0
640,"P.O. BOX 7302,LITTLE ROCK,AR,72217.0",1,0,0,119,34.775922,-92.357628,0,0
641,"P.O. BOX 907,WALDRON,AR,72958.0",1,0,0,127,34.90486874,-94.12450727,0,0
642,"PO BOX 10007,FORT SMITH,AR,72916.0",1,0,0,131,35.26801912,-94.37663198,0,0
643,"PO BOX 10522,CONWAY,AR,72034.0",1,0,0,45,35.05045535,-92.4868005,0,0
644,"PO BOX 1305,HARRISON,AR,72602.0",1,0,0,9,36.22696,-93.115091,0,0
645,"PO BOX 1370/1702 HIGHWAY 367 N,BALD KNOB,AR,72010.0",0,1,0,145,35.32036584,-91.53603072,0,0
646,"PO BOX 190,MOUNTAIN VIEW,AR,72560.0",1,0,0,137,35.85170901,-92.0917843,0,0
647,"PO BOX 2265,HARRISON,AR,72601.0",1,0,0,9,36.23721614,-93.09177009,0,0
648,"PO BOX 22951,HOT SPRINGS,AR,71903.0",1,0,0,51,34.525891,-92.99636,0,0
649,"PO BOX 2358,HARRISON,AR,72602.0",1,0,0,9,36.22696,-93.115091,0,0
650,"PO BOX 241892,LITTLE ROCK,AR,72223.0",1,0,0,119,34.78818692,-92.51303985,0,0
651,"PO BOX 248,GREENBRIER,AR,72058.0",1,0,0,45,35.24218251,-92.37060576,0,0
652,"PO BOX 277/102 WEST MCNEIL,MAGNOLIA,AR,71754.0",1,0,0,27,33.267422,-93.23923,0,0
653,"PO BOX 284,RECTOR,AR,72461.0",1,0,0,21,36.26526812,-90.28516893,0,0
654,"PO BOX 30854,LITTLE ROCK,AR,72260.0",1,0,0,119,34.747293,-92.286658,0,0
655,"PO BOX 327,WALNUT RIDGE,AR,72476.0",1,0,0,75,36.05176536,-90.91951473,0,0
656,"PO BOX 37/2320 ST. HWY 7 NORTH,DARDANELLE,AR,72834.0",1,0,0,149,35.1683284,-93.18257834,0,0
657,"PO BOX 475,VAN BUREN,AR,72957.0",1,0,0,33,35.438608,-94.352594,0,0
658,"PO BOX 516,KEISER,AR,72351.0",1,0,0,93,35.67371568,-90.09632678,0,0
659,"PO BOX 582,SILOAM SPRINGS,AR,72761.0",1,0,0,7,36.17015303,-94.45813089,0,0
