idx,IKN_addr,general,pediatric,specialist,Y_lat,X_long,med_indicator,chip_indicator
0,"1000 WIGWAM PKWY STE 120,HENDERSON,NV,89074-8164",1.5,0.0,0.0,36.03357605,-115.0325928,1,0
1,"101 CARSON RD STE 1,BATTLE MOUNTAIN,NV,89820-2323",1.0,0.0,0.0,40.63299399,-116.9499993,1,0
2,"1017 E BASIN AVE STE 1,PAHRUMP,NV,89060-4532",1.316731774948919,0.11011904761904764,0.125,36.21960753,-115.99618410000001,1,0
3,"10400 S EASTERN AVE,HENDERSON,NV,89052-3957",0.0,2.5625,0.0,36.00170696,-115.1076044,1,0
4,"1055 S WELLS AVE,RENO,NV,89502-2550",7.0,0.0,0.0,39.515696999999996,-119.80322759999999,1,0
5,"10645 DOUBLE R BLVD,RENO,NV,89521-8920",0.7575757575757576,0.16666666666666666,0.75,39.42819337,-119.75218419999999,1,0
6,"1070 N RANCHO DR,LAS VEGAS,NV,89106-1008",1.0,0.0,0.0,36.18315915,-115.180945,1,0
7,"10960 S EASTERN AVE STE 112,HENDERSON,NV,89052-4974",1.0,0.0,0.0,35.9937708,-115.100828,1,0
8,"1101 W MOANA LN STE 4,RENO,NV,89509-4734",2.125,0.5,0.0,39.49123546,-119.8092817,1,0
9,"1105 S WELLS AVE,RENO,NV,89502-2525",1.0,0.0,0.0,39.51470392,-119.8032452,1,0
10,"1111 N DECATUR BLVD,LAS VEGAS,NV,89108-1220",0.2577639751552795,0.0,0.0,36.18326674,-115.2062476,1,0
11,"1125 N MCCARRAN BLVD STE 107,SPARKS,NV,89431-4607",2.1956084656084656,0.03571428571428571,0.39210950080515294,39.54304093,-119.7338493,1,0
12,"1125 N MCCARRAN BLVD STE 109 # 111,SPARKS,NV,89431-4607",1.1956084656084656,0.03571428571428571,0.058776167471819636,39.54304093,-119.7338493,1,0
13,"1125 N MCCARRAN BLVD STE 111,SPARKS,NV,89431-4607",1.6192982456140348,0.0,0.0,39.54304093,-119.7338493,1,0
14,"1130 N HILLS BLVD STE 101,RENO,NV,89506-6723",0.7575757575757576,0.6666666666666666,0.0,39.60647418,-119.8428115,1,0
15,"1212 S MARYLAND PKWY,LAS VEGAS,NV,89104-1728",1.0,0.0,0.0,36.15599281,-115.1375231,1,0
16,"1241 S TAYLOR ST,FALLON,NV,89406-5804",0.09090909090909093,0.4166666666666666,0.0,39.463685999999996,-118.7815449,1,0
17,"1264 S NELLIS BLVD,LAS VEGAS,NV,89104-5782",0.625,0.0,0.0,36.15683526,-115.0623612,1,0
18,"1274 E PLUMB LN STE C,RENO,NV,89502-6916",0.125,0.0,0.0,39.50585948,-119.783322,1,0
19,"1301 BERTHA HOWE AVE STE 5,MESQUITE,NV,89027-7503",0.5,0.0,0.0,36.80848717,-114.11625649999999,1,0
20,"1301 N MCCARRAN BLVD STE 104,SPARKS,NV,89431-3870",2.0,0.5,0.0,39.54545949,-119.73383759999999,1,0
21,"1306 W CRAIG RD STE H,N LAS VEGAS,NV,89032-0215",0.07142857142857142,0.0,0.0,36.23950346,-115.15934250000001,1,0
22,"1321 W SUNSET RD STE 100,HENDERSON,NV,89014-6768",0.5,0.0,0.0,36.06358453,-115.0441605,1,0
23,"1328 US HIGHWAY 395 N STE 305,GARDNERVILLE,NV,89410-7368",1.0,0.0,0.0,38.93530437,-119.73837820000001,1,0
24,"1350 S DECATUR BLVD,LAS VEGAS,NV,89102-8510",0.0,0.0,1.5,36.15518969,-115.20811909999999,1,0
25,"1350 S JONES BLVD STE 140,LAS VEGAS,NV,89146-1233",0.5,0.0,0.0,36.15682587,-115.2248438,1,0
26,"1351 W SUNSET RD STE 100,HENDERSON,NV,89014-8608",2.7642376142376146,0.0,0.0,36.063585499999995,-115.044642,1,0
27,"1420 E NEVADA HIGHWAY 372,PAHRUMP,NV,89048-2145",2.383649068182001,0.047619047619047616,0.125,36.20710595,-115.9887967,1,0
28,"1420 US HIGHWAY 95A N STE 2,FERNLEY,NV,89408-4602",1.0492424242424243,0.047619047619047616,0.0,39.60816937,-119.22174299999999,1,0
29,"1420 US HIGHWAY 95A N,FERNLEY,NV,89408-7724",0.5,0.0,0.0,39.60816937,-119.22174299999999,1,0
30,"1450 W HORIZON RIDGE PKWY STE B311,HENDERSON,NV,89012-4481",1.0,0.0,0.0,36.02113607,-115.04955079999999,1,0
31,"1470 MEDICAL PKWY STE 260,CARSON CITY,NV,89703-4647",1.0,0.0,0.0,39.20057557,-119.78594170000001,1,0
32,"1485 US HIGHWAY 395 N,GARDNERVILLE,NV,89410-5214",0.125,0.047619047619047616,0.0,38.944280600000006,-119.75302490000001,1,0
33,"15 PARADISE AVE,WINNEMUCCA,NV,89445-2700",1.0,0.0,0.0,40.98064455,-117.7410848,1,0
34,"150 S HIGHWAY 160 STE 11C,PAHRUMP,NV,89048-2133",0.0,0.0,0.037037037037037035,36.21805133,-115.9936429,1,0
35,"150 S HIGHWAY 160 STE C-11,PAHRUMP,NV,89048-2176",0.3333333333333333,0.0,0.0,36.21805133,-115.9936429,1,0
36,"150 S NEVADA HIGHWAY 160 STE C-11,PAHRUMP,NV,89048-2176",0.3333333333333333,0.0,0.037037037037037035,36.21805133,-115.9936429,1,0
37,"1500 E DESERT INN RD STE 1,LAS VEGAS,NV,89169-2550",0.6176045878421921,0.047619047619047616,0.0,36.12984649,-115.1318425,1,0
38,"1500 E DESERT INN RD,LAS VEGAS,NV,89169-2550",0.4907929936392935,0.047619047619047616,0.0,36.12984649,-115.13184240000001,1,0
39,"1520 N EASTERN AVE STE 105,LAS VEGAS,NV,89101-1506",1.8666666666666667,0.0,0.0,36.18709047,-115.1159875,1,0
40,"1521 W WILSON RD,PAHRUMP,NV,89048-4213",0.0,0.0,1.0,36.21221546,-116.0416123,1,0
41,"155 S C ST,HAWTHORNE,NV,89415",1.0,0.0,0.0,38.51766011,-118.62652859999999,1,0
42,"1552 W WARM SPRINGS RD STE 120,HENDERSON,NV,89014-4328",1.0,0.0,0.0,36.05629152,-115.0524315,1,0
43,"1559 WATASHEAMU RD,GARDNERVILLE,NV,89460-7455",1.0,0.0,0.0,38.90013157,-119.71794720000001,1,0
44,"1570 S RAINBOW BLVD,LAS VEGAS,NV,89146-2956",0.0,0.0,1.0,36.15357597,-115.2432791,1,0
45,"1580 E DESERT INN RD,LAS VEGAS,NV,89169-2548",2.9333333333333336,0.0,0.2,36.12985452,-115.13101440000001,1,0
46,"1600 W SUNSET RD STE B,HENDERSON,NV,89014-2655",0.0,1.0,0.0,36.06379246,-115.05548200000001,1,0
47,"1621 E FLAMINGO RD STE 17A,LAS VEGAS,NV,89119-5276",1.0,0.0,0.0,36.11447383,-115.13018229999999,1,0
48,"1651 BOULDER CITY PKWY,BOULDER CITY,NV,89005-1909",0.3448773151149193,0.047619047619047616,0.0,35.96885482,-114.8579771,1,0
49,"16580 WEDGE PKWY STE 100,RENO,NV,89511-3211",0.0,0.5,0.0,39.39804804,-119.7659051,1,0
50,"1675 MEADOWVIEW LN,RENO,NV,89509-5216",0.0,0.25,0.0,39.48829949,-119.8158398,1,0
51,"169 N NELLIS BLVD,LAS VEGAS,NV,89110-5320",2.1908479958708797,0.0,0.0,36.16286892,-115.0623429,1,0
52,"1700 E CHARLESTON BLVD,LAS VEGAS,NV,89104-1903",0.2,0.0,0.0,36.15884648,-115.12839050000001,1,0
53,"1700 W CHARLESTON BLVD BLDG A,LAS VEGAS,NV,89102-2335",11.03125,1.0,3.0,36.1590108,-115.16451129999999,1,0
54,"1700 W CHARLESTON BLVD BLDG D,LAS VEGAS,NV,89102-2335",2.5,0.0,3.0,36.1590108,-115.16451129999999,1,0
55,"1700 W CHARLESTON BLVD,LAS VEGAS,NV,89102-2335",52.9376984126984,1.3928571428571428,7.533333333333332,36.1590108,-115.16447269999999,1,0
56,"1701 COUNTY RD STE 1,MINDEN,NV,89423-4464",0.09090909090909093,0.2976190476190476,0.0,38.95590509,-119.7786993,1,0
57,"1701 W CHARLESTON BLVD STE 520,LAS VEGAS,NV,89102-2309",0.0,0.0,0.2217391304347826,36.15876449,-115.16374340000002,1,0
58,"1701 W CHARLESTON BLVD,LAS VEGAS,NV,89102-2325",0.5,0.0,0.0,36.15876449,-115.16374340000002,1,0
59,"1703 CIVIC CENTER DR STE 5,NORTH LAS VEGAS,NV,89030-7273",0.0,0.0,0.5,36.19106105,-115.11631799999999,1,0
60,"1703 CIVIC CENTER DR STE 6,NORTH LAS VEGAS,NV,89030-7273",0.6666666666666666,0.0,0.0,36.19106147,-115.1163081,1,0
61,"1707 W CHARLESTON BLVD STE 290,LAS VEGAS,NV,89102-2353",2.0,0.25,1.0,36.15877152,-115.16437350000001,1,0
62,"1707 W CHARLESTON BLVD,LAS VEGAS,NV,89102-2351",0.5,0.0,0.0,36.15877152,-115.16437350000001,1,0
63,"1725 E WARM SPRINGS RD STE 2,LAS VEGAS,NV,89119-0421",0.5741758241758241,0.0,0.7,36.05758151,-115.12893170000001,1,0
64,"1750 WHEELER PEAK DR,LAS VEGAS,NV,89106-2150",0.6031746031746031,1.75,0.0,36.19015701,-115.16285719999999,1,0
65,"1775 VILLAGE CENTER CIR STE 150,LAS VEGAS,NV,89134-0571",1.0,0.0,0.0,36.1931275,-115.3003543,1,0
66,"1780 N BUFFALO DR STE 109,LAS VEGAS,NV,89128-2675",1.0,0.0,0.0,36.19071092,-115.25998500000001,1,0
67,"1789 COLLEGE PKWY STE 121,CARSON CITY,NV,89706-7976",1.0,0.0,0.0,39.18999051,-119.747331,1,0
68,"1811 S RAINBOW BLVD STE 101,LAS VEGAS,NV,89146-0855",1.3333333333333333,0.0,0.0,36.15087513,-115.24341650000001,1,0
69,"1811 S RAINBOW BLVD,LAS VEGAS,NV,89146-0894",0.0,0.0,1.0,36.15087513,-115.24341650000001,1,0
70,"1820 E LAKE MEAD BLVD STE G,NORTH LAS VEGAS,NV,89030-7134",0.6731601433977475,0.047619047619047616,0.0,36.19585151,-115.1214202,1,0
71,"1825 S NELLIS BLVD,LAS VEGAS,NV,89104-6215",0.75,0.0,0.0,36.15081586,-115.06542479999999,1,0
72,"1860 E CHARLESTON BLVD,LAS VEGAS,NV,89104-1949",2.2691411651821864,0.08834586466165413,0.10877616747181963,36.15877149,-115.12390420000001,1,0
73,"1985 N NELLIS BLVD,LAS VEGAS,NV,89115-3647",0.4021164021164021,0.0,0.0,36.19597161,-115.0622834,1,0
74,"2030 E FLAMINGO RD STE 288,LAS VEGAS,NV,89119-5163",0.5,0.0,0.5,36.11478139,-115.1247245,1,0
75,"2047 W CHARLESTON BLVD STE 100,LAS VEGAS,NV,89102-2251",0.0,0.0,2.0,36.15877652,-115.169931,1,0
76,"207 W WINNIE LN,CARSON CITY,NV,89703",0.8201970443349753,0.0,0.26785714285714285,39.17912226,-119.7680075,1,0
77,"2075 E WINDMILL LN STE 110,LAS VEGAS,NV,89123-2084",0.3333333333333333,0.0,0.0,36.04228706,-115.1230284,1,0
78,"2085 VILLAGE CENTER CIR STE 120,LAS VEGAS,NV,89134-6263",0.0,0.09090909090909093,0.0,36.1900143,-115.30382040000002,1,0
79,"210 S MARYLAND PKWY STE A,LAS VEGAS,NV,89101-5319",1.0,0.0,0.0,36.16425434,-115.1337595,1,0
80,"2145 GREEN VISTA DR STE 110,SPARKS,NV,89431-8513",1.0,0.0,0.0,39.55944454,-119.7729196,1,0
81,"2175 E CHEYENNE AVE STE 100,NORTH LAS VEGAS,NV,89030-8438",0.7271521924297668,0.0,0.1924262649377066,36.21763147,-115.11901110000001,1,0
82,"2212 S EASTERN AVE,LAS VEGAS,NV,89104-4124",1.0416666666666663,0.0,0.0,36.146619,-115.1188866,1,0
83,"2217 E LAKE MEAD BLVD,NORTH LAS VEGAS,NV,89030-7137",3.762067789912815,0.4694264069264071,1.555072463768116,36.19577672,-115.11807579999999,1,0
84,"222 KAREN AVE UNIT 2503,LAS VEGAS,NV,89109-5305",0.09090909090909093,0.0,0.0,36.14026646,-115.1537116,1,0
85,"2220 E SERENE AVE STE 100-3,LAS VEGAS,NV,89123-4819",1.0,0.0,0.0,36.02056763,-115.1218425,1,0
86,"2250 S RANCHO DR STE 205,LAS VEGAS,NV,89102-4456",0.17045454545454547,0.0,0.0,36.14695793,-115.17318859999999,1,0
87,"2261 PYRAMID WAY STE 1,SPARKS,NV,89431-8795",1.0,0.0,0.0,39.55175086,-119.75266909999999,1,0
88,"2272 S NELLIS BLVD STE 2,LAS VEGAS,NV,89104-6216",0.5,0.0,0.0,36.1454175,-115.06531609999999,1,0
89,"2285 E FLAMINGO RD STE 101,LAS VEGAS,NV,89119-5114",1.3333333333333333,0.0,0.0,36.11457452,-115.12112009999998,1,0
90,"2301 E LAKE MEAD BLVD,N LAS VEGAS,NV,89030-7137",0.04166666666666666,0.0,0.0,36.19577816,-115.1175118,1,0
91,"2301 E LAKE MEAD BLVD,NORTH LAS VEGAS,NV,89030-7137",1.8074186771439087,0.08834586466165413,0.058776167471819636,36.19577816,-115.1175118,1,0
92,"2311 S CASINO DR STE 2D,LAUGHLIN,NV,89029-1534",0.4146521924297669,0.0,0.1924262649377066,35.15522458,-114.57472759999999,1,0
93,"2311 S CASINO DR STE D-2,LAUGHLIN,NV,89029-1538",0.05555555555555555,0.0,0.0,35.15521486,-114.57472759999999,1,0
94,"2311 S CASINO DR,LAUGHLIN,NV,89029-1538",0.05263157894736842,0.0,0.0,35.15521486,-114.57472759999999,1,0
95,"2345 E CENTENNIAL PKWY STE 110,NORTH LAS VEGAS,NV,89081-5605",1.0,0.0,0.0,36.27627409,-115.11855530000001,1,0
96,"235 N EASTERN AVE STE 107,LAS VEGAS,NV,89101-4544",0.3333333333333333,0.0,0.0,36.165627,-115.11592749999998,1,0
97,"2381 E WINDMILL LN STE 11,LAS VEGAS,NV,89123-2069",0.834295049572624,0.0,0.1924262649377066,36.04218282,-115.1190568,1,0
98,"2381 RENAISSANCE DR STE B,LAS VEGAS,NV,89119-6498",1.0,0.5833333333333333,0.0,36.10346454,-115.11979540000002,1,0
99,"2425 E TROPICANA AVE STE 5B,LAS VEGAS,NV,89121-5416",0.3333333333333333,0.0,0.0,36.09980988,-115.11768799999999,1,0
100,"2425 E TROPICANA AVE,LAS VEGAS,NV,89121-5416",0.045454545454545456,0.0,0.0,36.09980988,-115.11768799999999,1,0
101,"2480 E TOMPKINS AVE STE 102,LAS VEGAS,NV,89121-5466",1.041507482333322,0.047619047619047616,0.0,36.10366748,-115.1171943,1,0
102,"250 E LAKE MEAD BLVD N,NORTH LAS VEGAS,NV,89030-3000",0.0,0.0,0.3333333333333333,36.19696032,-115.13619109999999,1,0
103,"2500 E LAKE MEAD BLVD,NORTH LAS VEGAS,NV,89030-6464",1.0,0.0,0.0,36.19588548,-115.1161105,1,0
104,"2500 W SAHARA AVE STE 202,LAS VEGAS,NV,89102-4367",0.0,0.0,1.0,36.14445277,-115.1749591,1,0
105,"2510 W CHARLESTON BLVD STE F56,LAS VEGAS,NV,89102-2175",0.3333333333333333,0.0,0.0,36.15904859,-115.17635349999999,1,0
106,"2551 N GREEN VALLEY PKWY STE 400A,HENDERSON,NV,89014-0272",1.0,0.0,0.0,36.06837348,-115.0825475,1,0
107,"2551 N GREEN VALLEY PKWY,HENDERSON,NV,89014-0272",0.0,0.3333333333333333,0.0,36.06837348,-115.0825475,1,0
108,"2560 S MARYLAND PKWY STE 5,LAS VEGAS,NV,89109-1672",1.0,0.0,0.0,36.14290264,-115.1368229,1,0
109,"2575 N 5TH ST STE A,ELKO,NV,89801-2468",2.5,1.0,0.0,40.84673296,-115.78424170000001,1,0
110,"2578 IDAHO ST,ELKO,NV,89801-4601",1.0,0.0,0.0,40.85118693,-115.74487859999998,1,0
111,"2605 S DECATUR BLVD STE 116,LAS VEGAS,NV,89102-8592",2.0,0.0,0.0,36.14276763,-115.208266,1,0
112,"2633 W HORIZON RIDGE PKWY STE 130,HENDERSON,NV,89052-4833",0.25,0.0,0.0,36.00105341,-115.10230109999999,1,0
113,"2660 WINDMILL PKWY,HENDERSON,NV,89074-3385",3.033333333333333,0.0,0.0,36.04248137,-115.1042258,1,0
114,"2668 LAS VEGAS BLVD N STE 101,N LAS VEGAS,NV,89030-5870",0.16666666666666666,0.0,0.0,36.20814785,-115.1094087,1,0
115,"270 DAHLIA ST STE 4,PAHRUMP,NV,89048-2196",0.27142857142857146,0.0,0.125,36.21580196,-115.99568500000001,1,0
116,"2755 S NELLIS BLVD STE 12,LAS VEGAS,NV,89121-7551",1.6666666666666663,0.0,0.0,36.13944527,-115.0656065,1,0
117,"2764 LAKE SAHARA DR STE 107,LAS VEGAS,NV,89117-3400",0.2857142857142857,0.0,0.0,36.14019247,-115.28375700000001,1,0
118,"2799 SUNRIDGE HEIGHTS PKWY STE 100,HENDERSON,NV,89052-5055",0.0,0.0,0.5,35.99130248,-115.10971299999999,1,0
119,"2801 S VALLEY VIEW BLVD STE 4,LAS VEGAS,NV,89102-0116",0.0,0.030303030303030307,0.0,36.1405078,-115.1906955,1,0
120,"2810 W CHARLESTON BLVD,LAS VEGAS,NV,89102",0.3333333333333333,0.0,0.0,36.15902447,-115.17981280000001,1,0
121,"2811 N GREEN VALLEY PKWY,HENDERSON,NV,89014-0401",0.8201970443349753,0.0,0.14285714285714285,36.07151989,-115.0825188,1,0
122,"2835 SAINT ROSE PKWY STE 100,HENDERSON,NV,89052-4847",0.5,0.0,0.5,36.00896027,-115.1115348,1,0
123,"2843 SAINT ROSE PKWY STE 100,HENDERSON,NV,89052-4814",1.0,0.0,0.0,36.00889831,-115.1116327,1,0
124,"2870 BICENTENNIAL PKWY STE 120,HENDERSON,NV,89044-4482",2.9128664781440525,0.16666666666666666,0.3674262649377066,35.94137483,-115.11638729999999,1,0
125,"290 BRINKBY AVE STE 1,RENO,NV,89509-4345",0.0,0.0,1.0,39.4951915,-119.80142190000001,1,0
126,"290 BRINKBY AVE,RENO,NV,89509-4348",1.0,0.0,0.0,39.4951915,-119.8014219,1,0
127,"2900 CLEAR ACRE LN STE S,RENO,NV,89512-1764",0.16666666666666666,0.0,0.0,39.55772638,-119.7915869,1,0
128,"2900 E DESERT INN RD STE 109,LAS VEGAS,NV,89121-3619",1.0,0.0,0.0,36.12981352,-115.1107527,1,0
129,"301 N PECOS RD STE F,HENDERSON,NV,89074-1350",0.5,0.0,0.0,36.05022955,-115.1003955,1,0
130,"3016 W CHARLESTON BLVD STE 145,LAS VEGAS,NV,89102-1964",0.7023809523809523,0.0,0.2,36.15904247,-115.18238229999999,1,0
131,"3040 W ANN RD STE 101,N LAS VEGAS,NV,89031-7266",1.6623376623376624,0.0,0.0,36.26160052,-115.1819801,1,0
132,"3040 W ANN RD STE 101,NORTH LAS VEGAS,NV,89031-7266",0.18230019493177388,0.08834586466165413,0.0,36.26160052,-115.1819801,1,0
133,"3041 E FLAMINGO RD,LAS VEGAS,NV,89121",2.5357142857142856,0.0,0.2,36.11492652,-115.10923190000001,1,0
134,"3050 E DESERT INN RD, #105,LAS VEGAS,NV,89121-3871",1.0,0.0,0.0,36.1297895,-115.1082538,1,0
135,"307 W WINNIE LN STE 2,CARSON CITY,NV,89703-2145",1.0,0.0,0.0,39.17916948,-119.7689938,1,0
136,"3074 ARVILLE ST,LAS VEGAS,NV,89102-7490",1.0,0.0,0.0,36.13511121,-115.1993935,1,0
137,"3125 E TROPICANA AVE STE C,LAS VEGAS,NV,89121-7356",0.5,0.0,0.0,36.09986996,-115.10659799999999,1,0
138,"3150 VISTA BLVD STE 110,SPARKS,NV,89436-6704",0.09090909090909093,0.16666666666666666,0.25,39.56021162,-119.7054369,1,0
139,"3150 VISTA BLVD STE 112,SPARKS,NV,89436-6704",0.7575757575757576,0.6666666666666666,0.0,39.56021162,-119.7054369,1,0
140,"3160 N TRUCKEE LN,SPARKS,NV,89434-1583",0.5492424242424243,0.047619047619047616,0.0,39.55819898,-119.73379579999998,1,0
141,"3163 N RAINBOW BLVD,LAS VEGAS,NV,89108-4578",0.7,0.0,0.0,36.21740265,-115.24234840000001,1,0
142,"3196 S MARYLAND PKWY STE 307,LAS VEGAS,NV,89109-2314",0.5357142857142857,0.5,0.3333333333333333,36.131921999999996,-115.13686899999999,1,0
143,"320 N NELLIS BLVD STE 4,LAS VEGAS,NV,89110-5390",0.8201970443349753,0.0,0.26785714285714285,36.16505186,-115.06201899999999,1,0
144,"3211 S EASTERN AVE,LAS VEGAS,NV,89169-3310",0.3333333333333333,0.0,0.0,36.13132799,-115.118576,1,0
145,"3225 S RAINBOW BLVD STE 104,LAS VEGAS,NV,89146-6216",1.5333333333333332,0.0,0.0,36.13095011,-115.243104,1,0
146,"3226 N DECATUR BLVD,LAS VEGAS,NV,89130-3207",1.0,0.0,0.0,36.21798341,-115.2074351,1,0
147,"3255 S EASTERN AVE,LAS VEGAS,NV,89169-3389",1.0,0.0,0.0,36.130571999999994,-115.11857450000001,1,0
148,"3310 N MOAPA VALLEY BLVD,LOGANDALE,NV,89021",0.0,0.3333333333333333,0.0,36.60091061,-114.48394990000001,1,0
149,"3310 N MOAPA VALLEY BLVD,LOGANDALE,NV,89021-9940",0.0,0.25,0.0,36.60092092,-114.4839487,1,0
150,"3315 W CRAIG RD STE 108,N LAS VEGAS,NV,89032-5001",0.125,0.0,0.0,36.23933653,-115.185294,1,0
151,"3325 RESEARCH WAY,CARSON CITY,NV,89706-7913",0.9583333333333331,0.0,0.0,39.18886432,-119.75036940000001,1,0
152,"3362 S MCCARRAN BLVD,RENO,NV,89502-6442",6.125,0.0,0.0,39.485304,-119.74791540000001,1,0
153,"340 FALCON RIDGE PKWY STE 300,MESQUITE,NV,89027-8851",0.5,0.0,0.0,36.80927897,-114.11258629999999,1,0
154,"340 FALCON RIDGE PKWY STE 300C,MESQUITE,NV,89027-8851",0.5,0.0,0.0,36.80826257,-114.11313419999999,1,0
155,"3405 MARKET ST STE 102,CARSON CITY,NV,89706-8019",1.4826455026455023,0.03571428571428571,0.5587761674718197,39.18918689,-119.7566216,1,0
156,"350 FALCON RIDGE PKWY STE 200 # 101,MESQUITE,NV,89027-8879",0.0,0.5833333333333333,0.0,36.80909910000001,-114.1134788,1,0
157,"350 FALCON RIDGE PKWY STE 200STE # 101,MESQUITE,NV,89027-8878",0.0,0.3333333333333333,0.0,36.80909952,-114.1134771,1,0
158,"3600 N BUFFALO DR STE 110,LAS VEGAS,NV,89129-7462",0.2976190476190476,0.8333333333333333,0.0,36.22600841,-115.2605375,1,0
159,"3603 LAS VEGAS BLVD N STE 120,LAS VEGAS,NV,89115-0588",0.1486291486291486,0.5,0.0,36.22487281,-115.0813071,1,0
160,"3650 S EASTERN AVE STE 220,LAS VEGAS,NV,89169-3345",1.0,0.0,0.0,36.12418014,-115.1179988,1,0
161,"3674 E SUNSET RD,LAS VEGAS,NV,89120-7234",1.5333333333333332,0.0,0.0,36.07145743,-115.09498980000001,1,0
162,"3701 BAKER LN STE 1,RENO,NV,89509-5430",0.0,2.0,0.0,39.488904,-119.79867560000001,1,0
163,"3730 E FLAMINGO RD,LAS VEGAS,NV,89121-4921",1.2202599618533259,0.0,0.1299262649377066,36.11541476,-115.09320190000001,1,0
164,"375 N STEPHANIE ST BLDG 6 # 611,HENDERSON,NV,89014-8771",3.8186868686868687,1.0,0.0,36.05368519,-115.04646740000001,1,0
165,"375 N STEPHANIE ST BLDG 6,HENDERSON,NV,89014-8771",0.05555555555555555,0.0,0.0,36.05368519,-115.04646740000001,1,0
166,"375 N STEPHANIE ST BLDG 6611,HENDERSON,NV,89014-8771",1.0,0.0,0.0,36.05411719,-115.04645790000002,1,0
167,"375 N STEPHANIE ST STE 211,HENDERSON,NV,89014-8773",1.5,0.0,0.5,36.05411719,-115.04645790000002,1,0
168,"375 N STEPHANIE ST STE 611,HENDERSON,NV,89014-8782",0.3333333333333333,0.0,0.0,36.05411719,-115.04645790000002,1,0
169,"3830 E FLAMINGO RD STE E2,LAS VEGAS,NV,89121-6237",2.8672513882924107,0.08834586466165413,0.058776167471819636,36.11532144,-115.09053229999999,1,0
170,"3870 W ANN RD STE 120,NORTH LAS VEGAS,NV,89031-4412",0.5,0.6666666666666666,0.0,36.26153045,-115.1916209,1,0
171,"3880 W LAKE MEAD BLVD,NORTH LAS VEGAS,NV,89032-5200",0.047619047619047616,0.0,0.0,36.19887435,-115.1910889,1,0
172,"3885 S DECATUR BLVD STE 1100,LAS VEGAS,NV,89103-5872",1.1666666666666667,0.0,0.0,36.11923199,-115.2081675,1,0
173,"3945 S MARYLAND PKWY STE A,LAS VEGAS,NV,89119-7563",3.6617331093033667,0.3846120984278879,0.058776167471819636,36.11732605,-115.13775520000002,1,0
174,"3960 W ANN RD STE 120,NORTH LAS VEGAS,NV,89031-3851",0.6676283829059574,0.0625,0.1924262649377066,36.26153945,-115.19321029999999,1,0
175,"3960 W CRAIG RD STE 110,N LAS VEGAS,NV,89032-2750",0.3333333333333333,0.0,0.0,36.23936548,-115.1931114,1,0
176,"3965 E OWENS AVE STE 190,LAS VEGAS,NV,89110-7034",0.325,0.0,0.0,36.18825335,-115.0907221,1,0
177,"4 SUNSET WAY STE C,HENDERSON,NV,89014-2016",2.0,0.0,1.0,36.07183254,-115.0703459,1,0
178,"4001 S DECATUR BLVD STE 42A,LAS VEGAS,NV,89103-5859",2.385449735449736,0.0,0.0,36.11721736,-115.20810549999999,1,0
179,"4001 S DECATUR BLVD,LAS VEGAS,NV,89103-5860",0.9354497354497352,0.0,0.0,36.11721736,-115.20810549999999,1,0
180,"4035 S DURANGO DR STE 103,LAS VEGAS,NV,89147-4162",4.7846034806445035,0.24175495557074506,0.13907919777484995,36.11650469,-115.27906750000001,1,0
181,"4045 S BUFFALO DR STE A102,LAS VEGAS,NV,89147-7481",1.0,0.0,0.0,36.11530994,-115.261024,1,0
182,"4045 S EASTERN AVE,LAS VEGAS,NV,89119-5101",2.125,0.0,0.2,36.11574125,-115.11919640000002,1,0
183,"4080 N MARTIN L KING BLVD STE 101B,NORTH LAS VEGAS,NV,89032-3217",1.528110265739174,0.047619047619047616,0.0,36.23373,-115.1619,1,0
184,"4080 N MARTIN L KING BLVD STE,N LAS VEGAS,NV,89032-3216",1.0,0.0,0.0,36.23373,-115.1619,1,0
185,"4080 N MARTIN L KING BLVD,NORTH LAS VEGAS,NV,89032-3216",1.0281384983761026,0.047619047619047616,0.125,36.23373,-115.1619,1,0
186,"4090 N MARTIN L KING BLVD,N LAS VEGAS,NV,89032-3218",0.14973262032085566,0.047619047619047616,0.0,36.233658,-115.16189890000001,1,0
187,"4121 W SAHARA AVE,LAS VEGAS,NV,89102-3704",2.6666666666666665,0.0,0.0,36.14434847,-115.19673290000001,1,0
188,"4161 S EASTERN AVE STE E8,LAS VEGAS,NV,89119-5425",1.0,1.0,0.0,36.11298183,-115.1192313,1,0
189,"4180 S SANDHILL RD STE B1,LAS VEGAS,NV,89121-6262",0.05263157894736842,0.0,0.0,36.11408288,-115.091898,1,0
190,"4226 S DURANGO DR STE 103,LAS VEGAS,NV,89147-8722",0.8333333333333333,0.0,0.0,36.11266509,-115.27901990000001,1,0
191,"4245 E CHARLESTON BLVD,LAS VEGAS,NV,89104-2380",0.0,0.5625,0.0,36.15880619,-115.0822345,1,0
192,"4250 S RAINBOW BLVD STE 1004-1005,LAS VEGAS,NV,89103-3104",0.5,0.0,0.0,36.1112437,-115.24284740000002,1,0
193,"4250 SIMMONS ST,NORTH LAS VEGAS,NV,89032-0768",1.5333333333333332,0.0,0.0,36.23667203,-115.1801374,1,0
194,"4270 S DECATUR BLVD STE A2,LAS VEGAS,NV,89103-6840",0.5,0.0,0.0,36.11230517,-115.2080179,1,0
195,"4300 E SUNSET RD STE B2,HENDERSON,NV,89014-2268",1.0,0.0,0.0,36.07097251,-115.08013999999999,1,0
196,"4300 MEADOWS LN STE 1350,LAS VEGAS,NV,89107-3021",3.2065443175853394,0.17925495557074506,0.09877616747181964,36.17027956,-115.1974773,1,0
197,"4301 S NELLIS BLVD,LAS VEGAS,NV,89121-3120",0.3333333333333333,0.0,0.0,36.11118343,-115.064544,1,0
198,"4306 S EASTERN AVE,LAS VEGAS,NV,89119-6016",0.0,0.0,1.0,36.11050768,-115.119098,1,0
199,"4333 LAS VEGAS BLVD N STE 100,LAS VEGAS,NV,89115-0639",0.6676283829059574,0.0,0.1299262649377066,36.23874188,-115.05760659999999,1,0
200,"4401 E SUNSET RD STE 3,HENDERSON,NV,89014-2200",2.0,0.0,0.0,36.07080047,-115.0774827,1,0
201,"4408 S EASTERN AVE,LAS VEGAS,NV,89119-7825",1.0666666666666669,0.0,0.0,36.10884586,-115.1190675,1,0
202,"445 W CRAIG RD # 121-122,NORTH LAS VEGAS,NV,89032-1230",0.125,0.0,0.0,36.23931908,-115.1476558,1,0
203,"445 W CRAIG RD STE 121-122,NORTH LAS VEGAS,NV,89032-1230",3.0459020146520146,0.0,0.2,36.23931908,-115.1476558,1,0
204,"4451 N RANCHO DR,LAS VEGAS,NV,89130-3405",0.7408424908424909,0.0,0.0,36.24152735,-115.234526,1,0
205,"4492 S PECOS RD,LAS VEGAS,NV,89121-5030",0.5714285714285714,0.0,0.2,36.10789063,-115.10065800000001,1,0
206,"450 E SILVERADO RANCH BLVD STE 105,LAS VEGAS,NV,89183-6204",2.7,0.0,0.0,36.01330967,-115.1533365,1,0
207,"4530 S CARSON ST STE 5,CARSON CITY,NV,89701-6914",0.0,1.0,0.0,39.12608734,-119.77114569999999,1,0
208,"4530 S CARSON ST,CARSON CITY,NV,89701-6918",1.0,0.0,0.0,39.12608734,-119.77114569999999,1,0
209,"4542 E TROPICANA AVE,LAS VEGAS,NV,89121-6705",1.0,0.0,0.0,36.10042075,-115.07526329999999,1,0
210,"4555 S FORT APACHE RD STE 136,LAS VEGAS,NV,89147-7970",1.0,0.0,0.0,36.10647869,-115.29720549999999,1,0
211,"4570 N RANCHO DR STE 2,LAS VEGAS,NV,89130-3431",0.3333333333333333,0.0,0.0,36.24308656,-115.2356179,1,0
212,"4610 MEADOWS LN STE A,LAS VEGAS,NV,89107-2965",0.5,0.0,0.5,36.1702495,-115.203294,1,0
213,"4650 WEDEKIND RD STE 1,SPARKS,NV,89431-7722",0.3333333333333333,0.0,0.0,39.55716656,-119.7648906,1,0
214,"467 E SILVERADO RANCH BLVD STE 115,LAS VEGAS,NV,89183-6275",0.5,0.0,0.0,36.01321249,-115.1526926,1,0
215,"4720 BLUE DIAMOND RD STE 100,LAS VEGAS,NV,89139-7609",2.6031538915862185,0.08834586466165413,0.058776167471819636,36.03395431,-115.20523179999999,1,0
216,"475 SOMERSETT PKWY STE B,RENO,NV,89523-4917",1.0,0.0,0.0,39.51950185,-119.90250900000001,1,0
217,"4750 W SAHARA AVE STE 11,LAS VEGAS,NV,89102-3559",0.7166666666666666,0.0,0.0,36.14466812,-115.2058095,1,0
218,"4818 SPARKS BLVD STE 102,SPARKS,NV,89436-8159",1.0,0.0,0.0,39.57943731,-119.72406740000001,1,0
219,"4875 SUMMIT RIDGE DR,RENO,NV,89523-7936",0.09090909090909093,0.25,0.0,39.52062942,-119.8610361,1,0
220,"4956 E TROPICANA AVE,LAS VEGAS,NV,89121-6729",1.0,0.0,0.0,36.10038378,-115.06450530000001,1,0
221,"5,HENDERSON,NV,89052",0.5592861089354777,0.047619047619047616,0.0,36.02361358,-115.0893835,1,0
222,"500 E WINDMILL LN STE 130,LAS VEGAS,NV,89123-1845",1.0,0.0,0.0,36.04238347,-115.15211409999998,1,0
223,"5001 E BONANZA RD STE 120,LAS VEGAS,NV,89110-3562",1.0,0.0,0.0,36.17395149,-115.06443119999999,1,0
224,"5001 E BONANZA RD STE 160,LAS VEGAS,NV,89110-3560",0.9625,0.0,0.0,36.17395149,-115.06443119999999,1,0
225,"5015 PYRAMID WAY UNIT 113,SPARKS,NV,89436-7728",2.8149067112225006,0.03571428571428571,0.058776167471819636,39.58213619,-119.74381229999999,1,0
226,"5030 LAS BRISAS BLVD STE 3B,RENO,NV,89523-6236",0.0,0.16666666666666666,0.375,39.54026413,-119.8628202,1,0
227,"5032 S VIRGINIA ST,RENO,NV,89502-6018",1.3206084656084656,0.03571428571428571,0.5587761674718197,39.47958369,-119.7903914,1,0
228,"5055 SUN VALLEY BLVD STE 350,SUN VALLEY,NV,89433-8297",0.5492424242424243,0.047619047619047616,0.0,39.57644203,-119.7807665,1,0
229,"5059 S MCCARRAN BLVD,RENO,NV,89502-6530",0.2159090909090909,0.047619047619047616,0.0,39.47699735,-119.78576540000002,1,0
230,"5061 E SAHARA AVE STE 1A,LAS VEGAS,NV,89142-2986",0.05,0.0,0.0,36.1443206,-115.0641483,1,0
231,"5070 E BONANZA RD,LAS VEGAS,NV,89110-3524",0.0,0.0,0.05263157894736842,36.17408841,-115.06310309999999,1,0
232,"5075 E BONANZA RD,LAS VEGAS,NV,89110-3514",4.073183938461513,0.16666666666666666,0.1924262649377066,36.17395088,-115.06293090000001,1,0
233,"513 W BRIDGE ST STE A,YERINGTON,NV,89447-2659",3.0,0.0,0.0,38.98293952,-119.169771,1,0
234,"518 E SAINT LOUIS AVE,LAS VEGAS,NV,89104-2509",0.5,0.0,0.0,36.14756867,-115.1519574,1,0
235,"5220 NEIL RD STE 110,RENO,NV,89502-6524",0.0,0.0,0.375,39.47471488,-119.7786213,1,0
236,"5230 BOULDER HWY STE 130,LAS VEGAS,NV,89122-6079",0.9625,0.0,0.0,36.10882364,-115.0601933,1,0
237,"525 E MOANA LN STE A,RENO,NV,89502-4692",1.0,0.0,0.0,39.49291450000001,-119.79105179999999,1,0
238,"5320 W SAHARA AVE STE 4,LAS VEGAS,NV,89146-0373",0.0,0.0,1.0,36.1450175,-115.214528,1,0
239,"5420 KIETZKE LN STE 208,RENO,NV,89511-2062",1.0,0.0,0.0,39.46655016,-119.79098859999999,1,0
240,"5465 SIMMONS ST STE 4,N LAS VEGAS,NV,89031-9001",0.3333333333333333,0.0,0.0,36.25905552,-115.1800241,1,0
241,"5475 S FORT APACHE RD STE 100,LAS VEGAS,NV,89148-6410",1.0,0.0,0.0,36.0891,-115.297476,1,0
242,"5515 CAMINO AL NORTE STE 100,NORTH LAS VEGAS,NV,89031-0820",1.3333333333333333,0.0,0.0,36.26014684,-115.15525249999999,1,0
243,"5516 BOULDER HWY STE 2A,LAS VEGAS,NV,89122-6000",0.5,0.0,0.0,36.10045476,-115.0508263,1,0
244,"556 N EASTERN AVE STE 1,LAS VEGAS,NV,89101-3477",0.5,0.0,1.0,36.17255893,-115.11600759999999,1,0
245,"556 N EASTERN AVE STE I,LAS VEGAS,NV,89101-3453",1.1420088683246576,0.0625,0.0,36.17246893,-115.1159986,1,0
246,"5590 PAINTED MIRAGE RD STE 150,LAS VEGAS,NV,89149-4585",0.584295049572624,0.0,0.1924262649377066,36.26274802,-115.2566076,1,0
247,"5642 S EASTERN AVE STE B,LAS VEGAS,NV,89119-2310",1.883333333333333,0.0,1.0,36.087145299999996,-115.118779,1,0
248,"5642 S EASTERN AVE, #B,LAS VEGAS,NV,89119-2375",1.0,0.0,0.0,36.087145299999996,-115.118779,1,0
249,"5680 W FLAMINGO RD STE A,LAS VEGAS,NV,89103-2339",0.14285714285714285,0.0,0.0,36.114959999999996,-115.219124,1,0
250,"5705 CENTENNIAL CENTER BLVD STE 140,LAS VEGAS,NV,89149-7129",0.0,0.5357142857142857,0.0,36.26441155,-115.25706399999999,1,0
251,"5745 S FORT APACHE RD STE 100,LAS VEGAS,NV,89148-5623",1.0,0.0,0.0,36.08397393,-115.29753490000002,1,0
252,"5765 CENTENNIAL CENTER BLVD STE 110,LAS VEGAS,NV,89149-7125",0.0,0.0,1.0,36.26481348,-115.25752379999999,1,0
253,"5775 S RAINBOW BLVD STE 103,LAS VEGAS,NV,89118-2531",1.0,0.0,0.0,36.08359255,-115.242818,1,0
254,"5785 SPRING MOUNTAIN RD,LAS VEGAS,NV,89146-8804",2.0,0.0,0.0,36.12563849,-115.22040919999999,1,0
255,"5840 W CRAIG RD STE 130,LAS VEGAS,NV,89130-2573",0.5,0.0,0.0,36.23910546,-115.2236021,1,0
256,"5892 LOSEE RD STE 135,N LAS VEGAS,NV,89081-6200",0.13966861598440544,0.0,0.0,36.26728238,-115.1168951,1,0
257,"5892 LOSEE RD STE 135,NORTH LAS VEGAS,NV,89081-6200",3.598137169178192,0.08834586466165413,0.058776167471819636,36.26737535,-115.1168951,1,0
258,"5900 W CHEYENNE AVE,LAS VEGAS,NV,89108-4203",1.1111111111111112,0.0,1.0,36.2169025,-115.22349399999999,1,0
259,"5905 S EASTERN AVE STE 112,LAS VEGAS,NV,89119-3130",0.047619047619047616,0.0,0.0,36.08196266,-115.11878600000001,1,0
260,"60 N 25TH ST STE 110,LAS VEGAS,NV,89101-4699",1.319047619047619,0.0,0.0,36.16094788,-115.116078,1,0
261,"60 N 25TH ST,LAS VEGAS,NV,89101-4696",0.784295049572624,0.0,0.1924262649377066,36.16094788,-115.116078,1,0
262,"6002 S DURANGO DR STE 100,LAS VEGAS,NV,89113-1785",0.06666666666666668,0.0,0.0,36.07923507,-115.279288,1,0
263,"601 S RANCHO DR STE B15,LAS VEGAS,NV,89106-4896",1.0,0.0,0.0,36.16433254,-115.171902,1,0
264,"61 N WILLOW ST STE 1,MESQUITE,NV,89027-4786",1.0,0.0,0.0,36.8049965,-114.0664163,1,0
265,"6110 W LAKE MEAD BLVD STE 150,LAS VEGAS,NV,89108-2659",1.783176252901485,0.08834586466165413,0.5587761674718197,36.19672451,-115.22508300000001,1,0
266,"6115 S RAINBOW BLVD STE 102,LAS VEGAS,NV,89118-3252",0.1111111111111111,0.0,0.0,36.07733755,-115.242698,1,0
267,"6116 W FLAMINGO RD,LAS VEGAS,NV,89103-2280",0.625,0.0,0.0,36.11464976,-115.2254143,1,0
268,"6127 S RAINBOW BLVD STE 100,LAS VEGAS,NV,89118-3256",3.7916666666666665,0.0,1.0,36.07751658,-115.24270700000001,1,0
269,"6169 S RAINBOW BLVD STE 100,LAS VEGAS,NV,89118-3231",0.047619047619047616,0.8333333333333333,0.0,36.07631129999999,-115.2426845,1,0
270,"620 HUMBOLDT ST,RENO,NV,89509-1606",1.0,0.0,0.0,39.51858536,-119.81398490000002,1,0
271,"6265 S RAINBOW BLVD,LAS VEGAS,NV,89118-3205",2.5,0.0,0.0,36.07491697,-115.24263799999999,1,0
272,"6320 SIMMONS ST STE 100,N LAS VEGAS,NV,89031-7276",0.5,0.0,0.0,36.27497397,-115.1797623,1,0
273,"6320 SIMMONS ST STE 100,NORTH LAS VEGAS,NV,89031-7276",0.5,0.0,0.0,36.27497397,-115.1797623,1,0
274,"6325 E RUSSELL RD STE 100,LAS VEGAS,NV,89122-7072",0.6731601433977475,0.047619047619047616,0.125,36.08379579,-115.03456580000001,1,0
275,"6365 SIMMONS ST STE 100,NORTH LAS VEGAS,NV,89031-7298",0.5,0.0,0.0,36.27557044,-115.1798466,1,0
276,"6375 W CHARLESTON BLVD STE A500,LAS VEGAS,NV,89146-1168",3.333333333333333,0.0,0.0,36.159060499999995,-115.23455990000002,1,0
277,"6375 W CHARLESTON BLVD,LAS VEGAS,NV,89146-1139",1.0,0.0,0.0,36.159060499999995,-115.23455990000002,1,0
278,"6386 W SAHARA AVE STE 6388,LAS VEGAS,NV,89146-3050",0.280137406453196,0.0,0.0,36.14419419,-115.23368719999999,1,0
279,"6415 S FORT APACHE RD STE 150,LAS VEGAS,NV,89148-6749",0.7319836728095123,0.047619047619047616,0.125,36.07196595,-115.29778700000001,1,0
280,"6430 W LAKE MEAD BLVD STE 140,LAS VEGAS,NV,89108-7370",1.0,0.0,0.0,36.19598351,-115.23462350000001,1,0
281,"6440 W FLAMINGO RD,LAS VEGAS,NV,89103-2266",5.3592950495726255,0.16666666666666666,0.3674262649377066,36.11461447,-115.2327733,1,0
282,"6490 S MCCARRAN BLVD STE 8 # 9,RENO,NV,89509-6165",1.6192982456140348,0.0,0.0,39.47671552,-119.79637199999999,1,0
283,"6490 S MCCARRAN BLVD,RENO,NV,89509",0.5833333333333333,0.0,1.355072463768116,39.47671552,-119.79637199999999,1,0
284,"6520 E LAKE MEAD BLVD STE 105,LAS VEGAS,NV,89156-0138",0.5,0.0,0.0,36.19577945,-115.03041950000001,1,0
285,"653 N STEPHANIE ST STE C-3,HENDERSON,NV,89014-2634",0.4075091575091575,0.0,0.0,36.06587942,-115.046296,1,0
286,"653 N TOWN CENTER DR STE 606,LAS VEGAS,NV,89144-0520",0.5,1.0,0.0,36.17934924,-115.316336,1,0
287,"6592 N DECATUR BLVD STE 160,LAS VEGAS,NV,89131-1040",1.0,0.0,0.0,36.27989277,-115.20635290000001,1,0
288,"6600 W CHARLESTON BLVD STE 106,LAS VEGAS,NV,89146-1067",0.3333333333333333,0.0,0.0,36.15921646,-115.241003,1,0
289,"6707 W CHARLESTON BLVD STE 1A,LAS VEGAS,NV,89146-9243",1.0009617162392908,0.0,0.4424262649377066,36.15904052,-115.2410715,1,0
290,"6720 N DURANGO DR STE 260,LAS VEGAS,NV,89149-4436",0.5,0.0,0.0,36.28294294,-115.2876746,1,0
291,"674 N CEDAR ST STE A,ELKO,NV,89801-2991",1.0,0.0,0.0,40.82821725,-115.77568290000002,1,0
292,"680 S ROCK BLVD,RENO,NV,89502-4113",15.333333333333332,0.0,2.5,39.50213355,-119.76241259999999,1,0
293,"6820 W FLAMINGO RD STE 1,LAS VEGAS,NV,89103-2014",0.5,0.0,0.0,36.11462345,-115.241174,1,0
294,"6885 ALIANTE PKWY STE 111,NORTH LAS VEGAS,NV,89084-5815",2.6676283829059573,0.14285714285714285,1.1924262649377066,36.28573791,-115.17743840000001,1,0
295,"69 N NELLIS BLVD,LAS VEGAS,NV,89110-5330",1.0357142857142858,0.0,0.0,36.16134109,-115.0623763,1,0
296,"6901 W CHARLESTON BLVD,LAS VEGAS,NV,89117-1601",0.3666666666666667,0.0,0.0,36.15901447,-115.24639099999999,1,0
297,"6910 S RAINBOW BLVD STE 104,LAS VEGAS,NV,89118-3274",0.0,1.0,0.0,36.06282062,-115.2423878,1,0
298,"6970 S CIMARRON RD # 100,LAS VEGAS,NV,89113-2135",1.0,0.0,0.0,36.06158663,-115.27004720000001,1,0
299,"700 E SILVERADO RANCH BLVD,LAS VEGAS,NV,89183-7516",1.0,0.0,0.0,36.01331867,-115.1478193,1,0
300,"701 N PECOS RD BLDG M,LAS VEGAS,NV,89101-2400",1.3402938868472805,0.11011904761904764,0.0,36.17536215,-115.0983098,1,0
301,"7101 W CRAIG RD STE 102,LAS VEGAS,NV,89129-6059",0.6021164021164019,0.0,0.0,36.24045849,-115.249893,1,0
302,"7181 N HUALAPAI WAY STE 105,LAS VEGAS,NV,89166-1116",0.0,1.0,0.0,36.2914278,-115.31505459999998,1,0
303,"7211 S EASTERN AVE STE 110,LAS VEGAS,NV,89119-0489",0.3333333333333333,0.0,0.0,36.05918647,-115.1184039,1,0
304,"7240 W LAKE MEAD BLVD STE 2,LAS VEGAS,NV,89128-8356",0.0,0.0,0.25,36.19618746,-115.24900120000001,1,0
305,"7250 S DURANGO DR STE 100,LAS VEGAS,NV,89113-2221",0.3333333333333333,0.0,0.0,36.05658296,-115.2790676,1,0
306,"7250 S DURANGO DR STE 110,LAS VEGAS,NV,89113-2221",0.5287394940170684,0.0,0.1924262649377066,36.05656478,-115.27907749999999,1,0
307,"7260 W AZURE DR STE 110,LAS VEGAS,NV,89130-4400",1.0,0.0,0.0,36.27364763,-115.25328130000001,1,0
308,"7310 SMOKE RANCH RD STE F,LAS VEGAS,NV,89128-0257",0.8201970443349753,0.0,0.26785714285714285,36.20347348,-115.25220970000001,1,0
309,"7320 S RAINBOW BLVD STE 103,LAS VEGAS,NV,89139-0407",1.852368172093404,0.27016404647983605,0.10877616747181963,36.05544191,-115.2430085,1,0
310,"737 N NELLIS BLVD,LAS VEGAS,NV,89110-5384",1.0,0.0,0.0,36.17605468,-115.06230790000001,1,0
311,"7377 S JONES BLVD STE 110,LAS VEGAS,NV,89139-0547",1.0,0.0,0.0,36.05519664,-115.22504599999999,1,0
312,"740 N EASTERN AVE STE 120,LAS VEGAS,NV,89101-2886",1.0,0.0,0.0,36.17668022,-115.1160244,1,0
313,"7425 W AZURE DR,LAS VEGAS,NV,89130-4415",0.0,1.0,0.0,36.27379069,-115.2566399,1,0
314,"7445 W AZURE DR STE 120,LAS VEGAS,NV,89130-4429",0.0,0.0,1.0,36.27392951,-115.257126,1,0
315,"7469 W LAKE MEAD BLVD STE 270,LAS VEGAS,NV,89128-1045",0.25,0.0,0.0,36.19597189,-115.256624,1,0
316,"748 S MEADOWS PKWY STE 8,RENO,NV,89521-3861",1.8201970443349755,0.0,0.26785714285714285,39.43868516,-119.758275,1,0
317,"75 MOUNT ROSE ST STE A,RENO,NV,89509-3426",0.625,0.0,0.0,39.50972746,-119.8063727,1,0
318,"757 W 7TH ST STE 102,RENO,NV,89503-3672",1.0,0.0,0.0,39.53196023,-119.82582859999998,1,0
319,"762 14TH ST,ELKO,NV,89801-3413",1.125,0.0,0.0,40.84166923,-115.7585868,1,0
320,"7670 W LAKE MEAD BLVD STE 130,LAS VEGAS,NV,89128-6651",0.9625,0.0,0.0,36.19644893,-115.2623369,1,0
321,"7670 W LAKE MEAD BLVD STE 160,LAS VEGAS,NV,89128-6649",0.2,0.0,0.0,36.19644893,-115.2623369,1,0
322,"7785 N DURANGO DR STE 140,LAS VEGAS,NV,89131-8002",3.0731839384615127,0.16666666666666666,0.1924262649377066,36.3026348,-115.2813406,1,0
323,"7901 W TROPICAL PKWY STE 120,LAS VEGAS,NV,89149-4550",0.8201970443349753,0.0,0.26785714285714285,36.27045017,-115.268511,1,0
324,"7910 S RAINBOW BLVD STE 100,LAS VEGAS,NV,89139-6479",0.0,0.0,1.0,36.04434408,-115.243307,1,0
325,"7910 S RAINBOW BLVD STE 125,LAS VEGAS,NV,89139-6480",1.0,0.0,0.0,36.04434408,-115.243307,1,0
326,"8000 W SAHARA AVE STE 180,LAS VEGAS,NV,89117-7906",0.047619047619047616,0.25,0.0,36.14390748,-115.2660513,1,0
327,"8145 W SAHARA AVE STE 510,LAS VEGAS,NV,89117-1995",0.14285714285714285,0.0,0.0,36.14373749,-115.2687118,1,0
328,"8370 W CHEYENNE AVE STE 103,LAS VEGAS,NV,89129-2174",3.8226495573747887,0.28175495557074504,0.10877616747181963,36.21864447,-115.2761605,1,0
329,"8380 W CHEYENNE AVE STE 102,LAS VEGAS,NV,89129-2175",5.707519850480377,0.33996924128503075,0.10877616747181963,36.21864646,-115.27624209999999,1,0
330,"8380 W CHEYENNE AVE STE 104,LAS VEGAS,NV,89129-2175",3.3244040056584723,0.4774151287309182,1.1087761674718195,36.21864549,-115.27627109999999,1,0
331,"8390 W SAHARA AVE STE 110,LAS VEGAS,NV,89117-8953",0.2222222222222222,0.0,0.0,36.14410444,-115.2741511,1,0
332,"840 I ST STE 3,SPARKS,NV,89431-3697",2.195197044334975,0.0,0.26785714285714285,39.54316418,-119.75378710000001,1,0
333,"840 N DECATUR BLVD STE H,LAS VEGAS,NV,89107-1932",0.3333333333333333,0.0,0.0,36.18017438,-115.2059659,1,0
334,"840 N DECATUR BLVD,LAS VEGAS,NV,89107-1905",0.3333333333333333,0.0,0.0,36.18017438,-115.2059659,1,0
335,"8430 FARM RD STE 120,LAS VEGAS,NV,89131-8167",3.7419417703740976,0.08834586466165413,0.08907919777484995,36.29939834,-115.2802883,1,0
336,"8430 W LAKE MEAD BLVD STE 150,LAS VEGAS,NV,89128-7673",1.0,0.0,0.0,36.19827874,-115.2796085,1,0
337,"8445 W FLAMINGO RD,LAS VEGAS,NV,89147-4166",1.5333333333333332,0.0,0.5,36.11478152,-115.275352,1,0
338,"850 I ST,SPARKS,NV,89431-3689",1.0,1.0,0.0,39.54310922,-119.75407709999999,1,0
339,"8520 BLUE DIAMOND RD STE 130,LAS VEGAS,NV,89178-9297",0.0,0.3928571428571429,0.0,36.02036145,-115.277514,1,0
340,"860 S RANCHO DR STE 3,LAS VEGAS,NV,89106-3828",4.235714591755614,0.24175495557074506,0.13907919777484995,36.16102066,-115.1728986,1,0
341,"860 S RANCHO DR STE 4,LAS VEGAS,NV,89106-3828",3.637175606038768,0.24175495557074506,0.10877616747181963,36.16102066,-115.1728986,1,0
342,"8665 W FLAMINGO RD STE 104,LAS VEGAS,NV,89147-8622",1.0,0.0,1.0,36.1148815,-115.2806625,1,0
343,"8710 W CHARLESTON BLVD STE 100,LAS VEGAS,NV,89117-5467",0.0,2.0,0.0,36.15914748,-115.28585990000002,1,0
344,"8955 S PECOS RD STE 2A,HENDERSON,NV,89074-7157",0.3333333333333333,0.0,0.0,36.02661336,-115.10061540000001,1,0
345,"8961 W SAHARA AVE STE 108,LAS VEGAS,NV,89117-5831",1.25,0.0,0.0,36.14412949,-115.29214340000001,1,0
346,"8981 W SAHARA AVE STE 110,LAS VEGAS,NV,89117-5894",0.6428571428571428,1.0,0.0,36.14413849,-115.2923439,1,0
347,"8995 W FLAMINGO RD STE 100,LAS VEGAS,NV,89147-0441",0.0,1.0,0.0,36.1148855,-115.2875618,1,0
348,"901 W 4TH ST STE B,RENO,NV,89503-5129",2.8415733778891674,0.03571428571428571,0.09877616747181964,39.52670016,-119.82709890000001,1,0
349,"921 S NEVADA HIGHWAY 160 STE 403,PAHRUMP,NV,89048-4682",0.5,0.0,0.0,36.20602907,-115.98051159999999,1,0
350,"9210 S EASTERN AVE STE 130M,LAS VEGAS,NV,89123-4833",3.918783068783069,0.0,0.25,36.02119237,-115.11842659999998,1,0
351,"931 S DECATUR BLVD,LAS VEGAS,NV,89107-3918",0.3333333333333333,0.0,0.0,36.16048067,-115.2057596,1,0
352,"9400 S EASTERN AVE STE 101,LAS VEGAS,NV,89123-7937",2.1354489801742123,0.11864889496468445,0.14968525838091054,36.01803596,-115.118587,1,0
353,"945 S RAINBOW BLVD,LAS VEGAS,NV,89145-6230",3.5490695701105928,0.11864889496468445,0.13907919777484995,36.16068437,-115.24392490000001,1,0
354,"9480 S EASTERN AVE STE 145,LAS VEGAS,NV,89123-8028",0.3333333333333333,0.0,0.0,36.01691138,-115.118619,1,0
355,"9484 W LAKE MEAD BLVD STE 2,LAS VEGAS,NV,89134-8339",0.25,0.0,0.0,36.20642249,-115.3021827,1,0
356,"9484 W LAKE MEAD BLVD,LAS VEGAS,NV,89134-8339",4.6287394940170685,0.16666666666666666,0.2424262649377065,36.20642249,-115.3021827,1,0
357,"9500 W FLAMINGO RD STE 102,LAS VEGAS,NV,89147-5720",0.0,0.0,1.0,36.11682148,-115.29925130000001,1,0
358,"9500 W FLAMINGO RD STE 200,LAS VEGAS,NV,89147-5721",0.5,1.0,0.0,36.11510743,-115.2993496,1,0
359,"953 E SAHARA AVE STE 2,LAS VEGAS,NV,89104-3005",0.25,0.0,0.0,36.1439515,-115.14198259999999,1,0
360,"953 E SAHARA AVE STE A2,LAS VEGAS,NV,89104-3028",0.7073109225884971,0.0,0.1924262649377066,36.1439515,-115.14198259999999,1,0
361,"955 W CRAIG RD STE 106G,NORTH LAS VEGAS,NV,89032-0242",0.533699811477386,0.16666666666666666,0.1924262649377066,36.23931849,-115.1554815,1,0
362,"956 TOPSY LN STE 103,CARSON CITY,NV,89705-8447",2.8149067112225006,0.03571428571428571,0.058776167471819636,39.11046048,-119.7757335,1,0
363,"9598 PROTOTYPE CT STE A,RENO,NV,89521-3950",0.0,1.0,0.0,39.44346132,-119.7651,1,0
364,"9598 PROTOTYPE CT, #A,RENO,NV,89521-6032",1.0,0.0,0.0,39.44346132,-119.7651,1,0
365,"9690 W TROPICANA AVE STE 110B,LAS VEGAS,NV,89147-2601",0.6666666666666666,0.0,0.0,36.10010651,-115.3033629,1,0
366,"975 TOPSY LN STE 103,CARSON CITY,NV,89705-8402",1.0,0.0,0.0,39.11035766,-119.77450590000001,1,0
367,"9775 W SUNSET RD STE 103,LAS VEGAS,NV,89148-4347",0.038461538461538464,0.0,0.0,36.07009849,-115.3063402,1,0
368,"E LAKE MEAD BLVD,LAS VEGAS,NV,89115",0.045454545454545456,0.0,0.0,36.23090133,-114.88364650000001,1,0
369,"STE 100,HENDERSON,NV,89014-8608",1.1354497354497353,0.0,0.25,36.063546,-115.04463200000001,1,0
370,"STE 100,HENDERSON,NV,89052-4847",0.5,0.0,0.5,36.008952,-115.111493,1,0
371,"STE 100,LAS VEGAS,NV,89118",0.45,0.0,0.0,36.0937753,-115.21837479999999,1,0
372,"STE 100,RENO,NV,89511-3211",0.0,0.5,0.0,39.398037,-119.76586100000002,1,0
373,"STE 105,LAS VEGAS,NV,89156",0.5,0.0,0.0,36.19727,-115.02434,1,0
374,"STE 105,LAS VEGAS,NV,89183",0.5,0.0,0.0,36.00941870000001,-115.12499509999999,1,0
375,"STE 110,LAS VEGAS,NV,89123",0.3333333333333333,0.0,0.0,36.02087729999999,-115.17437920000002,1,0
376,"STE 112,HENDERSON,NV,89119-3130",0.047619047619047616,0.0,0.0,36.081987,-115.1188325,1,0
377,"STE 120,HENDERSON,NV,89074",0.5,0.0,0.0,36.030609999999996,-115.10576999999999,1,0
378,"STE 260,LAS VEGAS,NV,89149",0.5,0.0,0.0,36.29469,-115.2949,1,0
379,"STE 350,SUN VALLEY,NV,89433",0.125,0.047619047619047616,0.0,39.572533,-119.77916780000001,1,0
380,"STE 4,NORTH LAS VEGAS,NV,89031",0.3333333333333333,0.0,0.0,36.26648,-115.16089,1,0
381,"STE 403,PAHRUMP,NV,89048-4682",0.5,0.0,0.0,36.206043,-115.98047450000001,1,0
382,"STE 5,MESQUITE,NV,89027-7503",0.5,0.0,0.0,36.80853,-114.11627299999999,1,0
383,"STE A,YERINGTON,NV,89447",2.0,0.0,0.0,38.985459999999996,-119.16591000000001,1,0
384,"STE H,HENDERSON,NV,89107-1932",0.3333333333333333,0.0,0.0,36.180186,-115.20593000000001,1,0
385,"W ANN RD,NORTH LAS VEGAS,NV,89031",0.043478260869565216,0.0,0.0,36.26168768,-115.17285840000001,1,0
