IKN_addr,general_med,general_chip,pediatric_med,pediatric_chip,specialist_med,specialist_chip,Y_lat_med,X_long_med,Y_lat_chip,X_long_chip,med_indicator_med,chip_indicator_med,med_indicator_chip,chip_indicator_chip
"1000 WIGWAM PKWY STE 120,HENDERSON,NV,89074-8164",1.5,1.5,0.0,0.0,0.0,0.0,36.03357605,-115.0325928,36.03357605,-115.0325928,1.0,0.0,0.0,1.0
"1017 E BASIN AVE STE 1,PAHRUMP,NV,89060-4532",1.316731774948919,0.3919005401203544,0.11011904761904764,0.0,0.125,0.0,36.21960753,-115.9961841,36.21960753,-115.9961841,1.0,0.0,0.0,1.0
"10400 S EASTERN AVE,HENDERSON,NV,89052-3957",0.0,0.5,2.5625,1.5,0.0,0.0,36.00170696,-115.1076044,36.00170696,-115.1076044,1.0,0.0,0.0,1.0
"1055 S WELLS AVE,RENO,NV,89502-2550",7.0,5.25,0.0,0.0,0.0,0.0,39.515697,-119.8032276,39.515697,-119.8032276,1.0,0.0,0.0,1.0
"10645 DOUBLE R BLVD,RENO,NV,89521-8920",0.7575757575757576,0.5714285714285714,0.16666666666666666,1.4761904761904765,0.75,0.5,39.42819337,-119.7521842,39.42819337,-119.7521842,1.0,0.0,0.0,1.0
"1070 N RANCHO DR,LAS VEGAS,NV,89106-1008",1.0,1.0,0.0,0.0,0.0,0.0,36.18315915,-115.180945,36.18315915,-115.180945,1.0,0.0,0.0,1.0
"1101 W MOANA LN STE 4,RENO,NV,89509-4734",2.125,1.75,0.5,0.0,0.0,0.0,39.49123546,-119.8092817,39.49123546,-119.8092817,1.0,0.0,0.0,1.0
"1105 S WELLS AVE,RENO,NV,89502-2525",1.0,1.0,0.0,0.0,0.0,0.0,39.51470392,-119.8032452,39.51470392,-119.8032452,1.0,0.0,0.0,1.0
"1111 N DECATUR BLVD,LAS VEGAS,NV,89108-1220",0.2577639751552795,0.2,0.0,0.0,0.0,0.0,36.18326674,-115.2062476,36.18326674,-115.2062476,1.0,0.0,0.0,1.0
"1125 N MCCARRAN BLVD STE 107,SPARKS,NV,89431-4607",2.1956084656084656,1.486634773272704,0.03571428571428571,0.037037037037037035,0.39210950080515294,1.0733333333333333,39.54304093,-119.7338493,39.54304093,-119.7338493,1.0,0.0,0.0,1.0
"1125 N MCCARRAN BLVD STE 109 # 111,SPARKS,NV,89431-4607",1.1956084656084656,1.1533014399393708,0.03571428571428571,0.037037037037037035,0.058776167471819636,0.07333333333333332,39.54304093,-119.7338493,39.54304093,-119.7338493,1.0,0.0,0.0,1.0
"1130 N HILLS BLVD STE 101,RENO,NV,89506-6723",0.7575757575757576,0.6190476190476191,0.6666666666666666,0.6428571428571428,0.0,0.0,39.60647418,-119.8428115,39.60647418,-119.8428115,1.0,0.0,0.0,1.0
"1241 S TAYLOR ST,FALLON,NV,89406-5804",0.09090909090909093,0.4761904761904762,0.4166666666666666,0.14285714285714285,0.0,1.5,39.463686,-118.7815449,39.463686,-118.7815449,1.0,0.0,0.0,1.0
"1274 E PLUMB LN STE C,RENO,NV,89502-6916",0.125,1.0,0.0,0.0,0.0,0.0,39.50585948,-119.783322,39.50585948,-119.783322,1.0,0.0,0.0,1.0
"1301 BERTHA HOWE AVE STE 5,MESQUITE,NV,89027-7503",0.5,1.0,0.0,0.0,0.0,0.0,36.80848717,-114.1162565,36.80848717,-114.1162565,1.0,0.0,0.0,1.0
"1301 N MCCARRAN BLVD STE 104,SPARKS,NV,89431-3870",2.0,1.75,0.5,0.0,0.0,0.0,39.54545949,-119.7338376,39.54545949,-119.7338376,1.0,0.0,0.0,1.0
"1306 W CRAIG RD STE H,N LAS VEGAS,NV,89032-0215",0.07142857142857142,1.0,0.0,0.0,0.0,0.0,36.23950346,-115.1593425,36.23950346,-115.1593425,1.0,0.0,0.0,1.0
"1328 US HIGHWAY 395 N STE 305,GARDNERVILLE,NV,89410-7368",1.0,0.5,0.0,0.0,0.0,0.0,38.93530437,-119.7383782,38.93530437,-119.7383782,1.0,0.0,0.0,1.0
"1350 S DECATUR BLVD,LAS VEGAS,NV,89102-8510",0.0,0.0,0.0,0.0,1.5,1.5,36.15518969,-115.2081191,36.15518969,-115.2081191,1.0,0.0,0.0,1.0
"1350 S JONES BLVD STE 140,LAS VEGAS,NV,89146-1233",0.5,1.0,0.0,0.0,0.0,0.0,36.15682587,-115.2248438,36.15682587,-115.2248438,1.0,0.0,0.0,1.0
"1351 W SUNSET RD STE 100,HENDERSON,NV,89014-8608",2.7642376142376146,2.205299232930812,0.0,0.0,0.0,0.0,36.0635855,-115.044642,36.0635855,-115.044642,1.0,0.0,0.0,1.0
"1420 E NEVADA HIGHWAY 372,PAHRUMP,NV,89048-2145",2.383649068182001,1.3919005401203544,0.047619047619047616,0.0,0.125,0.0,36.20710595,-115.9887967,36.20710595,-115.9887967,1.0,0.0,0.0,1.0
"1420 US HIGHWAY 95A N STE 2,FERNLEY,NV,89408-4602",1.0492424242424243,1.9083333333333328,0.047619047619047616,0.0,0.0,0.5,39.60816937,-119.221743,39.60816937,-119.221743,1.0,0.0,0.0,1.0
"1420 US HIGHWAY 95A N,FERNLEY,NV,89408-7724",0.5,0.3333333333333333,0.0,0.0,0.0,0.0,39.60816937,-119.221743,39.60816937,-119.221743,1.0,0.0,0.0,1.0
"1450 W HORIZON RIDGE PKWY STE B311,HENDERSON,NV,89012-4481",1.0,1.0,0.0,0.0,0.0,0.0,36.02113607,-115.0495508,36.02113607,-115.0495508,1.0,0.0,0.0,1.0
"1470 MEDICAL PKWY STE 260,CARSON CITY,NV,89703-4647",1.0,1.0,0.0,0.0,0.0,0.0,39.20057557,-119.7859417,39.20057557,-119.7859417,1.0,0.0,0.0,1.0
"1485 US HIGHWAY 395 N,GARDNERVILLE,NV,89410-5214",0.125,0.2416666666666667,0.047619047619047616,0.0,0.0,0.5,38.944280600000006,-119.7530249,38.944280600000006,-119.7530249,1.0,0.0,0.0,1.0
"150 S HIGHWAY 160 STE 11C,PAHRUMP,NV,89048-2133",0.0,0.0,0.0,0.0,0.037037037037037035,0.03333333333333333,36.21805133,-115.9936429,36.21805133,-115.9936429,1.0,0.0,0.0,1.0
"150 S HIGHWAY 160 STE C-11,PAHRUMP,NV,89048-2176",0.3333333333333333,0.0,0.0,0.0,0.0,0.03333333333333333,36.21805133,-115.9936429,36.21805133,-115.9936429,1.0,0.0,0.0,1.0
"150 S NEVADA HIGHWAY 160 STE C-11,PAHRUMP,NV,89048-2176",0.3333333333333333,0.5,0.0,0.0,0.037037037037037035,0.03333333333333333,36.21805133,-115.9936429,36.21805133,-115.9936429,1.0,0.0,0.0,1.0
"1500 E DESERT INN RD STE 1,LAS VEGAS,NV,89169-2550",0.6176045878421921,0.5828096310294453,0.047619047619047616,0.08333333333333333,0.0,0.0,36.12984649,-115.1318425,36.12984649,-115.1318424,1.0,0.0,0.0,1.0
"1520 N EASTERN AVE STE 105,LAS VEGAS,NV,89101-1506",1.8666666666666667,0.6944444444444444,0.0,0.0,0.0,0.0,36.18709047,-115.1159875,36.18709047,-115.1159875,1.0,0.0,0.0,1.0
"155 S C ST,HAWTHORNE,NV,89415",1.0,1.0,0.0,0.0,0.0,0.0,38.51766011,-118.6265286,38.51766011,-118.6265286,1.0,0.0,0.0,1.0
"1552 W WARM SPRINGS RD STE 120,HENDERSON,NV,89014-4328",1.0,1.0,0.0,0.0,0.0,0.0,36.05629152,-115.0524315,36.05629152,-115.0524315,1.0,0.0,0.0,1.0
"1570 S RAINBOW BLVD,LAS VEGAS,NV,89146-2956",0.0,0.0,0.0,0.0,1.0,0.5,36.15357597,-115.2432791,36.15357597,-115.2432791,1.0,0.0,0.0,1.0
"1580 E DESERT INN RD,LAS VEGAS,NV,89169-2548",2.9333333333333336,7.085964912280701,0.0,0.0,0.2,0.5,36.12985452,-115.1310144,36.12986449,-115.1310144,1.0,0.0,0.0,1.0
"1621 E FLAMINGO RD STE 17A,LAS VEGAS,NV,89119-5276",1.0,1.0,0.0,0.0,0.0,0.0,36.11447383,-115.1301823,36.11447383,-115.1301823,1.0,0.0,0.0,1.0
"1651 BOULDER CITY PKWY,BOULDER CITY,NV,89005-1909",0.3448773151149193,0.4983431171511668,0.047619047619047616,0.0,0.0,0.05555555555555555,35.96885482,-114.8579771,35.96885482,-114.8579771,1.0,0.0,0.0,1.0
"16580 WEDGE PKWY STE 100,RENO,NV,89511-3211",0.0,0.0,0.5,1.0,0.0,0.0,39.39804804,-119.7659051,39.39804804,-119.7659051,1.0,0.0,0.0,1.0
"1675 MEADOWVIEW LN,RENO,NV,89509-5216",0.0,0.0,0.25,1.0,0.0,0.0,39.48829949,-119.8158398,39.48829949,-119.8158398,1.0,0.0,0.0,1.0
"169 N NELLIS BLVD,LAS VEGAS,NV,89110-5320",2.19084799587088,1.232367149758454,0.0,0.0,0.0,0.0,36.16286892,-115.0623429,36.16286892,-115.0623429,1.0,0.0,0.0,1.0
"1700 E CHARLESTON BLVD,LAS VEGAS,NV,89104-1903",0.2,0.5,0.0,0.0,0.0,0.0,36.15884648,-115.1283905,36.15884648,-115.1283905,1.0,0.0,0.0,1.0
"1700 W CHARLESTON BLVD BLDG A,LAS VEGAS,NV,89102-2335",11.03125,8.885964912280702,1.0,0.5,3.0,1.5,36.1590108,-115.1645113,36.1590108,-115.1645113,1.0,0.0,0.0,1.0
"1700 W CHARLESTON BLVD BLDG D,LAS VEGAS,NV,89102-2335",2.5,3.0,0.0,0.0,3.0,3.0,36.1590108,-115.1645113,36.1590108,-115.1645113,1.0,0.0,0.0,1.0
"1700 W CHARLESTON BLVD,LAS VEGAS,NV,89102-2335",52.9376984126984,22.0627765064836,1.3928571428571428,0.5,7.533333333333332,5.0,36.1590108,-115.1644727,36.1590108,-115.1644727,1.0,0.0,0.0,1.0
"1701 COUNTY RD STE 1,MINDEN,NV,89423-4464",0.09090909090909093,0.0,0.2976190476190476,1.0,0.0,0.0,38.95590509,-119.7786993,38.95590509,-119.7786993,1.0,0.0,0.0,1.0
"1701 W CHARLESTON BLVD STE 520,LAS VEGAS,NV,89102-2309",0.0,0.0,0.0,0.0,0.2217391304347826,1.0,36.15876449,-115.16374340000002,36.15876449,-115.16374340000002,1.0,0.0,0.0,1.0
"1701 W CHARLESTON BLVD,LAS VEGAS,NV,89102-2325",0.5,1.0,0.0,0.0,0.0,0.0,36.15876449,-115.16374340000002,36.15876449,-115.16374340000002,1.0,0.0,0.0,1.0
"1703 CIVIC CENTER DR STE 5,NORTH LAS VEGAS,NV,89030-7273",0.0,0.25,0.0,0.0,0.5,1.5,36.19106105,-115.116318,36.19106105,-115.116318,1.0,0.0,0.0,1.0
"1703 CIVIC CENTER DR STE 6,NORTH LAS VEGAS,NV,89030-7273",0.6666666666666666,0.75,0.0,0.0,0.0,0.0,36.19106147,-115.1163081,36.19106147,-115.1163081,1.0,0.0,0.0,1.0
"1707 W CHARLESTON BLVD STE 290,LAS VEGAS,NV,89102-2353",2.0,3.5,0.25,0.3333333333333333,1.0,1.0,36.15877152,-115.1643735,36.15877152,-115.1643735,1.0,0.0,0.0,1.0
"1707 W CHARLESTON BLVD,LAS VEGAS,NV,89102-2351",0.5,1.0,0.0,0.0,0.0,0.0,36.15877152,-115.1643735,36.15877152,-115.1643735,1.0,0.0,0.0,1.0
"1750 WHEELER PEAK DR,LAS VEGAS,NV,89106-2150",0.6031746031746031,1.0476190476190477,1.75,0.3333333333333333,0.0,0.05555555555555555,36.19015701,-115.1628572,36.19015701,-115.1628572,1.0,0.0,0.0,1.0
"1775 VILLAGE CENTER CIR STE 150,LAS VEGAS,NV,89134-0571",1.0,2.0,0.0,0.0,0.0,0.0,36.1931275,-115.30035430000001,36.1931275,-115.30035430000001,1.0,0.0,0.0,1.0
"1780 N BUFFALO DR STE 109,LAS VEGAS,NV,89128-2675",1.0,1.0,0.0,0.0,0.0,0.0,36.19071092,-115.259985,36.19071092,-115.259985,1.0,0.0,0.0,1.0
"1811 S RAINBOW BLVD STE 101,LAS VEGAS,NV,89146-0855",1.3333333333333333,0.8333333333333333,0.0,0.0,0.0,0.0,36.15087513,-115.2434165,36.15087513,-115.2434165,1.0,0.0,0.0,1.0
"1820 E LAKE MEAD BLVD STE G,NORTH LAS VEGAS,NV,89030-7134",0.6731601433977475,0.3919005401203544,0.047619047619047616,0.0,0.0,0.0,36.19585151,-115.1214202,36.19585151,-115.1214202,1.0,0.0,0.0,1.0
"1825 S NELLIS BLVD,LAS VEGAS,NV,89104-6215",0.75,0.6,0.0,0.0,0.0,0.0,36.15081586,-115.0654248,36.15081586,-115.0654248,1.0,0.0,0.0,1.0
"1860 E CHARLESTON BLVD,LAS VEGAS,NV,89104-1949",2.2691411651821864,2.44001853541774,0.08834586466165413,0.08703703703703704,0.10877616747181963,0.1019047619047619,36.15877149,-115.1239042,36.15877149,-115.1239042,1.0,0.0,0.0,1.0
"1985 N NELLIS BLVD,LAS VEGAS,NV,89115-3647",0.4021164021164021,1.1917027417027417,0.0,0.0,0.0,0.0,36.19597161,-115.0622834,36.19597161,-115.0622834,1.0,0.0,0.0,1.0
"2047 W CHARLESTON BLVD STE 100,LAS VEGAS,NV,89102-2251",0.0,0.0,0.0,0.0,2.0,2.0,36.15877652,-115.169931,36.15877652,-115.169931,1.0,0.0,0.0,1.0
"207 W WINNIE LN,CARSON CITY,NV,89703",0.8201970443349753,0.2857142857142857,0.0,0.0,0.26785714285714285,0.14285714285714285,39.17912226,-119.7680075,39.17912226,-119.7680075,1.0,0.0,0.0,1.0
"2075 E WINDMILL LN STE 110,LAS VEGAS,NV,89123-2084",0.3333333333333333,0.5,0.0,0.0,0.0,0.0,36.04228706,-115.1230284,36.04228706,-115.1230284,1.0,0.0,0.0,1.0
"210 S MARYLAND PKWY STE A,LAS VEGAS,NV,89101-5319",1.0,1.0,0.0,0.0,0.0,0.0,36.16425434,-115.1337595,36.16425434,-115.1337595,1.0,0.0,0.0,1.0
"2145 GREEN VISTA DR STE 110,SPARKS,NV,89431-8513",1.0,1.0,0.0,0.0,0.0,0.0,39.55944454,-119.7729196,39.55944454,-119.7729196,1.0,0.0,0.0,1.0
"2175 E CHEYENNE AVE STE 100,NORTH LAS VEGAS,NV,89030-8438",0.7271521924297668,1.3355861244019138,0.0,0.06666666666666668,0.1924262649377066,0.028571428571428567,36.21763147,-115.1190111,36.21763147,-115.1190111,1.0,0.0,0.0,1.0
"2212 S EASTERN AVE,LAS VEGAS,NV,89104-4124",1.0416666666666663,1.5909090909090908,0.0,0.0,0.0,0.0,36.146619,-115.1188866,36.146619,-115.1188866,1.0,0.0,0.0,1.0
"2217 E LAKE MEAD BLVD,NORTH LAS VEGAS,NV,89030-7137",3.762067789912815,3.0726324400237437,0.4694264069264071,0.05,1.555072463768116,1.311904761904762,36.19577672,-115.1180758,36.19577672,-115.1180758,1.0,0.0,0.0,1.0
"222 KAREN AVE UNIT 2503,LAS VEGAS,NV,89109-5305",0.09090909090909093,0.1111111111111111,0.0,0.0,0.0,0.0,36.14026646,-115.1537116,36.14026646,-115.1537116,1.0,0.0,0.0,1.0
"2220 E SERENE AVE STE 100-3,LAS VEGAS,NV,89123-4819",1.0,1.0,0.0,0.0,0.0,0.0,36.02056763,-115.1218425,36.02056763,-115.1218425,1.0,0.0,0.0,1.0
"2250 S RANCHO DR STE 205,LAS VEGAS,NV,89102-4456",0.17045454545454547,0.13596491228070173,0.0,0.0,0.0,0.0,36.14695793,-115.1731886,36.14695793,-115.1731886,1.0,0.0,0.0,1.0
"2272 S NELLIS BLVD STE 2,LAS VEGAS,NV,89104-6216",0.5,1.0,0.0,0.0,0.0,0.0,36.1454175,-115.0653161,36.1454175,-115.0653161,1.0,0.0,0.0,1.0
"2285 E FLAMINGO RD STE 101,LAS VEGAS,NV,89119-5114",1.3333333333333333,1.3333333333333333,0.0,0.0,0.0,1.0,36.11457452,-115.12112009999998,36.11457452,-115.12112009999998,1.0,0.0,0.0,1.0
"2301 E LAKE MEAD BLVD,N LAS VEGAS,NV,89030-7137",0.041666666666666664,0.05263157894736842,0.0,0.0,0.0,0.0,36.19577816,-115.1175118,36.19577816,-115.1175118,1.0,0.0,0.0,1.0
"2301 E LAKE MEAD BLVD,NORTH LAS VEGAS,NV,89030-7137",1.8074186771439087,2.147594292993497,0.08834586466165413,0.08703703703703704,0.058776167471819636,0.07333333333333332,36.19577816,-115.1175118,36.19577816,-115.1175118,1.0,0.0,0.0,1.0
"2311 S CASINO DR STE 2D,LAUGHLIN,NV,89029-1534",0.4146521924297669,0.8355861244019139,0.0,0.06666666666666668,0.1924262649377066,0.08412698412698412,35.15522458,-114.5747276,35.15522458,-114.5747276,1.0,0.0,0.0,1.0
"2311 S CASINO DR STE D-2,LAUGHLIN,NV,89029-1538",0.05555555555555555,0.3333333333333333,0.0,0.0,0.0,0.0,35.15521486,-114.5747276,35.15521486,-114.5747276,1.0,0.0,0.0,1.0
"2311 S CASINO DR,LAUGHLIN,NV,89029-1538",0.05263157894736842,1.0,0.0,0.0,0.0,0.0,35.15521486,-114.5747276,35.15521486,-114.5747276,1.0,0.0,0.0,1.0
"235 N EASTERN AVE STE 107,LAS VEGAS,NV,89101-4544",0.3333333333333333,0.25,0.0,0.0,0.0,0.0,36.165627,-115.11592749999998,36.165627,-115.11592749999998,1.0,0.0,0.0,1.0
"2381 E WINDMILL LN STE 11,LAS VEGAS,NV,89123-2069",0.834295049572624,0.8355861244019139,0.0,0.06666666666666668,0.1924262649377066,0.08412698412698412,36.04218282,-115.1190568,36.04218282,-115.1190568,1.0,0.0,0.0,1.0
"2381 RENAISSANCE DR STE B,LAS VEGAS,NV,89119-6498",1.0,1.0,0.5833333333333333,0.25,0.0,0.0,36.10346454,-115.11979540000002,36.10346454,-115.11979540000002,1.0,0.0,0.0,1.0
"2425 E TROPICANA AVE STE 5B,LAS VEGAS,NV,89121-5416",0.3333333333333333,0.5,0.0,0.0,0.0,0.0,36.09980988,-115.117688,36.09980988,-115.117688,1.0,0.0,0.0,1.0
"2425 E TROPICANA AVE,LAS VEGAS,NV,89121-5416",0.045454545454545456,0.1111111111111111,0.0,0.0,0.0,0.0,36.09980988,-115.117688,36.09980988,-115.117688,1.0,0.0,0.0,1.0
"2480 E TOMPKINS AVE STE 102,LAS VEGAS,NV,89121-5466",1.041507482333322,0.3919005401203544,0.047619047619047616,0.0,0.0,0.0,36.10366748,-115.1171943,36.10366748,-115.1171943,1.0,0.0,0.0,1.0
"250 E LAKE MEAD BLVD N,NORTH LAS VEGAS,NV,89030-3000",0.0,0.0,0.0,0.0,0.3333333333333333,0.5,36.19696032,-115.1361911,36.19696032,-115.1361911,1.0,0.0,0.0,1.0
"2500 E LAKE MEAD BLVD,NORTH LAS VEGAS,NV,89030-6464",1.0,0.5,0.0,0.0,0.0,0.0,36.19588548,-115.1161105,36.19588548,-115.1161105,1.0,0.0,0.0,1.0
"2500 W SAHARA AVE STE 202,LAS VEGAS,NV,89102-4367",0.0,0.0,0.0,0.0,1.0,0.5,36.14445277,-115.1749591,36.14445277,-115.1749591,1.0,0.0,0.0,1.0
"2510 W CHARLESTON BLVD STE F56,LAS VEGAS,NV,89102-2175",0.3333333333333333,0.5,0.0,0.0,0.0,0.0,36.15904859,-115.1763535,36.15904859,-115.1763535,1.0,0.0,0.0,1.0
"2551 N GREEN VALLEY PKWY STE 400A,HENDERSON,NV,89014-0272",1.0,1.0,0.0,0.0,0.0,0.0,36.06837348,-115.0825475,36.06837348,-115.0825475,1.0,0.0,0.0,1.0
"2551 N GREEN VALLEY PKWY,HENDERSON,NV,89014-0272",0.0,0.0,0.3333333333333333,0.3333333333333333,0.0,0.0,36.06837348,-115.0825475,36.06837348,-115.0825475,1.0,0.0,0.0,1.0
"2560 S MARYLAND PKWY STE 5,LAS VEGAS,NV,89109-1672",1.0,2.0,0.0,0.0,0.0,0.0,36.14290264,-115.1368229,36.14290264,-115.1368229,1.0,0.0,0.0,1.0
"2575 N 5TH ST STE A,ELKO,NV,89801-2468",2.5,2.0,1.0,1.0,0.0,0.0,40.84673296,-115.7842417,40.84673296,-115.7842417,1.0,0.0,0.0,1.0
"2605 S DECATUR BLVD STE 116,LAS VEGAS,NV,89102-8592",2.0,2.0,0.0,0.0,0.0,0.0,36.14276763,-115.208266,36.14276763,-115.208266,1.0,0.0,0.0,1.0
"2660 WINDMILL PKWY,HENDERSON,NV,89074-3385",3.033333333333333,1.1666666666666663,0.0,0.0,0.0,0.0,36.04248137,-115.1042258,36.04248137,-115.1042258,1.0,0.0,0.0,1.0
"2668 LAS VEGAS BLVD N STE 101,N LAS VEGAS,NV,89030-5870",0.16666666666666666,0.5,0.0,0.0,0.0,0.0,36.20814785,-115.1094087,36.20814785,-115.1094087,1.0,0.0,0.0,1.0
"2764 LAKE SAHARA DR STE 107,LAS VEGAS,NV,89117-3400",0.2857142857142857,1.6666666666666663,0.0,0.0,0.0,0.0,36.14019247,-115.283757,36.14019247,-115.283757,1.0,0.0,0.0,1.0
"2799 SUNRIDGE HEIGHTS PKWY STE 100,HENDERSON,NV,89052-5055",0.0,0.0,0.0,0.0,0.5,0.5,35.99130248,-115.109713,35.99130248,-115.109713,1.0,0.0,0.0,1.0
"2801 S VALLEY VIEW BLVD STE 4,LAS VEGAS,NV,89102-0116",0.0,1.0,0.030303030303030307,0.0,0.0,0.0,36.140507799999995,-115.1906955,36.1405078,-115.1906955,1.0,0.0,0.0,1.0
"2810 W CHARLESTON BLVD,LAS VEGAS,NV,89102",0.3333333333333333,0.5,0.0,0.0,0.0,0.0,36.15902447,-115.1798128,36.15902447,-115.1798128,1.0,0.0,0.0,1.0
"2811 N GREEN VALLEY PKWY,HENDERSON,NV,89014-0401",0.8201970443349753,0.9285714285714286,0.0,0.0,0.14285714285714285,0.0,36.07151989,-115.0825188,36.07151989,-115.0825188,1.0,0.0,0.0,1.0
"2835 SAINT ROSE PKWY STE 100,HENDERSON,NV,89052-4847",0.5,1.0,0.0,0.0,0.5,1.0,36.00896027,-115.1115348,36.00896027,-115.1115348,1.0,0.0,0.0,1.0
"2843 SAINT ROSE PKWY STE 100,HENDERSON,NV,89052-4814",1.0,0.5,0.0,0.0,0.0,0.0,36.00889831,-115.1116327,36.00889831,-115.1116327,1.0,0.0,0.0,1.0
"290 BRINKBY AVE,RENO,NV,89509-4348",1.0,1.0,0.0,0.0,0.0,1.0,39.4951915,-119.80142190000001,39.4951915,-119.80142190000001,1.0,0.0,0.0,1.0
"2900 CLEAR ACRE LN STE S,RENO,NV,89512-1764",0.16666666666666666,0.5,0.0,0.0,0.0,0.0,39.55772638,-119.7915869,39.55772638,-119.7915869,1.0,0.0,0.0,1.0
"2900 E DESERT INN RD STE 109,LAS VEGAS,NV,89121-3619",1.0,0.25,0.0,0.0,0.0,0.0,36.12981352,-115.1107527,36.12981352,-115.1107527,1.0,0.0,0.0,1.0
"301 N PECOS RD STE F,HENDERSON,NV,89074-1350",0.5,0.5,0.0,0.0,0.0,0.0,36.05022955,-115.1003955,36.05022955,-115.1003955,1.0,0.0,0.0,1.0
"3016 W CHARLESTON BLVD STE 145,LAS VEGAS,NV,89102-1964",0.7023809523809523,0.045454545454545456,0.0,0.0,0.2,0.0,36.15904247,-115.1823823,36.15904247,-115.1823823,1.0,0.0,0.0,1.0
"3040 W ANN RD STE 101,N LAS VEGAS,NV,89031-7266",1.6623376623376624,2.7,0.0,0.0,0.0,0.0,36.26160052,-115.1819801,36.26160052,-115.1819801,1.0,0.0,0.0,1.0
"3040 W ANN RD STE 101,NORTH LAS VEGAS,NV,89031-7266",0.18230019493177388,0.1787810042347247,0.08834586466165413,0.08703703703703704,0.0,0.0,36.26160052,-115.1819801,36.26160052,-115.1819801,1.0,0.0,0.0,1.0
"3041 E FLAMINGO RD,LAS VEGAS,NV,89121",2.5357142857142856,0.045454545454545456,0.0,0.0,0.2,0.0,36.11492652,-115.1092319,36.11492652,-115.1092319,1.0,0.0,0.0,1.0
"3050 E DESERT INN RD, #105,LAS VEGAS,NV,89121-3871",1.0,0.5,0.0,0.0,0.0,0.0,36.1297895,-115.1082538,36.1297895,-115.1082538,1.0,0.0,0.0,1.0
"307 W WINNIE LN STE 2,CARSON CITY,NV,89703-2145",1.0,0.5,0.0,0.0,0.0,0.0,39.17916948,-119.7689938,39.17916948,-119.7689938,1.0,0.0,0.0,1.0
"3150 VISTA BLVD STE 110,SPARKS,NV,89436-6704",0.09090909090909093,0.14285714285714285,0.16666666666666666,0.14285714285714285,0.25,0.14285714285714285,39.56021162,-119.7054369,39.56021162,-119.7054369,1.0,0.0,0.0,1.0
"3150 VISTA BLVD STE 112,SPARKS,NV,89436-6704",0.7575757575757576,0.6190476190476191,0.6666666666666666,0.6428571428571428,0.0,0.0,39.56021162,-119.7054369,39.56021162,-119.7054369,1.0,0.0,0.0,1.0
"3160 N TRUCKEE LN,SPARKS,NV,89434-1583",0.5492424242424243,1.2416666666666667,0.047619047619047616,0.0,0.0,0.0,39.55819898,-119.73379579999998,39.55819898,-119.73379579999998,1.0,0.0,0.0,1.0
"3163 N RAINBOW BLVD,LAS VEGAS,NV,89108-4578",0.7,0.3333333333333333,0.0,0.0,0.0,0.0,36.21740265,-115.2423484,36.21740265,-115.2423484,1.0,0.0,0.0,1.0
"3196 S MARYLAND PKWY STE 307,LAS VEGAS,NV,89109-2314",0.5357142857142857,2.0,0.5,0.0,0.3333333333333333,1.0,36.131922,-115.136869,36.131922,-115.136869,1.0,0.0,0.0,1.0
"320 N NELLIS BLVD STE 4,LAS VEGAS,NV,89110-5390",0.8201970443349753,0.2857142857142857,0.0,0.0,0.26785714285714285,0.14285714285714285,36.16505186,-115.062019,36.16505186,-115.062019,1.0,0.0,0.0,1.0
"3211 S EASTERN AVE,LAS VEGAS,NV,89169-3310",0.3333333333333333,0.25,0.0,0.0,0.0,0.0,36.13132799,-115.118576,36.13132799,-115.118576,1.0,0.0,0.0,1.0
"3225 S RAINBOW BLVD STE 104,LAS VEGAS,NV,89146-6216",1.5333333333333332,0.7526315789473684,0.0,0.0,0.0,0.0,36.13095011,-115.243104,36.13095011,-115.243104,1.0,0.0,0.0,1.0
"3226 N DECATUR BLVD,LAS VEGAS,NV,89130-3207",1.0,1.0,0.0,0.0,0.0,0.0,36.21798341,-115.2074351,36.21798341,-115.2074351,1.0,0.0,0.0,1.0
"3310 N MOAPA VALLEY BLVD,LOGANDALE,NV,89021",0.0,0.0,0.3333333333333333,0.5,0.0,0.0,36.60091061,-114.4839499,36.60091061,-114.4839499,1.0,0.0,0.0,1.0
"3310 N MOAPA VALLEY BLVD,LOGANDALE,NV,89021-9940",0.0,0.0,0.25,1.0,0.0,0.0,36.60092092,-114.4839487,36.60092092,-114.4839487,1.0,0.0,0.0,1.0
"3315 W CRAIG RD STE 108,N LAS VEGAS,NV,89032-5001",0.125,1.0,0.0,0.0,0.0,0.0,36.23933653,-115.185294,36.23933653,-115.185294,1.0,0.0,0.0,1.0
"3362 S MCCARRAN BLVD,RENO,NV,89502-6442",6.125,4.0,0.0,0.14285714285714285,0.0,0.0,39.485304,-119.7479154,39.485304,-119.7479154,1.0,0.0,0.0,1.0
"340 FALCON RIDGE PKWY STE 300C,MESQUITE,NV,89027-8851",0.5,1.0,0.0,0.0,0.0,0.0,36.80826257,-114.1131342,36.80826257,-114.1131342,1.0,0.0,0.0,1.0
"3405 MARKET ST STE 102,CARSON CITY,NV,89706-8019",1.4826455026455023,1.4100064207822829,0.03571428571428571,0.037037037037037035,0.5587761674718197,1.0733333333333333,39.18918689,-119.7566216,39.18918689,-119.7566216,1.0,0.0,0.0,1.0
"350 FALCON RIDGE PKWY STE 200STE # 101,MESQUITE,NV,89027-8878",0.0,0.0,0.3333333333333333,0.5,0.0,0.0,36.80909952,-114.1134771,36.80909952,-114.1134771,1.0,0.0,0.0,1.0
"3600 N BUFFALO DR STE 110,LAS VEGAS,NV,89129-7462",0.2976190476190476,0.5,0.8333333333333333,0.0,0.0,1.0,36.22600841,-115.2605375,36.22600841,-115.2605375,1.0,0.0,0.0,1.0
"3603 LAS VEGAS BLVD N STE 120,LAS VEGAS,NV,89115-0588",0.1486291486291486,0.047619047619047616,0.5,0.3333333333333333,0.0,0.05555555555555555,36.22487281,-115.0813071,36.22487281,-115.0813071,1.0,0.0,0.0,1.0
"3674 E SUNSET RD,LAS VEGAS,NV,89120-7234",1.5333333333333332,1.6666666666666663,0.0,0.0,0.0,0.0,36.07145743,-115.0949898,36.07145743,-115.0949898,1.0,0.0,0.0,1.0
"3701 BAKER LN STE 1,RENO,NV,89509-5430",0.0,1.0,2.0,2.0,0.0,0.0,39.488904,-119.7986756,39.488904,-119.7986756,1.0,0.0,0.0,1.0
"3730 E FLAMINGO RD,LAS VEGAS,NV,89121-4921",1.220259961853326,1.8355861244019136,0.0,0.06666666666666668,0.1299262649377066,0.08412698412698412,36.11541476,-115.0932019,36.11541476,-115.0932019,1.0,0.0,0.0,1.0
"375 N STEPHANIE ST BLDG 6 # 611,HENDERSON,NV,89014-8771",3.8186868686868687,2.5150793650793655,1.0,0.5,0.0,0.0,36.05368519,-115.0464674,36.05368519,-115.0464674,1.0,0.0,0.0,1.0
"375 N STEPHANIE ST BLDG 6,HENDERSON,NV,89014-8771",0.05555555555555555,0.125,0.0,0.0,0.0,0.0,36.05368519,-115.0464674,36.05368519,-115.0464674,1.0,0.0,0.0,1.0
"375 N STEPHANIE ST BLDG 6611,HENDERSON,NV,89014-8771",1.0,0.3333333333333333,0.0,0.0,0.0,0.0,36.05411719,-115.04645790000002,36.05411719,-115.04645790000002,1.0,0.0,0.0,1.0
"375 N STEPHANIE ST STE 211,HENDERSON,NV,89014-8773",1.5,0.8333333333333333,0.0,0.0,0.5,0.0,36.05411719,-115.04645790000002,36.05411719,-115.04645790000002,1.0,0.0,0.0,1.0
"375 N STEPHANIE ST STE 611,HENDERSON,NV,89014-8782",0.3333333333333333,0.3333333333333333,0.0,0.0,0.0,0.0,36.05411719,-115.04645790000002,36.05411719,-115.04645790000002,1.0,0.0,0.0,1.0
"3830 E FLAMINGO RD STE E2,LAS VEGAS,NV,89121-6237",2.8672513882924107,1.9707563648397801,0.08834586466165413,0.08703703703703704,0.058776167471819636,0.07333333333333332,36.11532144,-115.0905323,36.11532144,-115.0905323,1.0,0.0,0.0,1.0
"3870 W ANN RD STE 120,NORTH LAS VEGAS,NV,89031-4412",0.5,0.3333333333333333,0.6666666666666666,0.8333333333333333,0.0,0.0,36.26153045,-115.1916209,36.26153045,-115.1916209,1.0,0.0,0.0,1.0
"3880 W LAKE MEAD BLVD,NORTH LAS VEGAS,NV,89032-5200",0.047619047619047616,0.3333333333333333,0.0,0.0,0.0,0.0,36.19887435,-115.1910889,36.19887435,-115.1910889,1.0,0.0,0.0,1.0
"3885 S DECATUR BLVD STE 1100,LAS VEGAS,NV,89103-5872",1.1666666666666667,0.05555555555555555,0.0,0.0,0.0,0.0,36.11923199,-115.2081675,36.11923199,-115.2081675,1.0,0.0,0.0,1.0
"3945 S MARYLAND PKWY STE A,LAS VEGAS,NV,89119-7563",3.661733109303367,2.8281498485490517,0.3846120984278879,0.08703703703703704,0.058776167471819636,0.07333333333333332,36.11732605,-115.13775520000002,36.11732605,-115.13775520000002,1.0,0.0,0.0,1.0
"3960 W ANN RD STE 120,NORTH LAS VEGAS,NV,89031-3851",0.6676283829059574,0.7522527910685806,0.0625,0.06666666666666668,0.1924262649377066,0.028571428571428567,36.26153945,-115.1932103,36.26153945,-115.1932103,1.0,0.0,0.0,1.0
"3960 W CRAIG RD STE 110,N LAS VEGAS,NV,89032-2750",0.3333333333333333,0.25,0.0,0.0,0.0,0.0,36.23936548,-115.1931114,36.23936548,-115.1931114,1.0,0.0,0.0,1.0
"3965 E OWENS AVE STE 190,LAS VEGAS,NV,89110-7034",0.325,1.3333333333333333,0.0,0.0,0.0,0.0,36.18825335,-115.0907221,36.18825335,-115.0907221,1.0,0.0,0.0,1.0
"4 SUNSET WAY STE C,HENDERSON,NV,89014-2016",2.0,1.0,0.0,0.0,1.0,4.0,36.07183254,-115.0703459,36.07183254,-115.0703459,1.0,0.0,0.0,1.0
"4001 S DECATUR BLVD STE 42A,LAS VEGAS,NV,89103-5859",2.3854497354497357,1.6526676539834433,0.0,0.0,0.0,0.0,36.11721736,-115.2081055,36.11721736,-115.2081055,1.0,0.0,0.0,1.0
"4001 S DECATUR BLVD,LAS VEGAS,NV,89103-5860",0.9354497354497352,1.6678932178932175,0.0,0.0,0.0,0.0,36.11721736,-115.2081055,36.11721736,-115.2081055,1.0,0.0,0.0,1.0
"4035 S DURANGO DR STE 103,LAS VEGAS,NV,89147-4162",4.784603480644504,3.481955764854969,0.24175495557074506,0.3727513227513227,0.13907919777484995,0.1019047619047619,36.11650469,-115.2790675,36.11650469,-115.2790675,1.0,0.0,0.0,1.0
"4045 S BUFFALO DR STE A102,LAS VEGAS,NV,89147-7481",1.0,0.5,0.0,0.0,0.0,0.0,36.11530994,-115.261024,36.11530994,-115.261024,1.0,0.0,0.0,1.0
"4045 S EASTERN AVE,LAS VEGAS,NV,89119-5101",2.125,2.0,0.0,0.0,0.2,0.0,36.11574125,-115.11919640000002,36.11574125,-115.11919640000002,1.0,0.0,0.0,1.0
"4080 N MARTIN L KING BLVD STE 101B,NORTH LAS VEGAS,NV,89032-3217",1.528110265739174,0.730428678648493,0.047619047619047616,0.0,0.0,0.0,36.23373,-115.1619,36.23373,-115.1619,1.0,0.0,0.0,1.0
"4080 N MARTIN L KING BLVD STE,N LAS VEGAS,NV,89032-3216",1.0,0.5,0.0,0.0,0.0,0.0,36.23373,-115.1619,36.23373,-115.1619,1.0,0.0,0.0,1.0
"4090 N MARTIN L KING BLVD,N LAS VEGAS,NV,89032-3218",0.14973262032085566,0.08928571428571427,0.047619047619047616,0.08333333333333333,0.0,0.0,36.233658,-115.1618989,36.233658,-115.1618989,1.0,0.0,0.0,1.0
"4121 W SAHARA AVE,LAS VEGAS,NV,89102-3704",2.6666666666666665,1.0,0.0,0.0,0.0,0.0,36.14434847,-115.1967329,36.14434847,-115.1967329,1.0,0.0,0.0,1.0
"4161 S EASTERN AVE STE E8,LAS VEGAS,NV,89119-5425",1.0,1.0,1.0,0.5,0.0,0.0,36.11298183,-115.11923130000001,36.11298183,-115.11923130000001,1.0,0.0,0.0,1.0
"4180 S SANDHILL RD STE B1,LAS VEGAS,NV,89121-6262",0.05263157894736842,1.0,0.0,0.0,0.0,0.0,36.11408288,-115.091898,36.11408288,-115.091898,1.0,0.0,0.0,1.0
"4226 S DURANGO DR STE 103,LAS VEGAS,NV,89147-8722",0.8333333333333333,0.3333333333333333,0.0,0.0,0.0,0.0,36.11266509,-115.2790199,36.11266509,-115.2790199,1.0,0.0,0.0,1.0
"4245 E CHARLESTON BLVD,LAS VEGAS,NV,89104-2380",0.0,0.0,0.5625,1.1428571428571428,0.0,0.0,36.15880619,-115.0822345,36.15880619,-115.0822345,1.0,0.0,0.0,1.0
"4250 S RAINBOW BLVD STE 1004-1005,LAS VEGAS,NV,89103-3104",0.5,1.0,0.0,0.0,0.0,0.0,36.1112437,-115.24284740000002,36.1112437,-115.24284740000002,1.0,0.0,0.0,1.0
"4250 SIMMONS ST,NORTH LAS VEGAS,NV,89032-0768",1.5333333333333332,1.6666666666666663,0.0,0.0,0.0,0.0,36.23667203,-115.1801374,36.23667203,-115.1801374,1.0,0.0,0.0,1.0
"4300 E SUNSET RD STE B2,HENDERSON,NV,89014-2268",1.0,1.0,0.0,0.0,0.0,0.0,36.07097251,-115.08014,36.07097251,-115.08014,1.0,0.0,0.0,1.0
"4300 MEADOWS LN STE 1350,LAS VEGAS,NV,89107-3021",3.2065443175853394,2.048021643420847,0.17925495557074506,0.2298941798941799,0.09877616747181964,0.1117948717948718,36.17027956,-115.1974773,36.17027956,-115.1974773,1.0,0.0,0.0,1.0
"4301 S NELLIS BLVD,LAS VEGAS,NV,89121-3120",0.3333333333333333,0.3333333333333333,0.0,0.0,0.0,0.0,36.11118343,-115.064544,36.11118343,-115.064544,1.0,0.0,0.0,1.0
"4306 S EASTERN AVE,LAS VEGAS,NV,89119-6016",0.0,0.0,0.0,0.0,1.0,1.0,36.11050768,-115.119098,36.11050768,-115.119098,1.0,0.0,0.0,1.0
"4333 LAS VEGAS BLVD N STE 100,LAS VEGAS,NV,89115-0639",0.6676283829059574,1.0855861244019138,0.0,0.06666666666666668,0.1299262649377066,0.08412698412698412,36.23874188,-115.0576066,36.23874188,-115.0576066,1.0,0.0,0.0,1.0
"4401 E SUNSET RD STE 3,HENDERSON,NV,89014-2200",2.0,1.0,0.0,0.0,0.0,0.0,36.07080047,-115.0774827,36.07080047,-115.0774827,1.0,0.0,0.0,1.0
"4408 S EASTERN AVE,LAS VEGAS,NV,89119-7825",1.0666666666666669,1.0,0.0,0.0,0.0,0.0,36.10884586,-115.1190675,36.10884586,-115.1190675,1.0,0.0,0.0,1.0
"445 W CRAIG RD STE 121-122,NORTH LAS VEGAS,NV,89032-1230",3.0459020146520146,1.0,0.0,0.0,0.2,0.0,36.23931908,-115.1476558,36.23931908,-115.1476558,1.0,0.0,0.0,1.0
"4451 N RANCHO DR,LAS VEGAS,NV,89130-3405",0.7408424908424909,0.2121212121212121,0.0,0.0,0.0,0.0,36.24152735,-115.234526,36.24152735,-115.234526,1.0,0.0,0.0,1.0
"4492 S PECOS RD,LAS VEGAS,NV,89121-5030",0.5714285714285714,1.8333333333333333,0.0,0.0,0.2,0.0,36.10789063,-115.100658,36.10789063,-115.100658,1.0,0.0,0.0,1.0
"450 E SILVERADO RANCH BLVD STE 105,LAS VEGAS,NV,89183-6204",2.7,2.1111111111111107,0.0,0.0,0.0,0.0,36.01330967,-115.1533365,36.01330967,-115.1533365,1.0,0.0,0.0,1.0
"4530 S CARSON ST STE 5,CARSON CITY,NV,89701-6914",0.0,0.5,1.0,0.0,0.0,0.0,39.12608734,-119.7711457,39.12608734,-119.7711457,1.0,0.0,0.0,1.0
"4530 S CARSON ST,CARSON CITY,NV,89701-6918",1.0,0.5,0.0,0.0,0.0,0.0,39.12608734,-119.7711457,39.12608734,-119.7711457,1.0,0.0,0.0,1.0
"4570 N RANCHO DR STE 2,LAS VEGAS,NV,89130-3431",0.3333333333333333,1.0,0.0,0.0,0.0,0.0,36.24308656,-115.2356179,36.24308656,-115.2356179,1.0,0.0,0.0,1.0
"4610 MEADOWS LN STE A,LAS VEGAS,NV,89107-2965",0.5,0.3333333333333333,0.0,0.0,0.5,0.5,36.1702495,-115.203294,36.1702495,-115.203294,1.0,0.0,0.0,1.0
"4650 WEDEKIND RD STE 1,SPARKS,NV,89431-7722",0.3333333333333333,0.3333333333333333,0.0,0.0,0.0,0.0,39.55716656,-119.7648906,39.55716656,-119.7648906,1.0,0.0,0.0,1.0
"467 E SILVERADO RANCH BLVD STE 115,LAS VEGAS,NV,89183-6275",0.5,0.3333333333333333,0.0,0.0,0.0,0.0,36.01321249,-115.1526926,36.01321249,-115.1526926,1.0,0.0,0.0,1.0
"4720 BLUE DIAMOND RD STE 100,LAS VEGAS,NV,89139-7609",2.6031538915862185,1.9190589394581432,0.08834586466165413,0.08703703703703704,0.058776167471819636,0.07333333333333332,36.03395431,-115.2052318,36.03395431,-115.2052318,1.0,0.0,0.0,1.0
"4750 W SAHARA AVE STE 11,LAS VEGAS,NV,89102-3559",0.7166666666666666,0.4476190476190477,0.0,0.0,0.0,0.0,36.14466812,-115.2058095,36.14466812,-115.2058095,1.0,0.0,0.0,1.0
"5,HENDERSON,NV,89052",0.5592861089354777,0.24216791979949875,0.047619047619047616,0.0,0.0,0.0,36.02361358,-115.0893835,36.02361099,-115.0893832,1.0,0.0,0.0,1.0
"500 E WINDMILL LN STE 130,LAS VEGAS,NV,89123-1845",1.0,0.4,0.0,0.0,0.0,0.0,36.04238347,-115.15211409999998,36.04238347,-115.15211409999998,1.0,0.0,0.0,1.0
"5001 E BONANZA RD STE 120,LAS VEGAS,NV,89110-3562",1.0,0.25,0.0,0.0,0.0,0.0,36.17395149,-115.0644312,36.17395149,-115.0644312,1.0,0.0,0.0,1.0
"5001 E BONANZA RD STE 160,LAS VEGAS,NV,89110-3560",0.9625,1.0742424242424242,0.0,0.0,0.0,0.25,36.17395149,-115.0644312,36.17395149,-115.0644312,1.0,0.0,0.0,1.0
"5015 PYRAMID WAY UNIT 113,SPARKS,NV,89436-7728",2.8149067112225006,3.1533014399393715,0.03571428571428571,0.037037037037037035,0.058776167471819636,0.07333333333333332,39.58213619,-119.7438123,39.58213619,-119.7438123,1.0,0.0,0.0,1.0
"5030 LAS BRISAS BLVD STE 3B,RENO,NV,89523-6236",0.0,0.6190476190476191,0.16666666666666666,0.14285714285714285,0.375,0.5,39.54026413,-119.8628202,39.54026413,-119.8628202,1.0,0.0,0.0,1.0
"5032 S VIRGINIA ST,RENO,NV,89502-6018",1.3206084656084656,1.264412551050482,0.03571428571428571,0.037037037037037035,0.5587761674718197,1.0733333333333333,39.47958369,-119.7903914,39.47958369,-119.7903914,1.0,0.0,0.0,1.0
"5055 SUN VALLEY BLVD STE 350,SUN VALLEY,NV,89433-8297",0.5492424242424243,0.7,0.047619047619047616,0.08333333333333333,0.0,0.0,39.57644203,-119.7807665,39.57644203,-119.7807665,1.0,0.0,0.0,1.0
"5059 S MCCARRAN BLVD,RENO,NV,89502-6530",0.2159090909090909,0.2083333333333333,0.047619047619047616,0.0,0.0,0.0,39.47699735,-119.78576540000002,39.47699735,-119.78576540000002,1.0,0.0,0.0,1.0
"5061 E SAHARA AVE STE 1A,LAS VEGAS,NV,89142-2986",0.05,0.05263157894736842,0.0,0.0,0.0,0.0,36.1443206,-115.0641483,36.1443206,-115.0641483,1.0,0.0,0.0,1.0
"5070 E BONANZA RD,LAS VEGAS,NV,89110-3524",0.0,0.0,0.0,0.0,0.05263157894736842,1.0,36.17408841,-115.0631031,36.17408841,-115.0631031,1.0,0.0,0.0,1.0
"5075 E BONANZA RD,LAS VEGAS,NV,89110-3514",4.073183938461513,3.9295055821371614,0.16666666666666666,0.06666666666666668,0.1924262649377066,1.0285714285714285,36.17395088,-115.0629309,36.17395133,-115.0629314,1.0,0.0,0.0,1.0
"513 W BRIDGE ST STE A,YERINGTON,NV,89447-2659",3.0,3.0,0.0,0.0,0.0,0.0,38.98293952,-119.169771,38.98293952,-119.169771,1.0,0.0,0.0,1.0
"5220 NEIL RD STE 110,RENO,NV,89502-6524",0.0,0.3333333333333333,0.0,0.0,0.375,0.5,39.47471488,-119.7786213,39.47471488,-119.7786213,1.0,0.0,0.0,1.0
"5230 BOULDER HWY STE 130,LAS VEGAS,NV,89122-6079",0.9625,1.0742424242424242,0.0,0.0,0.0,0.25,36.10882364,-115.0601933,36.10882364,-115.0601933,1.0,0.0,0.0,1.0
"5320 W SAHARA AVE STE 4,LAS VEGAS,NV,89146-0373",0.0,0.0,0.0,0.0,1.0,1.0,36.1450175,-115.214528,36.1450175,-115.214528,1.0,0.0,0.0,1.0
"5465 SIMMONS ST STE 4,N LAS VEGAS,NV,89031-9001",0.3333333333333333,0.5,0.0,0.0,0.0,0.0,36.25905552,-115.1800241,36.25905552,-115.1800241,1.0,0.0,0.0,1.0
"5475 S FORT APACHE RD STE 100,LAS VEGAS,NV,89148-6410",1.0,1.0,0.0,0.0,0.0,0.0,36.0891,-115.297476,36.0891,-115.297476,1.0,0.0,0.0,1.0
"5515 CAMINO AL NORTE STE 100,NORTH LAS VEGAS,NV,89031-0820",1.3333333333333333,1.5,0.0,0.0,0.0,0.0,36.26014684,-115.1552525,36.26014684,-115.1552525,1.0,0.0,0.0,1.0
"556 N EASTERN AVE STE 1,LAS VEGAS,NV,89101-3477",0.5,0.1,0.0,0.0,1.0,0.25,36.17255893,-115.1160076,36.17255893,-115.1160076,1.0,0.0,0.0,1.0
"5590 PAINTED MIRAGE RD STE 150,LAS VEGAS,NV,89149-4585",0.584295049572624,1.0022527910685806,0.0,0.06666666666666668,0.1924262649377066,0.028571428571428567,36.26274802,-115.2566076,36.26274802,-115.2566076,1.0,0.0,0.0,1.0
"5642 S EASTERN AVE STE B,LAS VEGAS,NV,89119-2310",1.883333333333333,0.5476190476190477,0.0,0.0,1.0,0.25,36.0871453,-115.118779,36.0871453,-115.118779,1.0,0.0,0.0,1.0
"5642 S EASTERN AVE, #B,LAS VEGAS,NV,89119-2375",1.0,1.0,0.0,0.0,0.0,0.0,36.0871453,-115.118779,36.0871453,-115.118779,1.0,0.0,0.0,1.0
"5680 W FLAMINGO RD STE A,LAS VEGAS,NV,89103-2339",0.14285714285714285,0.5,0.0,0.0,0.0,0.0,36.11496,-115.219124,36.11496,-115.219124,1.0,0.0,0.0,1.0
"5705 CENTENNIAL CENTER BLVD STE 140,LAS VEGAS,NV,89149-7129",0.0,0.0,0.5357142857142857,1.3333333333333333,0.0,0.0,36.26441155,-115.257064,36.26441155,-115.257064,1.0,0.0,0.0,1.0
"5745 S FORT APACHE RD STE 100,LAS VEGAS,NV,89148-5623",1.0,0.5,0.0,0.0,0.0,0.0,36.08397393,-115.29753490000002,36.08397393,-115.29753490000002,1.0,0.0,0.0,1.0
"5785 SPRING MOUNTAIN RD,LAS VEGAS,NV,89146-8804",2.0,2.0,0.0,0.0,0.0,0.0,36.12563849,-115.2204092,36.12563849,-115.2204092,1.0,0.0,0.0,1.0
"5840 W CRAIG RD STE 130,LAS VEGAS,NV,89130-2573",0.5,0.3333333333333333,0.0,0.0,0.0,0.0,36.23910546,-115.2236021,36.23910546,-115.2236021,1.0,0.0,0.0,1.0
"5892 LOSEE RD STE 135,N LAS VEGAS,NV,89081-6200",0.13966861598440544,0.1457051720209615,0.0,0.0,0.0,0.0,36.26728238,-115.1168951,36.26728238,-115.1168951,1.0,0.0,0.0,1.0
"5892 LOSEE RD STE 135,NORTH LAS VEGAS,NV,89081-6200",3.598137169178192,3.1380723821557965,0.08834586466165413,0.08703703703703704,0.058776167471819636,0.07333333333333332,36.26737535,-115.1168951,36.26737535,-115.1168951,1.0,0.0,0.0,1.0
"5900 W CHEYENNE AVE,LAS VEGAS,NV,89108-4203",1.1111111111111112,1.2,0.0,0.0,1.0,1.0,36.2169025,-115.223494,36.2169025,-115.223494,1.0,0.0,0.0,1.0
"5905 S EASTERN AVE STE 112,LAS VEGAS,NV,89119-3130",0.047619047619047616,1.0,0.0,0.0,0.0,0.0,36.08196266,-115.118786,36.08196266,-115.118786,1.0,0.0,0.0,1.0
"60 N 25TH ST STE 110,LAS VEGAS,NV,89101-4699",1.319047619047619,1.4291666666666667,0.0,0.0,0.0,0.0,36.16094788,-115.116078,36.16094788,-115.116078,1.0,0.0,0.0,1.0
"60 N 25TH ST,LAS VEGAS,NV,89101-4696",0.784295049572624,1.223086124401914,0.0,0.06666666666666668,0.1924262649377066,0.028571428571428567,36.16094788,-115.116078,36.16094788,-115.116078,1.0,0.0,0.0,1.0
"6002 S DURANGO DR STE 100,LAS VEGAS,NV,89113-1785",0.06666666666666668,1.0,0.0,0.0,0.0,0.0,36.07923507,-115.279288,36.07923507,-115.279288,1.0,0.0,0.0,1.0
"601 S RANCHO DR STE B15,LAS VEGAS,NV,89106-4896",1.0,0.5,0.0,0.0,0.0,0.0,36.16433254,-115.171902,36.16433254,-115.171902,1.0,0.0,0.0,1.0
"61 N WILLOW ST STE 1,MESQUITE,NV,89027-4786",1.0,1.0,0.0,0.0,0.0,0.0,36.8049965,-114.0664163,36.8049965,-114.0664163,1.0,0.0,0.0,1.0
"6110 W LAKE MEAD BLVD STE 150,LAS VEGAS,NV,89108-2659",1.783176252901485,2.119185202084406,0.08834586466165413,0.08703703703703704,0.5587761674718197,2.0733333333333333,36.19672451,-115.225083,36.19672451,-115.225083,1.0,0.0,0.0,1.0
"6115 S RAINBOW BLVD STE 102,LAS VEGAS,NV,89118-3252",0.1111111111111111,0.2,0.0,0.0,0.0,0.0,36.07733755,-115.242698,36.07733755,-115.242698,1.0,0.0,0.0,1.0
"6116 W FLAMINGO RD,LAS VEGAS,NV,89103-2280",0.625,0.5,0.0,0.0,0.0,0.0,36.11464976,-115.2254143,36.11464976,-115.2254143,1.0,0.0,0.0,1.0
"6127 S RAINBOW BLVD STE 100,LAS VEGAS,NV,89118-3256",3.7916666666666665,3.283333333333333,0.0,0.0,1.0,1.0,36.07751658,-115.242707,36.07752647,-115.242697,1.0,0.0,0.0,1.0
"6169 S RAINBOW BLVD STE 100,LAS VEGAS,NV,89118-3231",0.047619047619047616,0.5,0.8333333333333333,0.0,0.0,0.0,36.07631129999999,-115.2426845,36.07631129999999,-115.2426845,1.0,0.0,0.0,1.0
"6265 S RAINBOW BLVD,LAS VEGAS,NV,89118-3205",2.5,3.0,0.0,0.0,0.0,0.0,36.07491697,-115.242638,36.07491697,-115.242638,1.0,0.0,0.0,1.0
"6320 SIMMONS ST STE 100,N LAS VEGAS,NV,89031-7276",0.5,0.5,0.0,0.0,0.0,0.0,36.27497397,-115.1797623,36.27497397,-115.1797623,1.0,0.0,0.0,1.0
"6325 E RUSSELL RD STE 100,LAS VEGAS,NV,89122-7072",0.6731601433977475,0.3919005401203544,0.047619047619047616,0.0,0.125,0.0,36.08379579,-115.0345658,36.08379579,-115.0345658,1.0,0.0,0.0,1.0
"6365 SIMMONS ST STE 100,NORTH LAS VEGAS,NV,89031-7298",0.5,0.0,0.0,0.75,0.0,0.0,36.27557044,-115.1798466,36.27557044,-115.1798466,1.0,0.0,0.0,1.0
"6375 W CHARLESTON BLVD STE A500,LAS VEGAS,NV,89146-1168",3.333333333333333,2.0,0.0,0.0,0.0,0.0,36.1590605,-115.23455990000002,36.1590605,-115.23455990000002,1.0,0.0,0.0,1.0
"6375 W CHARLESTON BLVD,LAS VEGAS,NV,89146-1139",1.0,1.0,0.0,0.0,0.0,0.0,36.1590605,-115.23455990000002,36.1590605,-115.23455990000002,1.0,0.0,0.0,1.0
"6386 W SAHARA AVE STE 6388,LAS VEGAS,NV,89146-3050",0.280137406453196,1.1026315789473684,0.0,0.0,0.0,0.0,36.14419419,-115.2336872,36.14419419,-115.2336872,1.0,0.0,0.0,1.0
"6415 S FORT APACHE RD STE 150,LAS VEGAS,NV,89148-6749",0.7319836728095123,0.3919005401203544,0.047619047619047616,0.0,0.125,0.0,36.07196595,-115.297787,36.07196595,-115.297787,1.0,0.0,0.0,1.0
"6430 W LAKE MEAD BLVD STE 140,LAS VEGAS,NV,89108-7370",1.0,0.5,0.0,0.0,0.0,0.0,36.19598351,-115.2346235,36.19598351,-115.2346235,1.0,0.0,0.0,1.0
"6440 W FLAMINGO RD,LAS VEGAS,NV,89103-2266",5.3592950495726255,0.3888888888888888,0.16666666666666666,0.0,0.3674262649377066,0.0,36.11461447,-115.2327733,36.11461447,-115.2327733,1.0,0.0,0.0,1.0
"6490 S MCCARRAN BLVD,RENO,NV,89509",0.5833333333333333,1.7281857661394864,0.0,0.0,1.355072463768116,0.03333333333333333,39.47671552,-119.796372,39.47671552,-119.796372,1.0,0.0,0.0,1.0
"6520 E LAKE MEAD BLVD STE 105,LAS VEGAS,NV,89156-0138",0.5,1.0,0.0,0.0,0.0,0.0,36.19577945,-115.0304195,36.19577945,-115.0304195,1.0,0.0,0.0,1.0
"653 N STEPHANIE ST STE C-3,HENDERSON,NV,89014-2634",0.4075091575091575,1.0,0.0,0.0,0.0,0.0,36.06587942,-115.046296,36.06587942,-115.046296,1.0,0.0,0.0,1.0
"653 N TOWN CENTER DR STE 606,LAS VEGAS,NV,89144-0520",0.5,1.0,1.0,1.0,0.0,0.0,36.17934924,-115.316336,36.17934924,-115.316336,1.0,0.0,0.0,1.0
"6600 W CHARLESTON BLVD STE 106,LAS VEGAS,NV,89146-1067",0.3333333333333333,0.8333333333333333,0.0,0.0,0.0,0.0,36.15921646,-115.241003,36.15921646,-115.241003,1.0,0.0,0.0,1.0
"6707 W CHARLESTON BLVD STE 1A,LAS VEGAS,NV,89146-9243",1.0009617162392908,1.3355861244019138,0.0,0.06666666666666668,0.4424262649377066,0.028571428571428567,36.15904052,-115.2410715,36.15904052,-115.2410715,1.0,0.0,0.0,1.0
"6720 N DURANGO DR STE 260,LAS VEGAS,NV,89149-4436",0.5,1.0,0.0,0.0,0.0,0.0,36.28294294,-115.2876746,36.28294294,-115.2876746,1.0,0.0,0.0,1.0
"674 N CEDAR ST STE A,ELKO,NV,89801-2991",1.0,1.0,0.0,0.0,0.0,0.0,40.82821725,-115.77568290000002,40.82821725,-115.77568290000002,1.0,0.0,0.0,1.0
"680 S ROCK BLVD,RENO,NV,89502-4113",15.333333333333332,6.166666666666668,0.0,0.0,2.5,3.0,39.50213355,-119.7624126,39.50213355,-119.7624126,1.0,0.0,0.0,1.0
"6820 W FLAMINGO RD STE 1,LAS VEGAS,NV,89103-2014",0.5,0.5,0.0,0.0,0.0,0.0,36.11462345,-115.241174,36.11462345,-115.241174,1.0,0.0,0.0,1.0
"6885 ALIANTE PKWY STE 111,NORTH LAS VEGAS,NV,89084-5815",2.6676283829059573,1.7522527910685806,0.14285714285714285,0.06666666666666668,1.1924262649377066,0.08412698412698412,36.28573791,-115.1774384,36.28573791,-115.1774384,1.0,0.0,0.0,1.0
"69 N NELLIS BLVD,LAS VEGAS,NV,89110-5330",1.0357142857142858,0.16666666666666666,0.0,0.0,0.0,0.0,36.16134109,-115.0623763,36.16134109,-115.0623763,1.0,0.0,0.0,1.0
"6901 W CHARLESTON BLVD,LAS VEGAS,NV,89117-1601",0.3666666666666667,1.0,0.0,0.0,0.0,0.0,36.15901447,-115.246391,36.15901447,-115.246391,1.0,0.0,0.0,1.0
"6910 S RAINBOW BLVD STE 104,LAS VEGAS,NV,89118-3274",0.0,0.0,1.0,1.0,0.0,0.0,36.06282062,-115.2423878,36.06282062,-115.2423878,1.0,0.0,0.0,1.0
"6970 S CIMARRON RD # 100,LAS VEGAS,NV,89113-2135",1.0,1.0,0.0,0.0,0.0,0.0,36.06158663,-115.2700472,36.06158663,-115.2700472,1.0,0.0,0.0,1.0
"700 E SILVERADO RANCH BLVD,LAS VEGAS,NV,89183-7516",1.0,1.0,0.0,0.0,0.0,0.0,36.01331867,-115.1478193,36.01331867,-115.1478193,1.0,0.0,0.0,1.0
"7101 W CRAIG RD STE 102,LAS VEGAS,NV,89129-6059",0.6021164021164019,2.001226551226551,0.0,0.0,0.0,0.0,36.24045849,-115.249893,36.24045849,-115.249893,1.0,0.0,0.0,1.0
"7181 N HUALAPAI WAY STE 105,LAS VEGAS,NV,89166-1116",0.0,1.0555555555555556,1.0,0.0,0.0,0.0,36.2914278,-115.31505459999998,36.2914278,-115.31505459999998,1.0,0.0,0.0,1.0
"7240 W LAKE MEAD BLVD STE 2,LAS VEGAS,NV,89128-8356",0.0,0.0,0.0,0.0,0.25,0.5,36.19618746,-115.2490012,36.19618746,-115.2490012,1.0,0.0,0.0,1.0
"7250 S DURANGO DR STE 100,LAS VEGAS,NV,89113-2221",0.3333333333333333,0.05555555555555555,0.0,0.0,0.0,0.0,36.05658296,-115.2790676,36.05658296,-115.2790676,1.0,0.0,0.0,1.0
"7250 S DURANGO DR STE 110,LAS VEGAS,NV,89113-2221",0.5287394940170684,0.8355861244019139,0.0,0.06666666666666668,0.1924262649377066,0.028571428571428567,36.05656478,-115.2790775,36.05656478,-115.2790775,1.0,0.0,0.0,1.0
"7260 W AZURE DR STE 110,LAS VEGAS,NV,89130-4400",1.0,1.0,0.0,0.0,0.0,0.0,36.27364763,-115.2532813,36.27364763,-115.2532813,1.0,0.0,0.0,1.0
"7310 SMOKE RANCH RD STE F,LAS VEGAS,NV,89128-0257",0.8201970443349753,0.42857142857142855,0.0,0.0,0.26785714285714285,0.0,36.20347348,-115.2522097,36.20347348,-115.2522097,1.0,0.0,0.0,1.0
"7320 S RAINBOW BLVD STE 103,LAS VEGAS,NV,89139-0407",1.852368172093404,2.262888209603203,0.27016404647983605,0.34100529100529103,0.10877616747181963,0.1019047619047619,36.05544191,-115.2430085,36.05544191,-115.2430085,1.0,0.0,0.0,1.0
"737 N NELLIS BLVD,LAS VEGAS,NV,89110-5384",1.0,1.0,0.0,0.0,0.0,0.0,36.17605468,-115.0623079,36.17605468,-115.0623079,1.0,0.0,0.0,1.0
"7377 S JONES BLVD STE 110,LAS VEGAS,NV,89139-0547",1.0,1.0,0.0,0.0,0.0,0.0,36.05519664,-115.225046,36.05519664,-115.225046,1.0,0.0,0.0,1.0
"740 N EASTERN AVE STE 120,LAS VEGAS,NV,89101-2886",1.0,1.0,0.0,0.0,0.0,0.0,36.17668022,-115.1160244,36.17668022,-115.1160244,1.0,0.0,0.0,1.0
"7425 W AZURE DR,LAS VEGAS,NV,89130-4415",0.0,0.0,1.0,0.5,0.0,0.0,36.27379069,-115.2566399,36.27379069,-115.2566399,1.0,0.0,0.0,1.0
"748 S MEADOWS PKWY STE 8,RENO,NV,89521-3861",1.8201970443349755,0.42857142857142855,0.0,0.0,0.26785714285714285,0.0,39.43868516,-119.758275,39.43868516,-119.758275,1.0,0.0,0.0,1.0
"75 MOUNT ROSE ST STE A,RENO,NV,89509-3426",0.625,1.3666666666666667,0.0,0.0,0.0,0.0,39.50972746,-119.8063727,39.50972746,-119.8063727,1.0,0.0,0.0,1.0
"762 14TH ST,ELKO,NV,89801-3413",1.125,1.5,0.0,0.0,0.0,0.0,40.84166923,-115.7585868,40.84166923,-115.7585868,1.0,0.0,0.0,1.0
"7670 W LAKE MEAD BLVD STE 130,LAS VEGAS,NV,89128-6651",0.9625,1.0742424242424242,0.0,0.0,0.0,0.25,36.19644893,-115.2623369,36.19644893,-115.2623369,1.0,0.0,0.0,1.0
"7670 W LAKE MEAD BLVD STE 160,LAS VEGAS,NV,89128-6649",0.2,0.5,0.0,0.0,0.0,0.0,36.19644893,-115.2623369,36.19644893,-115.2623369,1.0,0.0,0.0,1.0
"7785 N DURANGO DR STE 140,LAS VEGAS,NV,89131-8002",3.0731839384615127,2.9295055821371614,0.16666666666666666,0.06666666666666668,0.1924262649377066,0.08412698412698412,36.3026348,-115.2813406,36.3026348,-115.2813406,1.0,0.0,0.0,1.0
"7901 W TROPICAL PKWY STE 120,LAS VEGAS,NV,89149-4550",0.8201970443349753,0.42857142857142855,0.0,0.0,0.26785714285714285,0.0,36.27045017,-115.268511,36.27045017,-115.268511,1.0,0.0,0.0,1.0
"7910 S RAINBOW BLVD STE 100,LAS VEGAS,NV,89139-6479",0.0,0.0,0.0,0.0,1.0,1.0,36.04434408,-115.243307,36.04434408,-115.243307,1.0,0.0,0.0,1.0
"7910 S RAINBOW BLVD STE 125,LAS VEGAS,NV,89139-6480",1.0,1.0,0.0,0.0,0.0,0.0,36.04434408,-115.243307,36.04434408,-115.243307,1.0,0.0,0.0,1.0
"8000 W SAHARA AVE STE 180,LAS VEGAS,NV,89117-7906",0.047619047619047616,1.0,0.25,0.0,0.0,0.05555555555555555,36.14390748,-115.2660513,36.14390748,-115.2660513,1.0,0.0,0.0,1.0
"8370 W CHEYENNE AVE STE 103,LAS VEGAS,NV,89129-2174",3.8226495573747887,3.762938670837874,0.28175495557074504,0.4112128612128612,0.10877616747181963,0.1019047619047619,36.21864447,-115.2761605,36.21864447,-115.2761605,1.0,0.0,0.0,1.0
"8380 W CHEYENNE AVE STE 102,LAS VEGAS,NV,89129-2175",5.707519850480377,6.168765555113499,0.33996924128503075,0.40978835978835976,0.10877616747181963,0.1019047619047619,36.21864646,-115.2762421,36.21864646,-115.2762421,1.0,0.0,0.0,1.0
"8380 W CHEYENNE AVE STE 104,LAS VEGAS,NV,89129-2175",3.3244040056584723,3.2987686303520447,0.4774151287309182,0.2825257588415483,1.1087761674718195,0.6019047619047619,36.21864549,-115.2762711,36.21864549,-115.2762711,1.0,0.0,0.0,1.0
"8390 W SAHARA AVE STE 110,LAS VEGAS,NV,89117-8953",0.2222222222222222,1.0,0.0,0.0,0.0,0.0,36.14410444,-115.2741511,36.14410444,-115.2741511,1.0,0.0,0.0,1.0
"840 I ST STE 3,SPARKS,NV,89431-3697",2.195197044334975,3.428571428571429,0.0,0.0,0.26785714285714285,0.0,39.54316418,-119.7537871,39.54316418,-119.7537871,1.0,0.0,0.0,1.0
"840 N DECATUR BLVD STE H,LAS VEGAS,NV,89107-1932",0.3333333333333333,0.5,0.0,0.0,0.0,0.0,36.18017438,-115.2059659,36.18017438,-115.2059659,1.0,0.0,0.0,1.0
"840 N DECATUR BLVD,LAS VEGAS,NV,89107-1905",0.3333333333333333,0.5,0.0,0.0,0.0,0.0,36.18017438,-115.2059659,36.18017438,-115.2059659,1.0,0.0,0.0,1.0
"8430 FARM RD STE 120,LAS VEGAS,NV,89131-8167",3.7419417703740976,2.1429425120259262,0.08834586466165413,0.08703703703703704,0.08907919777484995,0.12596491228070175,36.29939834,-115.2802883,36.29939834,-115.2802883,1.0,0.0,0.0,1.0
"8430 W LAKE MEAD BLVD STE 150,LAS VEGAS,NV,89128-7673",1.0,0.5,0.0,0.0,0.0,0.0,36.19827874,-115.2796085,36.19827874,-115.2796085,1.0,0.0,0.0,1.0
"8445 W FLAMINGO RD,LAS VEGAS,NV,89147-4166",1.5333333333333332,0.8333333333333333,0.0,0.0,0.5,0.0,36.11478152,-115.275352,36.11478152,-115.275352,1.0,0.0,0.0,1.0
"850 I ST,SPARKS,NV,89431-3689",1.0,1.0,1.0,1.0,0.0,0.0,39.54310922,-119.7540771,39.54310922,-119.7540771,1.0,0.0,0.0,1.0
"8520 BLUE DIAMOND RD STE 130,LAS VEGAS,NV,89178-9297",0.0,0.0,0.3928571428571429,0.3333333333333333,0.0,0.0,36.02036145,-115.277514,36.02036145,-115.277514,1.0,0.0,0.0,1.0
"860 S RANCHO DR STE 3,LAS VEGAS,NV,89106-3828",4.235714591755614,3.4293241859076,0.24175495557074506,0.3727513227513227,0.13907919777484995,0.1545363408521303,36.16102066,-115.1728986,36.16102066,-115.1728986,1.0,0.0,0.0,1.0
"860 S RANCHO DR STE 4,LAS VEGAS,NV,89106-3828",3.637175606038768,4.792127026342019,0.24175495557074506,0.3727513227513227,0.10877616747181963,0.1019047619047619,36.16102066,-115.1728986,36.16102066,-115.1728986,1.0,0.0,0.0,1.0
"8665 W FLAMINGO RD STE 104,LAS VEGAS,NV,89147-8622",1.0,1.5,0.0,0.0,1.0,0.5,36.1148815,-115.2806625,36.1148815,-115.2806625,1.0,0.0,0.0,1.0
"8710 W CHARLESTON BLVD STE 100,LAS VEGAS,NV,89117-5467",0.0,0.0,2.0,1.0,0.0,0.0,36.15914748,-115.28585990000002,36.15914748,-115.28585990000002,1.0,0.0,0.0,1.0
"8961 W SAHARA AVE STE 108,LAS VEGAS,NV,89117-5831",1.25,1.5,0.0,0.0,0.0,0.0,36.14412949,-115.2921434,36.14412949,-115.2921434,1.0,0.0,0.0,1.0
"8981 W SAHARA AVE STE 110,LAS VEGAS,NV,89117-5894",0.6428571428571428,0.5,1.0,1.75,0.0,0.0,36.14413849,-115.2923439,36.14413849,-115.2923439,1.0,0.0,0.0,1.0
"901 W 4TH ST STE B,RENO,NV,89503-5129",2.8415733778891674,2.1148399014778327,0.03571428571428571,0.037037037037037035,0.09877616747181964,0.1117948717948718,39.52670016,-119.8270989,39.52670016,-119.8270989,1.0,0.0,0.0,1.0
"921 S NEVADA HIGHWAY 160 STE 403,PAHRUMP,NV,89048-4682",0.5,1.0,0.0,0.0,0.0,0.0,36.20602907,-115.9805116,36.20602907,-115.9805116,1.0,0.0,0.0,1.0
"9210 S EASTERN AVE STE 130M,LAS VEGAS,NV,89123-4833",3.9187830687830685,0.14285714285714285,0.0,0.0,0.25,0.0,36.02119237,-115.11842659999998,36.02119237,-115.11842659999998,1.0,0.0,0.0,1.0
"931 S DECATUR BLVD,LAS VEGAS,NV,89107-3918",0.3333333333333333,0.3333333333333333,0.0,0.0,0.0,0.0,36.16048067,-115.2057596,36.16048067,-115.2057596,1.0,0.0,0.0,1.0
"9400 S EASTERN AVE STE 101,LAS VEGAS,NV,89123-7937",2.1354489801742123,2.3836531902366045,0.11864889496468445,0.13966861598440544,0.14968525838091054,0.18444444444444444,36.01803596,-115.118587,36.01803596,-115.118587,1.0,0.0,0.0,1.0
"945 S RAINBOW BLVD,LAS VEGAS,NV,89145-6230",3.5490695701105928,2.3874230315064446,0.11864889496468445,0.08703703703703704,0.13907919777484995,0.1545363408521303,36.16068437,-115.2439249,36.16068437,-115.2439249,1.0,0.0,0.0,1.0
"9484 W LAKE MEAD BLVD STE 2,LAS VEGAS,NV,89134-8339",0.25,1.0625,0.0,0.0,0.0,0.0,36.20642249,-115.3021827,36.20642249,-115.3021827,1.0,0.0,0.0,1.0
"9500 W FLAMINGO RD STE 200,LAS VEGAS,NV,89147-5721",0.5,0.6666666666666666,1.0,0.8333333333333333,0.0,0.0,36.11510743,-115.2993496,36.11510743,-115.2993496,1.0,0.0,0.0,1.0
"953 E SAHARA AVE STE 2,LAS VEGAS,NV,89104-3005",0.25,1.0,0.0,0.0,0.0,0.0,36.1439515,-115.1419826,36.1439515,-115.1419826,1.0,0.0,0.0,1.0
"953 E SAHARA AVE STE A2,LAS VEGAS,NV,89104-3028",0.7073109225884971,1.285586124401914,0.0,0.06666666666666668,0.1924262649377066,0.028571428571428567,36.1439515,-115.1419826,36.1439515,-115.1419826,1.0,0.0,0.0,1.0
"955 W CRAIG RD STE 106G,NORTH LAS VEGAS,NV,89032-0242",0.533699811477386,1.1189194577352473,0.16666666666666666,0.06666666666666668,0.1924262649377066,0.08412698412698412,36.23931849,-115.1554815,36.23931849,-115.1554815,1.0,0.0,0.0,1.0
"956 TOPSY LN STE 103,CARSON CITY,NV,89705-8447",2.8149067112225006,1.1533014399393708,0.03571428571428571,0.037037037037037035,0.058776167471819636,0.07333333333333332,39.11046048,-119.7757335,39.11046048,-119.7757335,1.0,0.0,0.0,1.0
"9598 PROTOTYPE CT, #A,RENO,NV,89521-6032",1.0,0.5,0.0,0.0,0.0,0.0,39.44346132,-119.7651,39.44346132,-119.7651,1.0,0.0,0.0,1.0
"9690 W TROPICANA AVE STE 110B,LAS VEGAS,NV,89147-2601",0.6666666666666666,0.5,0.0,0.0,0.0,0.0,36.10010651,-115.3033629,36.10010651,-115.3033629,1.0,0.0,0.0,1.0
"975 TOPSY LN STE 103,CARSON CITY,NV,89705-8402",1.0,0.3333333333333333,0.0,0.0,0.0,0.0,39.11035766,-119.7745059,39.11035766,-119.7745059,1.0,0.0,0.0,1.0
"9775 W SUNSET RD STE 103,LAS VEGAS,NV,89148-4347",0.038461538461538464,0.05,0.0,0.0,0.0,0.0,36.07009849,-115.3063402,36.07009849,-115.3063402,1.0,0.0,0.0,1.0
"E LAKE MEAD BLVD,LAS VEGAS,NV,89115",0.045454545454545456,0.05263157894736842,0.0,0.0,0.0,0.0,36.23090133,-114.8836465,36.23090133,-114.8836465,1.0,0.0,0.0,1.0
"STE 100,HENDERSON,NV,89014-8608",1.1354497354497353,1.3345598845598845,0.0,0.0,0.25,0.0,36.063546,-115.044632,36.063546,-115.044632,1.0,0.0,0.0,1.0
"STE 100,LAS VEGAS,NV,89118",0.45,0.25,0.0,0.0,0.0,0.0,36.0937753,-115.2183748,36.0937753,-115.2183748,1.0,0.0,0.0,1.0
"STE 120,HENDERSON,NV,89074",0.5,0.5,0.0,0.0,0.0,0.0,36.03061,-115.10577,36.030609999999996,-115.10576999999999,1.0,0.0,0.0,1.0
"STE A,YERINGTON,NV,89447",2.0,1.0,0.0,0.0,0.0,0.0,38.98546,-119.16591,38.98546,-119.16591,1.0,0.0,0.0,1.0
"W ANN RD,NORTH LAS VEGAS,NV,89031",0.043478260869565216,0.05882352941176471,0.0,0.0,0.0,0.0,36.26168768,-115.1728584,36.26168768,-115.1728584,1.0,0.0,0.0,1.0
