idx,IKN_addr,general,pediatric,specialist,Y_lat,X_long,med_indicator,chip_indicator
0,"100 SPRINGHOUSE CT STE 230,HENDERSONVILLE,TN,37075-1610",0.0,0.0,0.3333333333333333,36.31380410000001,-86.59898999,0,1
1,"100 W BURTON ST,MURFREESBORO,TN,37130-3657",0.2,0.0,0.0,35.84915142,-86.39156056,0,1
2,"1000 WASHINGTON ST W STE A,FAYETTEVILLE,TN,37334-2872",1.3333333333333333,0.0,0.0,35.15582663,-86.58323569,0,1
3,"1005 DR DB TODD JR BLVD,NASHVILLE,TN,37208-3501",0.3333333333333333,0.0,0.0,36.16813057,-86.80612141,0,1
4,"1005 EXECUTIVE DR STE 105,HIXSON,TN,37343-7904",1.0,0.0,0.0,35.13083046,-85.23608383,0,1
5,"1007 E REELFOOT AVE,UNION CITY,TN,38261-5807",1.0,0.0,0.0,36.41362055,-89.04685188,0,1
6,"101 EAST CT,GOODLETTSVILLE,TN,37072-1817",0.5,0.0,0.0,36.3208476,-86.71149026,0,1
7,"101 OKOLONA DR,ERWIN,TN,37650-1387",0.14285714285714285,0.0,0.0,36.13771772,-82.40851548,0,1
8,"1012 PLEASANT GROVE RD,WESTMORELAND,TN,37186-2139",1.0,0.0,0.0,36.56148887,-86.2467982,0,1
9,"102 CAMDEN CT,MURFREESBORO,TN,37128-4641",0.0,0.0,0.3333333333333333,35.84432564,-86.45457495,0,1
10,"102 GLEN OAK BLVD STE 50A,HENDERSONVILLE,TN,37075-3069",1.0,0.0,0.0,36.32470729,-86.61944622,0,1
11,"103 KENNEDY DR,MARTIN,TN,38237-3309",1.0,0.0,0.0,36.33551151,-88.86696338,0,1
12,"103 PHYSICIANS WAY STE 150,LEBANON,TN,37090-4131",0.0,2.0,0.0,36.17969519,-86.32752895,0,1
13,"1033 E OLD HICKORY BLVD,MADISON,TN,37115-4160",0.3333333333333333,0.0,0.0,36.26284322,-86.68638691,0,1
14,"1035 14TH AVE N,NASHVILLE,TN,37208-3050",1.0,0.0,0.0,36.1705555,-86.80120677,0,1
15,"104 REGAN AVE,JAMESTOWN,TN,38556-3302",1.5,0.0,0.0,36.42205748,-84.93373308,0,1
16,"10407 DAYTON PIKE,SODDY DAISY,TN,37379-5213",0.0,0.0,0.5,35.25911131,-85.17665603,0,1
17,"10480 WALDEN ST,SODDY DAISY,TN,37379-5441",0.0,1.0,0.0,35.26054297,-85.17693984,0,1
18,"105 S PORTER ST,BOLIVAR,TN,38008-1734",1.0,0.0,0.0,35.25883077,-89.00746185,0,1
19,"106 BABB DR,LEBANON,TN,37087-2506",0.0,1.0,0.0,36.21589374,-86.32672598,0,1
20,"1065 PEERLESS XING NW,CLEVELAND,TN,37312-3764",0.3333333333333333,0.0,0.16666666666666666,35.20014615,-84.86913256,0,1
21,"107 BONNABROOK DR,HERMITAGE,TN,37076-1910",0.25,0.25,0.0,36.19225136,-86.62576712,0,1
22,"107 CHARLES E DAVIS BLVD,NASHVILLE,TN,37210-2745",0.6000000000000001,0.0,0.0,36.15132587,-86.7620363,0,1
23,"107 E LOCUST ST,DRESDEN,TN,38225-1440",0.5,0.0,0.0,36.29021444,-88.70762255,0,1
24,"108 W 10TH AVE,JOHNSON CITY,TN,37604-3800",1.0,0.0,0.0,36.3248975,-82.36304476,0,1
25,"10910 KINGSTON PIKE UNIT 105,KNOXVILLE,TN,37934-2948",0.3333333333333333,0.6666666666666666,0.0,35.89108561,-84.1463421,0,1
26,"11 MEDICAL PARK CT,JACKSON,TN,38305-2157",0.0,0.0,1.0,35.68468644,-88.8517713,0,1
27,"110 GLANCY ST STE 109,GOODLETTSVILLE,TN,37072-2326",1.0,0.0,0.0,36.29809554,-86.70238049,0,1
28,"110 N FORREST AVE,CAMDEN,TN,38320-2062",1.0,0.0,0.0,36.05948392,-88.09743751,0,1
29,"1100 NEAL ST STE B,COOKEVILLE,TN,38501-0900",0.25,0.25,0.0,36.14556857,-85.4807083,0,1
30,"11092 HIGHWAY 51 S STE B,ATOKA,TN,38004-4947",1.0,0.0,0.0,35.44728564,-89.78465318,0,1
31,"111 FOX RD STE B-201,KNOXVILLE,TN,37922-9000",0.0,0.0,1.0,35.90272612,-84.11407395,0,1
32,"1113 MURFREESBORO RD STE 113,FRANKLIN,TN,37064-1319",0.5,0.0,0.0,35.91630942,-86.83628216,0,1
33,"112 SAUNDERSVILLE RD STE B226,HENDERSONVILLE,TN,37075-8918",2.0,0.0,0.0,36.32638804,-86.59293877,0,1
34,"1121 GREENLAND DR,MURFREESBORO,TN,37130-2751",1.0,0.0,0.0,35.85509627,-86.37119703,0,1
35,"114 PARLIAMENT DR,MARYVILLE,TN,37804-6209",0.0,0.0,0.3333333333333333,35.75541718,-83.93986236,0,1
36,"11462 LEBANON RD,MOUNT JULIET,TN,37122-5503",0.0,0.0,0.5,36.23095048,-86.51737213,0,1
37,"11548 CHAPMAN HWY,SEYMOUR,TN,37865-5044",0.0,0.0,0.5,35.8680436,-83.75268634,0,1
38,"1155 KENNEDY DR STE 104,MURFREESBORO,TN,37129-3192",0.5,0.0,0.0,35.86325821,-86.42149746,0,1
39,"1177 OLD HICKORY BLVD STE 201,BRENTWOOD,TN,37027-4242",0.0,0.0,1.0,36.03952544,-86.81433091,0,1
40,"118 MAPLE ROW BLVD STE A1A,HENDERSONVILLE,TN,37075-3824",0.5,1.0,0.0,36.30702317,-86.59945488,0,1
41,"1189 VANN DR,JACKSON,TN,38305-6098",1.0,0.0,0.0,35.66419628,-88.85942431,0,1
42,"1195 POPLAR AVE,MEMPHIS,TN,38105-4807",0.5,0.0,0.0,35.14435563,-90.02061438,0,1
43,"1209 RUSSELL ST,UNION CITY,TN,38261-5352",1.0,0.0,0.0,36.41435184,-89.0465353,0,1
44,"121 BELLE FOREST CIR,NASHVILLE,TN,37221-2157",1.0,0.0,0.0,36.075750899999996,-86.92406203,0,1
45,"1210 HAZELWOOD DR STE A,SMYRNA,TN,37167-3964",1.0,0.0,0.0,35.96255127,-86.52002355,0,1
46,"1211 MEDICAL CENTER DR,NASHVILLE,TN,37232-0004",0.2,0.0,0.0,36.14119862,-86.80149507,0,1
47,"1212 N KENTUCKY ST,KINGSTON,TN,37763-2328",2.0,0.0,0.0,35.88284277,-84.50407709999998,0,1
48,"1216 THOMAS ST,MEMPHIS,TN,38107-1703",3.0,0.0,0.0,35.17462738,-90.0359184,0,1
49,"12173 MAIN ST STE B,MASON,TN,38049-7054",1.0,0.0,0.0,35.41184827,-89.53314912,0,1
50,"122 COLONIAL AVE,COPPERHILL,TN,37317-4000",1.0,0.0,0.0,34.99129899,-84.37371439,0,1
51,"1223 DICKERSON PIKE,NASHVILLE,TN,37207-5408",0.6000000000000001,0.0,0.0,36.19342708,-86.77249773,0,1
52,"1229 TAFT HWY,SIGNAL MOUNTAIN,TN,37377-3251",1.0,0.0,0.0,35.139261499999996,-85.32911523,0,1
53,"1240 MCARTHUR ST,MANCHESTER,TN,37355-2445",3.0,0.0,0.0,35.46351336,-86.08826142,0,1
54,"125 COOL SPRINGS BLVD STE 120,FRANKLIN,TN,37067-6475",0.2909090909090909,0.0,0.0,35.94111808,-86.83868585,0,1
55,"125 COOL SPRINGS BLVD STE 140,FRANKLIN,TN,37067-6475",1.5409090909090908,0.4,0.6000000000000001,35.94111808,-86.83868585,0,1
56,"126 STUART XING NE,CLEVELAND,TN,37312-4065",0.3333333333333333,0.0,0.0,35.20258035,-84.84315447,0,1
57,"127 W MACON LN STE 1,SEYMOUR,TN,37865-4776",2.0,0.0,0.0,35.8784416,-83.77691058,0,1
58,"1273 E RAINES RD,MEMPHIS,TN,38116-5816",1.0,0.0,0.0,35.03549246,-90.02158183,0,1
59,"1275 PARKWAY PL,CLARKSVILLE,TN,37042-8402",0.0,0.0,0.5,36.58481302,-87.39541684,0,1
60,"1277 HIGHWAY 11W,BEAN STATION,TN,37708-5810",1.0,0.0,0.0,36.34379669,-83.26865257,0,1
61,"129 N STAR DR,JACKSON,TN,38305-5634",1.0,0.0,0.0,35.70260432,-88.85410518,0,1
62,"1297 MARLIN RD,MEMPHIS,TN,38116-5814",0.5,0.0,0.0,35.03416247,-90.02069099,0,1
63,"130 MABRY HOOD RD STE 105,KNOXVILLE,TN,37922-2221",0.0,0.0,0.5,35.90566469,-84.11891976,0,1
64,"130 PEACHTREE PLZ,BROWNSVILLE,TN,38012-2500",1.0,0.0,0.0,35.59429396,-89.26742631,0,1
65,"1300 HATCHER LN STE 1,COLUMBIA,TN,38401-3554",1.0,0.0,0.0,35.60349760000001,-87.05815545,0,1
66,"1301 22ND AVE S,NASHVILLE,TN,37232-0001",0.5333333333333333,0.0,0.5,36.13842067,-86.80171292,0,1
67,"131 INDIAN LAKE BLVD STE 100,HENDERSONVILLE,TN,37075-6207",0.0,0.0,0.14285714285714285,36.31118159,-86.60669097,0,1
68,"131 MAPLE ROW BLVD STE D402,HENDERSONVILLE,TN,37075-3777",1.0,0.0,0.0,36.30600133,-86.60046025,0,1
69,"1324 W MAIN ST,FRANKLIN,TN,37064",0.2,0.0,0.0,35.91433116,-86.88483464,0,1
70,"1336 HAZELWOOD DR,SMYRNA,TN,37167-3958",1.0,0.0,0.0,35.95919604,-86.52064376,0,1
71,"134 HIGHWAY 70 E,DICKSON,TN,37055-2034",0.25,1.0,0.0,36.07260872,-87.37334141,0,1
72,"1347 ROCK SPRINGS RD,SMYRNA,TN,37167-6108",1.3333333333333333,0.0,0.0,35.97892758,-86.55286527,0,1
73,"1360 S ELLINGTON PKWY,LEWISBURG,TN,37091-4324",1.0,0.0,0.0,35.42737689,-86.79789963,0,1
74,"1362 N GATEWAY AVE,ROCKWOOD,TN,37854-4108",0.2,0.0,0.0,35.88711778,-84.649013,0,1
75,"140 E DIVISION RD STE A1,OAK RIDGE,TN,37830-6900",0.0,0.0,1.0,36.02111292,-84.24225579,0,1
76,"140 STUART XING NE,CLEVELAND,TN,37312-4065",1.0,0.0,0.0,35.20168951,-84.84190149,0,1
77,"1405 E WOOD ST,PARIS,TN,38242-5655",0.0,0.0,1.0,36.30977437,-88.29481778,0,1
78,"1408 N HIGHLAND AVE STE 101,JACKSON,TN,38301-3450",1.0,0.0,0.0,35.63756472,-88.82392848,0,1
79,"1409 W BADDOUR PKWY STE F,LEBANON,TN,37087-2599",0.0,0.0,1.0,36.21904648,-86.32784476,0,1
80,"1450 SAM DAVIS RD STE 120,SMYRNA,TN,37167-2754",1.0,0.0,0.0,35.98562502,-86.49538373,0,1
81,"1464 BYPASS RD,WINCHESTER,TN,37398-2332",0.0,0.0,0.45,35.18143769,-86.0825849,0,1
82,"1498 MADISON ST STE B,CLARKSVILLE,TN,37040-8660",1.0,0.0,0.0,36.51912023,-87.32884474,0,1
83,"1500 21ST AVE,NASHVILLE,TN,37232-0001",0.5333333333333333,0.0,0.0,36.13899356,-86.80056041,0,1
84,"1502 TINY TOWN RD STE A,CLARKSVILLE,TN,37042-8088",0.5,0.0,0.0,36.62495944,-87.36911504,0,1
85,"1505 WOODLAWN AVE STE A,DYERSBURG,TN,38024-3145",0.0,0.0,0.3333333333333333,36.04671878,-89.3786075,0,1
86,"1506 CHURCH ST STE 110,NASHVILLE,TN,37203-3038",1.0,0.0,0.0,36.15744411,-86.79350404,0,1
87,"1511 E LAMAR ALEXANDER PKWY,MARYVILLE,TN,37804-5131",0.3333333333333333,0.0,0.0,35.7552095,-83.95108369,0,1
88,"1515 GUNBARREL RD STE 126,CHATTANOOGA,TN,37421-0001",0.5,0.0,0.0,35.01755057,-85.16243246,0,1
89,"1523 S HIGHLAND AVE,JACKSON,TN,38301-7520",0.5,0.0,0.0,35.57175455,-88.81489857,0,1
90,"1540 ROCK SPRINGS RD,SMYRNA,TN,37167-6141",1.3333333333333333,0.2,0.7575757575757576,35.97714518,-86.55594307,0,1
91,"1551 E MORRIS BLVD,MORRISTOWN,TN,37813-5729",0.0,0.0,0.5,36.21825935,-83.2742016,0,1
92,"1570 GALLATIN PIKE N,MADISON,TN,37115-2124",1.0,0.0,0.0,36.29149959,-86.7033114,0,1
93,"16 S CENTRAL AVE,MONTEAGLE,TN,37356-3075",0.0,0.0,0.2,35.23945431,-85.83514914,0,1
94,"1601 WESTGATE CIR,BRENTWOOD,TN,37027-8019",0.0,0.0,1.0,35.96771838,-86.80326431,0,1
95,"162 SHARP AND PERKINS RD,JACKSBORO,TN,37757-2507",0.2,0.0,0.0,36.32757899,-84.19117151,0,1
96,"1620 WESTGATE CIR STE 250,BRENTWOOD,TN,37027-8050",0.3333333333333333,0.0,0.0,35.96948676,-86.80321070000002,0,1
97,"1633 W MAIN ST STE 200,LEBANON,TN,37087-7801",1.0,0.0,0.0,36.22016345,-86.34114218,0,1
98,"1661 AARON BRENNER DR STE 105,MEMPHIS,TN,38120-1467",0.0,0.0,0.5,35.10317407,-89.84561509,0,1
99,"1684 POPLAR AVE,MEMPHIS,TN,38104-2583",0.0,1.0,0.0,35.14296144,-90.00424785,0,1
100,"1704 CHARLOTTE AVE STE 100,NASHVILLE,TN,37203-2972",1.0,0.0,0.0,36.1592101,-86.7990295,0,1
101,"1710 NASHVILLE PIKE STE 102,GALLATIN,TN,37066-3154",1.0,0.0,0.0,36.35351543,-86.50750153,0,1
102,"1718 MEMORIAL DR,CLARKSVILLE,TN,37043-4542",0.0,0.0,0.5,36.51445889,-87.3123577,0,1
103,"1720 GUNBARREL RD STE 310,CHATTANOOGA,TN,37421-3192",1.0,0.0,0.0,35.02197102,-85.15997486,0,1
104,"1720 W MARKET ST,JOHNSON CITY,TN,37604-6021",1.0,0.0,0.0,36.31221485,-82.38531109,0,1
105,"1720 WEST AVE STE 106,CROSSVILLE,TN,38555-6066",0.0,0.0,0.16666666666666666,35.96423221,-85.04368240000002,0,1
106,"1721 PATTERSON ST,NASHVILLE,TN,37203-2925",1.5,0.0,0.0,36.15705044,-86.79864786,0,1
107,"1722 MEMORIAL DR,CLARKSVILLE,TN,37043-4542",1.0,0.0,0.0,36.51479626,-87.31211795,0,1
108,"1740 BIG SPRINGS RD,MARYVILLE,TN,37801-8206",1.0,0.0,0.0,35.75292323,-84.01557681,0,1
109,"1747 MEDICAL CENTER PKWY STE 200,MURFREESBORO,TN,37129-2575",0.0,0.0,0.3333333333333333,35.857746999999996,-86.42543952,0,1
110,"1747 MEDICAL CENTER PKWY STE 300,MURFREESBORO,TN,37129-2579",1.65,0.45,0.6909090909090909,35.85774699,-86.42543952,0,1
111,"1750 FRAYSER BLVD STE 1,MEMPHIS,TN,38127-6439",1.0,0.0,0.0,35.2176535,-90.00486196,0,1
112,"1818 SHADY BROOK ST,COLUMBIA,TN,38401-3944",1.0,0.0,0.0,35.60141053,-87.05742465,0,1
113,"1833 MEMORIAL DR,CLARKSVILLE,TN,37043-4691",0.5,0.0,0.16666666666666666,36.51933129,-87.30724039,0,1
114,"185 PROSSER RD,LAWRENCEBURG,TN,38464-4234",0.0,0.5,0.4166666666666666,35.22476759,-87.33798425,0,1
115,"1858 CREST RD,MARYVILLE,TN,37804-4305",0.0,0.0,0.5,35.75739036,-83.95118081,0,1
116,"1909 HAMPSHIRE PIKE,COLUMBIA,TN,38401-5650",1.8333333333333333,0.0,0.0,35.61559734,-87.12213789,0,1
117,"1919 CHARLOTTE AVE STE 320,NASHVILLE,TN,37203-2243",0.0,0.0,0.3333333333333333,36.15722092,-86.80309782,0,1
118,"1926 HIGHWAY 46 S,DICKSON,TN,37055-2754",1.2,0.0,0.0,36.03090573,-87.34947147,0,1
119,"1928 ALCOA HWY STE 305,KNOXVILLE,TN,37920-1505",0.0,0.0,1.0,35.93904503,-83.94880164,0,1
120,"1930 ALCOA HWY STE 335,KNOXVILLE,TN,37920-1585",0.0,0.0,0.3333333333333333,35.93892779,-83.94878849,0,1
121,"1958 N JACKSON ST,TULLAHOMA,TN,37388-2204",1.5,0.0,0.0,35.38693004,-86.23420024,0,1
122,"1990 HIGHWAY 394 STE J,BLOUNTVILLE,TN,37617-4789",2.0,0.0,0.0,36.5242145,-82.3139434,0,1
123,"20 E MAIN ST,HOHENWALD,TN,38462-1420",0.6666666666666666,0.0,0.0,35.54786862,-87.55158461,0,1
124,"2000 GREYSTONE SQ,JACKSON,TN,38305-3575",1.0,0.0,0.0,35.68535188,-88.82907688,0,1
125,"201 DOOLEY ST SE,CLEVELAND,TN,37311-6220",1.0,0.0,0.0,35.15428162,-84.86814133,0,1
126,"201 PARK BLVD,ROGERSVILLE,TN,37857-2919",0.14285714285714285,0.0,0.0,36.41621154,-82.99223588,0,1
127,"2011 CHARLOTTE AVE STE A,NASHVILLE,TN,37203-2017",0.0,0.25,0.0,36.15684591,-86.8047964,0,1
128,"2011 CHARLOTTE AVE STE B,NASHVILLE,TN,37203-2017",0.3333333333333333,0.0,0.0,36.15684591,-86.8047964,0,1
129,"2025 MEADOWVIEW PKWY STE 200,KINGSPORT,TN,37660-7387",0.0,0.0,1.0,36.5069069,-82.57209893,0,1
130,"2025 N MOUNT JULIET RD STE 110,MOUNT JULIET,TN,37122-3934",0.25,0.25,0.0,36.19782112,-86.51925826,0,1
131,"2026 CLIFTON AVE,NASHVILLE,TN,37203-1910",0.0,1.0,0.0,36.15760542,-86.80649983,0,1
132,"2027 THORNTON DR,DICKSON,TN,37055",0.0,0.0,0.16666666666666666,36.0760677,-87.38674449,0,1
133,"205 S JACKSON ST,TULLAHOMA,TN,37388-4426",0.0,0.0,0.45,35.36025011,-86.21003045,0,1
134,"2055 N MOUNT JULIET RD STE 101,MOUNT JULIET,TN,37122-4289",0.0,0.0,0.30952380952380953,36.19886447,-86.51904259,0,1
135,"206 RIVERGATE PKWY STE A,GOODLETTSVILLE,TN,37072-2033",0.0,0.25,0.3333333333333333,36.31487657,-86.71010309,0,1
136,"2064 S HIGHLAND AVE,JACKSON,TN,38301-7741",1.0333333333333332,0.3333333333333333,0.0,35.55369513,-88.80971657,0,1
137,"2076 LASCASSAS PIKE STE A,MURFREESBORO,TN,37130-2085",1.0,0.0,0.0,35.87493362,-86.35243939,0,1
138,"207A INDIAN LAKE BLVD,HENDERSONVILLE,TN,37075-6214",0.0,0.0,1.0,36.31865466,-86.60112467,0,1
139,"210 ROBERT ROSE DR,MURFREESBORO,TN,37129-6365",1.5,0.0,0.0,35.85077248,-86.42428369,0,1
140,"2108 N JACKSON ST,TULLAHOMA,TN,37388-2208",0.0,0.0,0.3333333333333333,35.39133989,-86.23912373,0,1
141,"214 W CHURCH ST,UNION CITY,TN,38261-3816",1.0,0.0,0.0,36.42452753,-89.05880247,0,1
142,"2140 FAIRVIEW BLVD,FAIRVIEW,TN,37062-9065",1.0,0.0,0.0,35.97788649,-87.12553674,0,1
143,"215 OAK ST,LIVINGSTON,TN,38570-1726",1.5,0.0,0.0,36.38391699,-85.32778019,0,1
144,"215 THORNTON DR,DICKSON,TN,37055-2192",0.0,0.0,0.16666666666666666,36.072798,-87.37045099,0,1
145,"2151 CENTURY LN,JOHNSON CITY,TN,37604-4469",2.0,0.0,0.0,36.30926072,-82.38834631,0,1
146,"216 HIGHWAY 641 N,CAMDEN,TN,38320-1330",0.5,0.0,0.0,36.06919027,-88.114088,0,1
147,"217 E HIGH ST STE 200,LEBANON,TN,37087-6709",0.6000000000000001,0.0,0.0,36.21207039,-86.28690988,0,1
148,"217 N MAIN ST,GREENEVILLE,TN,37745-3815",1.0,0.0,0.0,36.16577765,-82.82946852,0,1
149,"217 W JEFFERSON ST,PULASKI,TN,38478-2812",1.0,0.0,0.0,35.20055925,-87.03204079,0,1
150,"218 MTCS RD,MURFREESBORO,TN,37129-0515",1.0,0.0,0.0,35.87037511,-86.38235346,0,1
151,"219 N POPLAR ST,PARIS,TN,38242-4005",1.0,0.0,0.0,36.30341658,-88.32524787,0,1
152,"219 PRINCETON RD,JOHNSON CITY,TN,37601-2052",0.14285714285714285,0.0,0.0,36.34870479999999,-82.37335005,0,1
153,"220 HILLCREST DR,CLARKSVILLE,TN,37043-6520",1.0,0.0,0.0,36.51769625,-87.30439719,0,1
154,"220 N WASHINGTON AVE,COOKEVILLE,TN,38501-2642",1.0,0.0,0.0,36.1659784,-85.49878443,0,1
155,"220 TOWN CENTER PKWY,SPRING HILL,TN,37174-4407",0.5,0.0,0.0,35.75144456,-86.94277833,0,1
156,"220 VETERANS PKWY STE N,MURFREESBORO,TN,37128-6436",1.0,0.0,0.0,35.78634343,-86.40411844,0,1
157,"2200 21ST AVE S STE 101,NASHVILLE,TN,37212-4929",0.0,0.0,0.30952380952380953,36.13015289,-86.80202586,0,1
158,"2200 CHILDRENS WAY,NASHVILLE,TN,37232-0005",0.2,0.0,0.0,36.13882055,-86.80185568,0,1
159,"2212 AIRWAYS BLVD,MEMPHIS,TN,38114-5361",1.0,0.0,0.0,35.08489059,-89.98680612,0,1
160,"225 MAIN ST STE 100,DAYTON,TN,37321-1329",0.0,0.0,0.5,35.49191210000001,-85.01258584,0,1
161,"2257 JACKSBORO PIKE,LA FOLLETTE,TN,37766-2904",1.0,0.0,0.0,36.34564698,-84.16265179,0,1
162,"2270 THORNTON TAYLOR PKWY,FAYETTEVILLE,TN,37334-3665",0.0,0.0,0.45,35.14644021,-86.56376689,0,1
163,"2277 WILMA RUDOLPH BLVD STE A2,CLARKSVILLE,TN,37040-6161",0.3333333333333333,0.0,0.0,36.57045965,-87.30387058,0,1
164,"2297 RUDOLPHTOWN RD,CLARKSVILLE,TN,37043-2226",0.5,0.3333333333333333,0.0,36.52243125,-87.27730743,0,1
165,"2319 VOLUNTEER PKWY,BRISTOL,TN,37620-6701",0.5,0.0,0.0,36.53701484,-82.23775566,0,1
166,"2333 KNOB CREEK RD STE 10,JOHNSON CITY,TN,37604-2007",0.0,0.0,0.5,36.33854259,-82.39696587,0,1
167,"2379 BUFFALO RD,LAWRENCEBURG,TN,38464-4810",0.8333333333333333,0.0,0.0,35.27413791,-87.34123571,0,1
168,"241 N PETERS RD,KNOXVILLE,TN,37923-4910",0.3333333333333333,0.0,0.0,35.91586359,-84.08551471,0,1
169,"243 JOULE ST,ALCOA,TN,37701-2421",0.5,0.0,0.0,35.76711592,-83.97679442,0,1
170,"2475 HIGHWAY 49 E,PLEASANT VIEW,TN,37146-7147",1.0,0.0,0.0,36.39232494,-87.03775577,0,1
171,"2485 FORT CAMPBELL BLVD STE 102,CLARKSVILLE,TN,37042-7789",0.5,0.3333333333333333,0.0,36.61374417,-87.43046616,0,1
172,"25 STONE RIDGE CV,HUNTINGDON,TN,38344-1738",0.8333333333333333,0.3333333333333333,0.0,36.02194547,-88.40831399,0,1
173,"2500 CHARLOTTE AVE,NASHVILLE,TN,37209-4129",1.0,0.0,0.0,36.15503402,-86.81333901,0,1
174,"2510 MURFREESBORO PIKE STE 7,NASHVILLE,TN,37217-3623",0.0,0.0,1.0,36.07870949,-86.64346541,0,1
175,"2565 BUSINESS PARK DR NE,CLEVELAND,TN,37311-6503",0.0,0.0,1.0,35.17425031,-84.85509641,0,1
176,"262 DANNY THOMAS PL,MEMPHIS,TN,38105-3678",1.0,0.0,0.0,35.15461547,-90.04250781,0,1
177,"2622 MADISON ST STE G,CLARKSVILLE,TN,37043-6555",0.0,0.5,0.0,36.50474383,-87.25699193,0,1
178,"2623 HIGHWAY 70 E,CROSSVILLE,TN,38555-2808",0.0,0.0,0.3333333333333333,35.95720544,-84.98167441,0,1
179,"264 NEW SHACKLE ISLAND RD STE 105A,HENDERSONVILLE,TN,37075-2482",0.3333333333333333,0.0,0.0,36.32306388,-86.62086895,0,1
180,"271 INDIAN LAKE BLVD STE 110,HENDERSONVILLE,TN,37075-6379",0.3333333333333333,0.0,0.0,36.32768209,-86.59437865,0,1
181,"2739 HIGHWAY 231 N,ROYAL,TN,37160-7316",0.0,0.0,0.3333333333333333,35.55311925,-86.44869662,0,1
182,"2753 E CENTER ST,KINGSPORT,TN,37664-2715",0.0,0.0,1.0,36.53391366,-82.51586946,0,1
183,"277 VETERANS PKWY STE A,MURFREESBORO,TN,37128-6931",0.42424242424242425,0.0,0.16666666666666666,35.78640886,-86.40581733,0,1
184,"2805 OLD FORT PKWY STE A,MURFREESBORO,TN,37128-5116",0.0,1.0,0.0,35.8450245,-86.44719864,0,1
185,"2828 ELM HILL PIKE STE 105,NASHVILLE,TN,37214-3772",0.2,0.0,0.0,36.14831904,-86.66450014,0,1
186,"2850 S CHURCH ST,MURFREESBORO,TN,37127-6374",1.0,0.0,0.0,35.79271993,-86.39967486,0,1
187,"2900 KIRBY RD STE 9,MEMPHIS,TN,38119-8207",0.6666666666666666,0.0,0.0,35.06936502,-89.84285227,0,1
188,"2910 OLD FORT PKWY,MURFREESBORO,TN,37128-4158",1.0,1.0,0.0,35.84498344,-86.44924226,0,1
189,"2937 ESSARY DR,KNOXVILLE,TN,37918-2465",0.5,0.0,0.0,36.03568693,-83.92824647,0,1
190,"2947 SAM JAMES RD,MARYVILLE,TN,37803-3019",1.0,0.0,0.0,35.70095718,-83.961686,0,1
191,"2953 BROAD AVE,MEMPHIS,TN,38112-2957",0.9666666666666666,0.0,0.0,35.14732953,-89.9626043,0,1
192,"2965 N GERMANTOWN RD STE 129,BARTLETT,TN,38133-4058",1.0,0.0,0.0,35.20704782,-89.79189605,0,1
193,"3000 STANSBERRY LN # 105,FRANKLIN,TN,37069-5125",1.0,0.0,0.0,35.97241011,-86.8344723,0,1
194,"301 MCGHEE ST,MARYVILLE,TN,37801-6811",1.0,0.0,0.0,35.7549676,-83.975126,0,1
195,"301 W END AVE,DICKSON,TN,37055-1725",1.2,0.0,0.0,36.08361953,-87.39714118,0,1
196,"3011 HARRAH DR STE H,SPRING HILL,TN,37174-6253",0.0,0.0,1.0,35.77692125,-86.91145296,0,1
197,"3012 BUSINESS PARK CIR,GOODLETTSVILLE,TN,37072-3190",0.0,0.0,1.0,36.33138517,-86.70097159,0,1
198,"304 GLENGARRY DR,NASHVILLE,TN,37217-2343",0.0,1.0,0.0,36.12013996,-86.7039171,0,1
199,"304 PROVIDENCE BLVD,CLARKSVILLE,TN,37042-4326",1.0,0.0,0.0,36.54630856,-87.37551716,0,1
200,"307 BLUEBIRD DR,GOODLETTSVILLE,TN,37072-2303",0.0,0.0,0.30952380952380953,36.29945285,-86.70356084,0,1
201,"307 MAPLE ST,ATHENS,TN,37303-2957",0.3333333333333333,0.0,0.0,35.44490299,-84.61488346,0,1
202,"3087 PARK AVE,MEMPHIS,TN,38111-3019",1.0,0.0,0.0,35.10774851,-89.95961261,0,1
203,"309 NORTHCREEK BLVD,GOODLETTSVILLE,TN,37072-1995",2.0,0.0,0.0,36.3210617,-86.69892047,0,1
204,"31 STONEBRIDGE BLVD,JACKSON,TN,38305-2042",0.0,1.0,0.0,35.67353400000001,-88.85389785,0,1
205,"310 SIMMONS RD STE I,KNOXVILLE,TN,37922-1943",1.0,0.0,0.0,35.9033151,-84.13966674,0,1
206,"313 W HIGH ST,WOODBURY,TN,37190-1109",1.0,0.0,0.0,35.82677553,-86.07226366,0,1
207,"3130 TOM AUSTIN HWY STE C,SPRINGFIELD,TN,37172-4519",0.0,0.0,0.30952380952380953,36.47096001,-86.89298817,0,1
208,"3130 TOM AUSTIN HWY,SPRINGFIELD,TN,37172-4519",0.0,0.3333333333333333,0.0,36.47096001,-86.89298817,0,1
209,"3159 HIGHWAY 64 STE 100,EADS,TN,38028-3322",1.3333333333333333,0.0,0.0,35.22507094,-89.58622103,0,1
210,"3159 HIGHWAY 64 STE 500,EADS,TN,38028-3331",0.3333333333333333,0.0,0.0,35.22507094,-89.58622103,0,1
211,"320 N GARDEN ST,COLUMBIA,TN,38401-2902",1.0,0.0,0.0,35.62064872,-87.0346311,0,1
212,"323 S CONCORD ST,KNOXVILLE,TN,37919-3304",1.5,0.0,0.0,35.95467739,-83.94833771,0,1
213,"324 22ND AVE N,NASHVILLE,TN,37203-1842",0.2909090909090909,0.0,0.0,36.15473398,-86.80592656,0,1
214,"324 TYSON AVE,PARIS,TN,38242-4832",1.0,0.0,0.0,36.29428677,-88.31347009999998,0,1
215,"3285 HACKS CROSS RD STE 101,MEMPHIS,TN,38125-8945",0.0,1.0,0.0,35.0603295,-89.79371128,0,1
216,"3286 N MOUNT JULIET RD STE 100,MOUNT JULIET,TN,37122-3010",0.0,0.0,1.0,36.21604303,-86.51574347,0,1
217,"3295 FRANKLIN RD,MURFREESBORO,TN,37128-4113",1.0,0.0,0.0,35.84466457,-86.45605322,0,1
218,"331 W MAIN ST,MORRISTOWN,TN,37814-4621",0.3333333333333333,0.0,0.0,36.21188051,-83.29582772,0,1
219,"3362 S 3RD ST,MEMPHIS,TN,38109-2944",0.9666666666666666,0.0,0.0,35.05700344,-90.05979045,0,1
220,"3402 CAINLO DR STE 100,CLARKSVILLE,TN,37042-0863",0.5,0.0,0.0,36.62712356,-87.32920541,0,1
221,"343 FRANKLIN RD STE 210,BRENTWOOD,TN,37027-5250",0.0,0.0,0.30952380952380953,36.02588370000001,-86.79291191,0,1
222,"3468 PLAZA AVE,MEMPHIS,TN,38111-4614",1.0,0.0,0.0,35.12957933,-89.94692361,0,1
223,"3481 AUSTIN PEAY HWY,MEMPHIS,TN,38128-3801",0.7666666666666666,0.0,0.2,35.22030249,-89.91009957,0,1
224,"350 S LOWE AVE,COOKEVILLE,TN,38501-3567",0.0,0.25,0.0,36.15506005,-85.49940908,0,1
225,"355A HANCOCK ST,GALLATIN,TN,37066-3690",0.0,0.0,0.30952380952380953,36.37308804,-86.46166351,0,1
226,"3574 HICKORY HILL RD,MEMPHIS,TN,38115-3827",1.0,0.0,0.0,35.05125075,-89.86628197,0,1
227,"360 E EH CRUMP BLVD,MEMPHIS,TN,38126-5310",3.5,0.0,0.0,35.12450947,-90.05009102,0,1
228,"3601 THE VANDERBILT CLINIC,NASHVILLE,TN,37232-0001",0.5333333333333333,0.0,0.5,36.139812,-86.80054399,0,1
229,"366 S LOWRY ST,SMYRNA,TN,37167-3415",0.0,0.0,0.5,35.97254411,-86.51032398,0,1
230,"3701 EASTEND DR,HUMBOLDT,TN,38343-1988",1.0,0.0,0.0,35.83839887,-88.8914683,0,1
231,"3704 SUMMER AVE,MEMPHIS,TN,38122-3743",1.0,0.0,0.0,35.14935348,-89.93754921,0,1
232,"3720 CUNNINGHAM RD,KNOXVILLE,TN,37918-5303",1.0,0.0,0.0,36.07404341,-83.93054378,0,1
233,"3725 RIVERDALE RD STE 1,MEMPHIS,TN,38115-5332",0.5,0.0,0.0,35.04693818,-89.83038395,0,1
234,"382 TENNESSEE AVE N,PARSONS,TN,38363-2024",0.8333333333333333,0.3333333333333333,0.0,35.65531729999999,-88.12711624,0,1
235,"390 RAILROAD ST STE D,BOLIVAR,TN,38008-2661",0.3333333333333333,0.0,0.3333333333333333,35.25367244,-88.99486846,0,1
236,"3913 LEBANON PIKE,HERMITAGE,TN,37076-2011",0.5,0.0,0.0,36.19504212,-86.62195618,0,1
237,"3926 GALLATIN PIKE STE A,NASHVILLE,TN,37216-2436",1.0,0.0,0.0,36.21802681,-86.72826311,0,1
238,"3942 CLARKSVILLE PIKE,NASHVILLE,TN,37218-1910",0.0,0.25,0.0,36.21081094,-86.83893447,0,1
239,"397 WALLACE RD STE 314,NASHVILLE,TN,37211-8028",3.5,0.0,0.0,36.07739159,-86.72488089,0,1
240,"40 W CALDWELL ST STE 202,MOUNT JULIET,TN,37122-3179",0.0,1.0,0.0,36.20267437,-86.51915998,0,1
241,"400 N HICKS ST,CLINTON,TN,37716-2970",0.5,0.0,0.0,36.10443935,-84.13256565,0,1
242,"400 W CRAWFORD AVE STE C,MONTEREY,TN,38574-1166",1.0,0.0,0.0,36.15139648,-85.2702429,0,1
243,"401 MARTIN LUTHER KING JR BLVD,BRISTOL,TN,37620-3588",2.0,0.0,0.0,36.59011062,-82.18201686,0,1
244,"403 E G ST,ELIZABETHTON,TN,37643-3223",0.14285714285714285,0.0,0.0,36.345916700000004,-82.2198181,0,1
245,"4041 KNIGHT ARNOLD RD STE 100MEM,MEMPHIS,TN,38118-2128",1.0,0.0,0.0,35.06479055,-89.92863313,0,1
246,"405 TYSON AVE STE A,PARIS,TN,38242-4836",0.5,0.0,0.0,36.2936542,-88.31421643,0,1
247,"410 N PARRISH PL STE 1000,HENDERSONVILLE,TN,37075-1003",0.0,1.0,0.0,36.2924317,-86.61682859,0,1
248,"4137 KIRBY PKWY STE 4,MEMPHIS,TN,38115-6512",0.0,1.0,0.0,35.035629799999995,-89.8476573,0,1
249,"415 E UNIVERSITY ST,LIVINGSTON,TN,38570-1511",1.0,0.0,0.0,36.38632764,-85.31922671,0,1
250,"4160 OCOEE ST N STE 2,CLEVELAND,TN,37312-4886",0.0,0.0,1.0,35.19611292,-84.8487052,0,1
251,"418 W 6TH ST,COLUMBIA,TN,38401-3264",1.0,0.0,0.0,35.61707336,-87.04203879,0,1
252,"4183 FRANKLIN RD STE 5B,MURFREESBORO,TN,37128-4255",1.0,0.0,0.0,35.84368254,-86.47276211,0,1
253,"430 COLLEGE ST,NEWPORT,TN,37821-3752",0.3333333333333333,0.0,0.0,35.96433278,-83.18296604,0,1
254,"441 DONELSON PIKE STE 300,NASHVILLE,TN,37214-6600",1.0,0.0,0.0,36.15149051,-86.66651676,0,1
255,"444 CLINCHFIELD ST,KINGSPORT,TN,37660-3858",0.5,0.0,0.0,36.55307771,-82.56385043,0,1
256,"451 MURFREESBORO PIKE BLDG 1,NASHVILLE,TN,37210-2842",0.0,0.0,0.5,36.14292341,-86.74475226,0,1
257,"451 MURFREESBORO PIKE,NASHVILLE,TN,37210-2842",1.5,0.0,0.0,36.14291344,-86.7447422,0,1
258,"4515 HARDING PIKE STE 114,NASHVILLE,TN,37205-2118",0.0,1.0,0.0,36.12425827,-86.84856473,0,1
259,"4565 NASHVILLE HWY,CHAPEL HILL,TN,37034-2107",1.0,0.0,0.0,35.60808555,-86.69964770000001,0,1
260,"458 N PARKWAY,JACKSON,TN,38305-2818",1.0,0.0,0.0,35.6468416,-88.84658804,0,1
261,"460 INDUSTRIAL LN,ONEIDA,TN,37841-6294",0.5,0.0,0.0,36.49929994,-84.52288493,0,1
262,"4646 POPLAR AVE STE 514,MEMPHIS,TN,38117-4435",1.0,0.0,0.0,35.11629889,-89.90712166,0,1
263,"4700 MUELLER BRASS RD,COVINGTON,TN,38019-3754",1.0,0.0,0.0,35.53595437,-89.65185679999998,0,1
264,"4703 HIXSON PIKE,HIXSON,TN,37343-4818",0.0,0.0,0.5,35.12390563,-85.24799250000002,0,1
265,"4718 NOLENSVILLE PIKE,NASHVILLE,TN,37211-5408",0.3333333333333333,0.5,0.0,36.06726653,-86.71829574,0,1
266,"4727 BRAINERD RD STE A,CHATTANOOGA,TN,37411-3828",2.0,0.0,0.0,35.01368502,-85.22985962,0,1
267,"4741 N BROADWAY ST STE C,KNOXVILLE,TN,37918-1793",0.0,0.0,1.0,36.02432437,-83.92644303,0,1
268,"4761 ANDREW JACKSON PKWY,HERMITAGE,TN,37076-1354",1.45,0.45,0.8,36.21921232,-86.59758747,0,1
269,"4801 CUBA MILLINGTON RD,MILLINGTON,TN,38053-5401",1.0,0.0,0.0,35.35052462,-89.90319912,0,1
270,"4805 GALLATIN PIKE,NASHVILLE,TN,37216-1301",0.5,0.0,0.0,36.23164246,-86.7249246,0,1
271,"485 FORKS OF THE RIVER PKWY,SEVIERVILLE,TN,37862-3422",0.0,0.0,0.5,35.86116827,-83.56587582,0,1
272,"4928 EDMONDSON PIKE STE 202,NASHVILLE,TN,37211-4791",1.0,0.0,0.0,36.07579781,-86.72846296,0,1
273,"495 DUNLOP LN STE 112,CLARKSVILLE,TN,37040-5296",1.8333333333333333,0.7,0.4166666666666666,36.58093212,-87.27857395,0,1
274,"4972 HIGHWAY 58 STE 114,CHATTANOOGA,TN,37416-1868",0.0,0.0,0.16666666666666666,35.09386145,-85.17877747,0,1
275,"500 LENTZ DR STE 40,MADISON,TN,37115-5135",0.5,1.0,0.0,36.24801114,-86.73790896,0,1
276,"500 LENTZ DR STE 60,MADISON,TN,37115-5135",1.0,0.0,0.0,36.24801114,-86.73790896,0,1
277,"500 LENTZ DR STE 90A,MADISON,TN,37115-5135",2.0,0.0,0.0,36.24801114,-86.73790896,0,1
278,"5000 CROSSINGS CIR STE 301,MOUNT JULIET,TN,37122-8591",1.5409090909090908,0.65,0.6000000000000001,36.16807001,-86.51634544,0,1
279,"5003 CROSSINGS CIR STE 100,MT JULIET,TN,37122-8570",1.0,0.25,0.0,36.16669991,-86.51615889,0,1
280,"5073 MAIN ST STE 240,SPRING HILL,TN,37174-2738",1.2,0.540909090909091,0.8,35.76706041,-86.91902382,0,1
281,"508 PRINCETON RD STE 204,JOHNSON CITY,TN,37601-2063",0.5,0.0,0.0,36.35430893,-82.36884778,0,1
282,"51 STONEBRIDGE BLVD,JACKSON,TN,38305-2042",0.5,0.0,0.0,35.67427139999999,-88.8538959,0,1
283,"510 LIVINGSTON RD,CROSSVILLE,TN,38555-4019",1.0,0.0,0.16666666666666666,35.95763207,-85.03530488,0,1
284,"510 S JEFFERSON AVE,COOKEVILLE,TN,38501-4010",0.09090909090909093,0.7,0.6666666666666666,36.15225335,-85.50061948,0,1
285,"5109 PETER TAYLOR PARK DR STE 100,BRENTWOOD,TN,37027-7672",0.0,2.0,0.0,36.03419783,-86.79956519,0,1
286,"5115 CLINTON HWY,KNOXVILLE,TN,37912-3841",1.0,0.0,0.0,36.0029473,-83.9782114,0,1
287,"5124 STAGE RD STE C2,MEMPHIS,TN,38134-3164",0.0,1.0,0.0,35.20689744,-89.89271899,0,1
288,"5126 SUMMER AVE STE 101,MEMPHIS,TN,38122-4400",1.0,0.0,0.0,35.15187025,-89.89000369,0,1
289,"516 VANCE AVE,MEMPHIS,TN,38126-2117",1.0,0.0,0.0,35.13478436,-90.04476076,0,1
290,"5168 MURFREESBORO RD,LA VERGNE,TN,37086-2712",2.0,0.0,0.0,36.01967003,-86.57519829,0,1
291,"520 HIGHWAY 76 STE 9,WHITE HOUSE,TN,37188-8212",0.5909090909090909,1.2,0.4166666666666666,36.46907622,-86.66812652,0,1
292,"5226 MAIN ST STE C7,SPRING HILL,TN,37174-7403",0.0,0.0,0.5,35.7566805,-86.92464140000001,0,1
293,"5226 MAIN ST,SPRING HILL,TN,37174-7403",0.3333333333333333,0.0,0.0,35.7566805,-86.92464140000001,0,1
294,"5245 HICKORY HOLLOW PKWY,ANTIOCH,TN,37013-3003",1.0,0.0,0.0,36.04836713,-86.65770869,0,1
295,"527 ENON SPRINGS RD E,SMYRNA,TN,37167-4446",1.0,0.0,0.0,35.97359423,-86.49414365,0,1
296,"527 GALLATIN PIKE S,MADISON,TN,37115-4010",1.0,0.0,0.0,36.25806098,-86.71359814,0,1
297,"531 HIGHWAY 46 S STE 7,DICKSON,TN,37055-7740",1.0,0.0,0.0,36.06081452,-87.37514933,0,1
298,"5352 HICKORY HOLLOW PKWY,ANTIOCH,TN,37013-3128",0.3333333333333333,0.0,0.0,36.04568496,-86.65364932,0,1
299,"5366 MENDENHALL MALL,MEMPHIS,TN,38115-4505",0.9666666666666666,0.0,0.0,35.05270297,-89.88407035,0,1
300,"5370 ESTATE OFFICE DR,MEMPHIS,TN,38119",1.0,0.0,0.0,35.10461589,-89.88303275,0,1
301,"550 TOWN CREEK RD E STE 101,LENOIR CITY,TN,37772-2600",0.5,0.0,0.0,35.82694874,-84.2720416,0,1
302,"550 TOWN CREEK RD E STE 202,LENOIR CITY,TN,37772-6290",0.0,0.0,1.0,35.82694874,-84.2720416,0,1
303,"5510 WALLWOOD RD,KNOXVILLE,TN,37912-3442",1.0,0.0,0.0,36.00595495,-83.98441159999999,0,1
304,"5520 HIGH ST,OOLTEWAH,TN,37363-8131",0.5,0.0,0.0,35.07082099,-85.05974355,0,1
305,"554 W MAIN ST,COOKEVILLE,TN,38506-5382",1.5,0.0,0.3333333333333333,36.18503158,-85.45689857,0,1
306,"5707 HIGHWAY 58 STE 103,HARRISON,TN,37341-5985",0.5,0.0,0.0,35.11042786,-85.14022406,0,1
307,"577 E RAINES RD,MEMPHIS,TN,38109-8368",1.0,0.0,0.0,35.03478567,-90.04489691,0,1
308,"5802 NOLENSVILLE PIKE STE 201,NASHVILLE,TN,37211-6540",0.0,0.0,0.3333333333333333,36.04424978,-86.71309932,0,1
309,"5805 LEE HWY STE 305,CHATTANOOGA,TN,37421-3546",1.0,0.0,0.0,35.02075143,-85.20108583,0,1
310,"5913 OOLTEWAH RINGGOLD RD STE 103,OOLTEWAH,TN,37363-7809",0.0,0.0,1.0,35.08105466,-85.05922423,0,1
311,"594 MAIN ST N,MC KENZIE,TN,38201-1707",1.0,0.0,0.0,36.13086209,-88.51783761,0,1
312,"603 HIGHWAY 321 N BLDG 4 # 20,LENOIR CITY,TN,37771-6575",0.0,0.0,0.3333333333333333,35.80971177,-84.26287945,0,1
313,"608 GALLATIN PIKE N STE C,MADISON,TN,37115-2809",0.3333333333333333,0.0,0.0,36.26865823,-86.71062822,0,1
314,"613 WATAUGA ST,KINGSPORT,TN,37660",0.5,0.0,0.0,36.54898148,-82.55520436,0,1
315,"615 DERBY ST,CHATTANOOGA,TN,37404-1632",1.0,0.0,0.0,35.0413158,-85.26236899999998,0,1
316,"6220 NOLENSVILLE PIKE,NASHVILLE,TN,37211-6815",0.0,0.0,0.3333333333333333,36.02029067,-86.71024909,0,1
317,"623 E MAIN ST,HENDERSONVILLE,TN,37075-2690",1.0,0.0,0.0,36.32352997,-86.56944162,0,1
318,"625 MORRISON SPRINGS RD,CHATTANOOGA,TN,37415-3401",1.0,0.0,0.0,35.12451494,-85.30144429,0,1
319,"63 THOMPSON LN STE 106,NASHVILLE,TN,37211-2585",1.0,0.0,0.0,36.11077948,-86.72571567,0,1
320,"6311 KINGSTON PIKE STE 26W,KNOXVILLE,TN,37919-4900",0.5,0.0,0.0,35.93204024,-84.00680736,0,1
321,"6312 HIGHWAY 41A STE 100,PLEASANT VIEW,TN,37146-8221",0.3333333333333333,0.0,0.0,36.39327329,-87.0208775,0,1
322,"633 HIGH ST,HUNTINGDON,TN,38344-1703",1.0,0.0,0.0,36.0227619,-88.40864353,0,1
323,"635 N MAIN ST STE B,SHELBYVILLE,TN,37160-3257",0.0,0.0,0.25,35.48873554,-86.45913604,0,1
324,"639 LAFAYETTE ST,NASHVILLE,TN,37203-4226",0.6000000000000001,0.0,0.0,36.15365675,-86.77666204,0,1
325,"6509 HIGHWAY 41A STE A,PLEASANT VIEW,TN,37146-7170",0.0,0.5,0.5,36.39964489,-87.03072649,0,1
326,"6565 STAGE RD STE 2,BARTLETT,TN,38134-3830",2.333333333333333,1.0,0.0,35.20472149,-89.84436397,0,1
327,"660 S MOUNT JULIET RD STE 200,MOUNT JULIET,TN,37122-3970",1.0,0.0,0.0,36.16130612,-86.51534562,0,1
328,"6606 CHARLOTTE PIKE STE 102,NASHVILLE,TN,37209-4256",1.0,0.0,0.0,36.13864078,-86.88120585,0,1
329,"661 DUNBAR CAVE RD STE 100,CLARKSVILLE,TN,37043-6037",0.0,0.0,1.0,36.54850595,-87.29205575,0,1
330,"67 BOLIVAR HWY,JACKSON,TN,38301-7810",1.0,0.0,0.0,35.55416201,-88.81241465,0,1
331,"670 LYNNWOOD DR,ATHENS,TN,37303-4168",0.0,0.0,0.3333333333333333,35.4377777,-84.60499691,0,1
332,"6799 GREAT OAKS RD STE 201,MEMPHIS,TN,38138-2572",1.0,0.0,0.0,35.10135735,-89.83662284,0,1
333,"693 PRESIDENT PL STE 101,SMYRNA,TN,37167-8602",0.5,0.0,0.0,35.98056126,-86.55657226,0,1
334,"694 N GERMANTOWN PKWY STE 50,CORDOVA,TN,38018-6285",1.0,0.0,0.0,35.14423803,-89.79538647,0,1
335,"700 S ILLINOIS AVE BLDG A # 104,OAK RIDGE,TN,37830-7900",0.3333333333333333,0.0,0.0,36.00157693,-84.24175673,0,1
336,"7003 SHALLOWFORD RD STE 202,CHATTANOOGA,TN,37421-6722",0.3333333333333333,0.0,0.16666666666666666,35.04399038,-85.15989098,0,1
337,"703 K ST,GREENEVILLE,TN,37745-6246",0.0,0.0,0.5,36.16171063,-82.81684291,0,1
338,"7033 HIGHWAY 64,OAKLAND,TN,38060-3209",1.0,0.0,0.0,35.22898174,-89.51865229,0,1
339,"704 HIGHWAY 100 STE 101,CENTERVILLE,TN,37033-1172",0.6666666666666666,0.0,0.0,35.74379581,-87.47253884,0,1
340,"705 GATE LN STE 101,KNOXVILLE,TN,37909-3519",0.8333333333333333,0.6666666666666666,0.0,35.93842559,-84.01676251,0,1
341,"710 N MAIN ST STE C,CLINTON,TN,37716-3143",1.0,0.0,0.0,36.112436100000004,-84.13183129,0,1
342,"710 N MAIN ST,CLINTON,TN,37716-3143",0.2,0.0,0.0,36.112436100000004,-84.13183129,0,1
343,"712 W WALNUT ST,JOHNSON CITY,TN,37604-6524",2.0,0.0,0.0,36.30933287,-82.35996162,0,1
344,"7146 NOLENSVILLE RD STE 101,NOLENSVILLE,TN,37135-9615",0.0,1.0,1.0,35.97086482,-86.67830079,0,1
345,"715 MORTON ST,PARIS,TN,38242-4296",1.0,0.0,0.0,36.30288006,-88.31430689,0,1
346,"715 W MAIN ST,MOUNTAIN CITY,TN,37683-1217",0.14285714285714285,0.0,0.0,36.47676057,-81.81282619,0,1
347,"717 W 5TH NORTH ST,MORRISTOWN,TN,37814-3929",0.3333333333333333,0.0,0.0,36.21388952,-83.30340868,0,1
348,"719 MIDDLE CREEK RD,SEVIERVILLE,TN,37862-5016",0.5333333333333333,0.0,0.0,35.85484132,-83.53817544,0,1
349,"720 HIGHWAY 99,WAYNESBORO,TN,38485-3003",0.6666666666666666,0.0,0.0,35.32505098,-87.74294692,0,1
350,"723 W MAIN ST,LEBANON,TN,37087-3406",0.0,0.0,0.5,36.21003984,-86.3096743,0,1
351,"726 E LAMAR ALEXANDER PKWY,MARYVILLE,TN,37804-5004",0.5,0.0,0.0,35.7549575,-83.96160099,0,1
352,"730 E 11TH ST,CHATTANOOGA,TN,37403-3103",0.5,0.0,0.0,35.04016791,-85.29976431,0,1
353,"7315 STATE ROUTE 28,DUNLAP,TN,37327-3515",0.0,0.0,0.5,35.35868983,-85.39752435,0,1
354,"739 PRESIDENT PL STE 210,SMYRNA,TN,37167-6846",0.0,0.0,0.5,35.97902686,-86.55960689,0,1
355,"739 PRESIDENT PL,SMYRNA,TN,37167-6844",1.0,0.0,0.0,35.97902686,-86.55960689,0,1
356,"745 NEW HIGHWAY 68,SWEETWATER,TN,37874-1913",0.8333333333333333,0.0,0.16666666666666666,35.59298862,-84.48012931,0,1
357,"755 E BROOKHAVEN CIR,MEMPHIS,TN,38117-4501",1.0,0.0,0.0,35.11252917,-89.88956453,0,1
358,"7640 HIGHWAY 70 S STE 205,NASHVILLE,TN,37221-1758",0.5,0.0,0.0,36.07878075,-86.95148323,0,1
359,"771 E MALLORY AVE,MEMPHIS,TN,38106-7527",0.5,0.0,0.0,35.0860815,-90.03715229,0,1
360,"7730 WOLF RIVER BLVD STE 104,GERMANTOWN,TN,38138-1737",0.3333333333333333,0.0,0.0,35.11356916,-89.80528909,0,1
361,"7761 DANNAHER DR,POWELL,TN,37849-4049",0.0,0.0,0.5,36.05411044,-83.99644586,0,1
362,"78 LYNOAK CV,JACKSON,TN,38305-2800",1.0,0.0,0.0,35.64797670000001,-88.84667461,0,1
363,"780 RIDGE LAKE BLVD STE 201,MEMPHIS,TN,38120-9426",1.0,0.0,0.0,35.11056529,-89.8677585,0,1
364,"7900 WINCHESTER RD STE 102,MEMPHIS,TN,38125-2396",1.0,0.0,0.0,35.04879135,-89.80044688,0,1
365,"8 SHERIDAN SQ STE 400,KINGSPORT,TN,37660-7479",0.0,0.0,0.5,36.51071936,-82.56053203,0,1
366,"800 WEATHERLY DR STE 103B,CLARKSVILLE,TN,37043-8959",0.3333333333333333,0.0,0.0,36.57339048,-87.28515056,0,1
367,"801 SUNSET DR BLDG D-1,JOHNSON CITY,TN,37604-3033",0.0,0.0,1.0,36.33486545,-82.3866963,0,1
368,"806 S BROWN ST,SPRINGFIELD,TN,37172-2920",1.0,0.0,0.0,36.50510120000001,-86.88050718,0,1
369,"809 HAMILTON XING,ANTIOCH,TN,37013-8408",1.0,0.0,0.0,36.06501427,-86.63052761,0,1
370,"8095 MACON RD STE 109,CORDOVA,TN,38018-8500",0.5,0.0,1.0,35.15390053,-89.79317069,0,1
371,"810 W CHURCH ST,GREENEVILLE,TN,37745-3285",1.1428571428571428,0.0,0.0,36.17173798,-82.8429273,0,1
372,"8119 ISABELLA LN STE 108,BRENTWOOD,TN,37027-8173",0.0,0.0,1.0,35.96174955,-86.80263108,0,1
373,"8120 SAWYER BROWN RD STE 103,NASHVILLE,TN,37221-1410",0.0,1.0,0.0,36.08014484,-86.94444012,0,1
374,"815 WEBB AVE STE 101,CROSSVILLE,TN,38555-4201",0.0,0.0,1.0,35.95493468,-85.02823934,0,1
375,"818 MIDDLE CREEK RD,SEVIERVILLE,TN,37862-5017",0.8333333333333333,0.6666666666666666,0.0,35.85249955,-83.53557133,0,1
376,"819 NEEDHAM DR,SMYRNA,TN,37167-9403",0.3333333333333333,0.0,0.0,35.98619771,-86.54544791,0,1
377,"820 MCARTHUR ST,MANCHESTER,TN,37355-2324",0.0,0.0,0.2,35.47491288,-86.08200994,0,1
378,"843 TIPTON RD STE B,MUNFORD,TN,38058-4786",0.0,0.0,0.5,35.43711053,-89.81952684,0,1
379,"843 TIPTON RD STE D,MUNFORD,TN,38058-4786",0.3333333333333333,0.0,0.0,35.43704946,-89.81961533,0,1
380,"845 S HIGHLAND ST,MEMPHIS,TN,38111-4254",1.0,0.0,0.0,35.10847811,-89.94605755,0,1
381,"875 UNION AVE,MEMPHIS,TN,38103-3513",0.0,1.0,0.0,35.13837781,-90.0322683,0,1
382,"875 UNION AVENUE S219 DEPT OF GRADUATE PEDIATRIC DENTISTRY,MEMPHIS,TN,38163-0001",0.0,1.0,0.0,35.13837781,-90.0322683,0,1
383,"905 MAIN ST,NASHVILLE,TN,37206-3609",0.6000000000000001,0.0,0.0,36.17638117,-86.75622338,0,1
384,"910 MADISON AVE STE 710,MEMPHIS,TN,38103-3453",0.0,0.0,0.3333333333333333,35.14025141,-90.03009952,0,1
385,"915 WILLOW TREE CIR,CORDOVA,TN,38018-6871",1.0,0.0,0.0,35.149151399999994,-89.7942688,0,1
386,"917 HARPETH VALLEY PL,NASHVILLE,TN,37221-1141",1.0,0.0,0.0,36.08315748,-86.95672229,0,1
387,"921 E 3RD ST,CHATTANOOGA,TN,37403-2102",0.5,0.0,0.0,35.04851133,-85.29238381,0,1
388,"9245 POPLAR AVE STE 8-161,GERMANTOWN,TN,38138-7931",1.0,0.0,0.0,35.06588354,-89.75477667,0,1
389,"9269 KINGSTON PIKE,KNOXVILLE,TN,37922-2318",1.0,0.0,0.0,35.91149209,-84.0882276,0,1
390,"927 E BADDOUR PKWY,LEBANON,TN,37087-3706",0.2,0.0,0.0,36.20055993,-86.27569804,0,1
391,"927 N JAMES M CAMPBELL BLVD STE 102,COLUMBIA,TN,38401-2755",0.09090909090909093,0.2,0.25,35.62419067,-87.06703742,0,1
392,"95 SEABOARD LN STE 102,BRENTWOOD,TN,37027-3037",0.0,0.5,0.0,35.96506851,-86.81747168,0,1
393,"95 US HIGHWAY 51 BYP W,DYERSBURG,TN,38024",1.0,1.0,0.0,36.05652679,-89.38329896,0,1
394,"9527 W RIDGE TRAIL RD,SODDY DAISY,TN,37379-4018",1.5,0.0,0.0,35.23073116,-85.16602282,0,1
395,"969 FRAYSER BLVD,MEMPHIS,TN,38127-5977",0.9666666666666666,0.0,0.0,35.21724354,-90.03174643,0,1
396,"9700 WESTLAND DR STE 101,KNOXVILLE,TN,37922-5297",0.0,1.0,0.0,35.87544388,-84.09548229,0,1
397,"973 HIGHWAY 51 N STE 7,COVINGTON,TN,38019-1594",1.0,0.0,0.0,35.58179452,-89.64132939,0,1
398,"FIRE STATION RD,CLARKSVILLE,TN,37043",0.0,0.5,0.0,36.51908864,-87.23445692,0,1
399,"PO BOX 126,GREENBACK,TN,37742-0126",1.0,0.0,0.0,35.673243,-84.17537449,0,1
400,"PO BOX 157,DECATUR,TN,37322-0157",1.0,0.0,0.0,35.50295399999999,-84.80955049,0,1
401,"PO BOX 209,HUNTSVILLE,TN,37756-0209",1.0,0.0,0.0,36.363606,-84.42457099,0,1
402,"PO BOX 219,MONTEAGLE,TN,37356-0219",1.0,0.0,0.0,35.231631,-85.83050149,0,1
403,"PO BOX 2411,CHURCH HILL,TN,37642-2411",1.0,0.0,0.0,36.535973999999996,-82.71321199,0,1
404,"PO BOX 244,PINEY FLATS,TN,37686-0244",1.0,0.0,0.0,36.440556,-82.33899199,0,1
405,"PO BOX 267,SNEEDVILLE,TN,37869-0267",0.14285714285714285,0.0,0.0,36.515688,-83.23741249,0,1
406,"PO BOX 277,PIKEVILLE,TN,37367-0277",1.0,0.0,0.0,35.624598,-85.19918299,0,1
407,"PO BOX 278,LOUDON,TN,37774-0278",0.2,0.0,0.0,35.72590200000001,-84.33586249,0,1
408,"PO BOX 39,HOHENWALD,TN,38462-0039",0.5,0.0,0.0,35.537469,-87.55105399,0,1
409,"PO BOX 415,MIDDLETON,TN,38052-0415",1.0,0.0,0.0,35.078334000000005,-88.90896049,0,1
410,"PO BOX 489,PIKEVILLE,TN,37367-0489",1.0,0.0,0.0,35.624598,-85.19918299,0,1
411,"PO BOX 497,DOVER,TN,37058-0497",1.2,0.0,0.0,36.480057,-87.86047399,0,1
412,"PO BOX 515,ESTILL SPRINGS,TN,37330-0515",0.5,0.0,0.0,35.278593,-86.13099349,0,1
413,"PO BOX 539,FAIRVIEW,TN,37062-0539",1.0,0.0,0.0,35.999988,-87.15434299,0,1
