idx,IKN_addr,general,pediatric,specialist,Y_lat,X_long,med_indicator,chip_indicator
0,"1 BURDEN CT RM 16,ALEXANDRIA,IN,46001-2632",0.047619047619047616,0.0,0.0,40.24899433,-85.67832724,1,1
1,"100 E PETTIT AVE STE 1A,FORT WAYNE,IN,46806-3003",2.6761904761904765,0.0,0.0,41.03882954,-85.1362232,1,1
2,"100 MATTIE HARRIS RD,CENTERVILLE,IN,47330-1335",1.0,0.0,0.0,39.817755,-84.98639929,1,1
3,"100 N BROADWAY ST,OAKTOWN,IN,47561",2.0,0.0,0.0,38.87133783,-87.4409532,1,1
4,"100 N HARRISON ST,SALEM,IN,47167-1426",1.0,0.0,0.0,38.606066999999996,-86.10602712,1,1
5,"100 TOWN CENTER RD S,MOORESVILLE,IN,46158-2321",1.0769230769230769,0.0,0.0,39.61619924,-86.35410275,1,1
6,"100 W CHICAGO AVE STE 100,EAST CHICAGO,IN,46312-3260",0.3333333333333333,0.0,0.0,41.62937548,-87.47219096,1,1
7,"100 W VAN TREES ST,WASHINGTON,IN,47501-1564",2.0,0.0,0.0,38.65775451,-87.17674097,1,1
8,"1000 W JEFFERSON ST,FRANKLIN,IN,46131-2124",0.0,0.0,0.3333333333333333,39.47985743,-86.06939505,1,1
9,"10008 DUPONT CIRCLE CT,FORT WAYNE,IN,46825-1604",0.4,0.0,0.6000000000000001,41.17409519,-85.11256486,1,1
10,"1001 STURDY RD STE 101,VALPARAISO,IN,46383-4126",0.9190170940170941,0.0,0.0,41.4595307,-87.03658558,1,1
11,"1001 W 10TH ST RM 3101,INDIANAPOLIS,IN,46202-2859",24.64548872180449,1.040909090909091,13.19285714285715,39.78086041,-86.17641547,1,1
12,"1002 N MITTHOEFFER RD STE B,INDIANAPOLIS,IN,46229-2461",1.5,0.0,0.0,39.78261093,-85.99038887,1,1
13,"1002 S ESTHER ST,SOUTH BEND,IN,46615-1440",0.9190170940170941,0.0,0.0,41.6641941,-86.22313262,1,1
14,"1003 W MCGALLIARD RD,MUNCIE,IN,47303-1768",4.0,0.0,0.0,40.21893249,-85.39759349,1,1
15,"1004 OAK DR,RICHMOND,IN,47374-1916",0.0,0.0,1.7499999999999998,39.84693651,-84.88820216,1,1
16,"1005 E LASALLE AVE,SOUTH BEND,IN,46617-2818",3.9166666666666665,2.5,0.0,41.67924349,-86.23649169,1,1
17,"1005 E LEWIS AND CLARK PKWY,CLARKSVILLE,IN,47129-2201",1.0,0.0,0.0,38.31745517,-85.75605553,1,1
18,"1007 LINCOLNWAY,LA PORTE,IN,46350-3201",0.3333333333333333,0.0,0.0,41.6206161,-86.70078199999998,1,1
19,"101 8TH ST,PRINCETON,IN,47670-1109",1.0,0.0,0.0,38.355615500000006,-87.58195652,1,1
20,"101 CHARLES ST,LOOGOOTEE,IN,47553-2221",1.0,0.0,0.0,38.67412447,-86.91385049,1,1
21,"101 E 10TH ST,GREENSBURG,IN,47240-8202",3.0,0.0,0.0,39.353117499999996,-85.48399316,1,1
22,"101 N MISHAWAKA ST,AKRON,IN,46910-9263",1.0,0.0,0.0,41.03888797,-86.02824323,1,1
23,"101 N STATE ST,GREENFIELD,IN,46140-2177",2.0,0.0,0.0,39.78620924,-85.76931774,1,1
24,"10100 E US HIGHWAY 36,AVON,IN,46123-7566",1.0,0.0,0.0,39.76373947,-86.34367188,1,1
25,"10100 LANTERN RD,FISHERS,IN,46037-9651",1.0,0.0,0.0,39.935088,-86.01378782,1,1
26,"1011 MICHIGAN AVE,LAPORTE,IN,46350-3584",0.3333333333333333,0.0,0.0,41.60857128,-86.71891921,1,1
27,"1012 MILL POND DR STE A,GREENCASTLE,IN,46135-2601",1.3333333333333333,0.0,0.0,39.64092982,-86.83947961,1,1
28,"1014 MADISON ST,ROCHESTER,IN,46975-1830",1.0,0.0,0.0,41.06332906,-86.21468771,1,1
29,"1015 S A ST,RICHMOND,IN,47374-5523",1.0,0.0,0.0,39.82722054,-84.88823399,1,1
30,"1016 E TIPTON ST,SEYMOUR,IN,47274-3528",0.7539682539682538,0.2,0.0,38.95806117,-85.87524066,1,1
31,"1019 W EADS PKWY,LAWRENCEBURG,IN,47025-1162",1.0308913308913308,0.0,0.0,39.08286964,-84.88176273,1,1
32,"102 N CLARK ST,AUBURN,IN,46706-3602",1.0,0.0,0.0,41.36771686,-85.04139338,1,1
33,"1021 W 5TH AVE,GARY,IN,46402-1703",2.5600580423161072,0.08333333333333333,0.29444444444444445,41.60192649,-87.3503505,1,1
34,"103 FARABEE DR N STE B,LAFAYETTE,IN,47905-5915",3.894444444444445,0.0,0.0,40.4181,-86.85210693,1,1
35,"1030 WASHINGTON AVE,EVANSVILLE,IN,47714-1844",1.0,0.0,0.0,37.96281951,-87.54620366,1,1
36,"1033 E WASHINGTON ST,INDIANAPOLIS,IN,46202-3952",0.5296786994367638,0.0,0.06666666666666668,39.76691448,-86.13944991,1,1
37,"104 E CULVER RD STE 106,KNOX,IN,46534-2241",0.7190170940170939,0.0,0.0,41.28798055,-86.62120749,1,1
38,"1040 PATRICK PL STE A,BROWNSBURG,IN,46112-2432",0.0,0.0,0.8928571428571428,39.85504196,-86.3864998,1,1
39,"10409 E WASHINGTON ST,INDIANAPOLIS,IN,46229-2633",2.9356671554252203,0.0,0.0,39.77522557,-85.98254887,1,1
40,"10425 COMMERCE DR STE 130,CARMEL,IN,46032-7643",1.5,0.0,0.0,39.93818022,-86.23236406,1,1
41,"10439 E US HIGHWAY 36,AVON,IN,46123-7989",5.25529562636948,0.0,0.3333333333333333,39.76368153,-86.33763352,1,1
42,"10445 N COLLEGE AVE,INDIANAPOLIS,IN,46280-1436",1.0,0.0,0.0,39.93925461,-86.14591416,1,1
43,"105 S RACEWAY RD STE 140,INDIANAPOLIS,IN,46231-1415",0.3333333333333333,0.25,0.0,39.76176578,-86.32680727,1,1
44,"1055 ENGEL DR,RICHMOND,IN,47374-1239",2.0,0.0,0.0,39.86163452,-84.88760433,1,1
45,"106 E GREEN ST,BUTLER,IN,46721-1126",0.5,0.0,0.0,41.43063449,-84.87048124,1,1
46,"106 LAKEVIEW DR,NOBLESVILLE,IN,46060-1307",0.0,2.0,0.0,40.04738004,-86.02405418,1,1
47,"106 N RIDGE RD,MUNCIE,IN,47304-3739",1.0,0.0,0.0,40.19403204,-85.42833355,1,1
48,"106 S MAIN ST,FORTVILLE,IN,46040-1511",0.5,0.0,0.0,39.93308539,-85.84897781,1,1
49,"10701 ALLIANCE DR STE F,CAMBY,IN,46113-8837",0.8333333333333333,0.0,0.0,39.63795087,-86.33209595,1,1
50,"108 N OAK ST,CRAWFORDSVILLE,IN,47933-1950",0.0,1.0,0.0,40.04252974,-86.88669706,1,1
51,"10801 N MICHIGAN RD STE 201,ZIONSVILLE,IN,46077-8171",0.2,0.0,0.6428571428571428,39.9441161,-86.23836849,1,1
52,"10801 N MICHIGAN RD STE 210,ZIONSVILLE,IN,46077-8171",0.25555555555555554,0.0,0.25,39.9441161,-86.23836849,1,1
53,"10820 PENDLETON PIKE STE B,INDIANAPOLIS,IN,46236-2952",0.14285714285714285,0.09090909090909093,0.0,39.86124958,-85.97522516,1,1
54,"109 S JEFFERSON ST,ROCKVILLE,IN,47872-1717",0.16666666666666666,0.0,0.0,39.762126,-87.22764775,1,1
55,"10935 E WASHINGTON ST STE A,INDIANAPOLIS,IN,46229-3182",1.5,0.0,0.0,39.77572048,-85.97190146,1,1
56,"10967 ALLISONVILLE RD STE 200,FISHERS,IN,46038-2634",0.25,0.0,0.0,39.94559703,-86.04481385,1,1
57,"10972 ALLISONVILLE RD STE 100,FISHERS,IN,46038-2639",0.0,0.0,3.0,39.94589132,-86.04484976,1,1
58,"11 HOWARD ST,SHELBYVILLE,IN,46176-2616",1.0,0.0,0.0,39.51724753,-85.77569283,1,1
59,"11 SKYVIEW DR,CHESTERFIELD,IN,46017-1057",1.0,0.0,0.0,40.1138472,-85.60930835,1,1
60,"110 MILES RIDGE RD,MADISON,IN,47250-2410",1.0,0.0,0.0,38.77088154,-85.38652311,1,1
61,"110 N BALDWIN AVE,MARION,IN,46952-3536",3.0,0.0,0.0,40.56118339,-85.67575434,1,1
62,"110 N NAPPANEE ST,ELKHART,IN,46514-1956",1.5833333333333337,0.0,0.0,41.686398,-86.00337422,1,1
63,"110 W NORTH ST,PORTLAND,IN,47371-1170",2.0,0.0,0.0,40.43826944,-84.97898069,1,1
64,"1100 N MAIN ST STE 101,AUBURN,IN,46706-1240",3.0,0.0,0.0,41.37565199,-85.05484895,1,1
65,"11043 BROADWAY STE A,CROWN POINT,IN,46307-8834",2.2,0.0,0.0,41.41754983,-87.33537683,1,1
66,"1107 N STATE ST,GREENFIELD,IN,46140-1207",0.1360805860805861,0.0,0.0,39.79806319,-85.76964479,1,1
67,"1107 OHIO ST,TERRE HAUTE,IN,47807-3817",0.0,1.0,0.0,39.46543049,-87.40016099,1,1
68,"110B N AVON AVE,AVON,IN,46123-8475",0.0,0.0,1.0,39.76416125,-86.39973884,1,1
69,"1111 RONALD REAGAN PKWY STE 11078,AVON,IN,46123-7085",0.08333333333333333,0.0,0.0,39.77851932,-86.34350625,1,1
70,"1112 US HIGHWAY 41 STE 202,SCHERERVILLE,IN,46375-1361",1.0,0.0,0.0,41.50183832,-87.47115152,1,1
71,"11135 PENDLETON PIKE STE 900,INDIANAPOLIS,IN,46236-2872",1.25,0.16666666666666666,0.0,39.86377215,-85.97001170000001,1,1
72,"1115 PEARL ST,ANDERSON,IN,46016-1752",0.047619047619047616,0.0,0.0,40.10495249,-85.67439983,1,1
73,"1116 S COLLEGE MALL RD,BLOOMINGTON,IN,47401-6178",0.0,0.0,0.3333333333333333,39.15376155,-86.49772885,1,1
74,"112 IRONWORKS AVE # B1,MISHAWAKA,IN,46544-2057",2.583333333333333,0.0,0.0,41.66411747,-86.18246112,1,1
75,"112 N SHIP ST,PORTLAND,IN,47371-1844",1.0,0.0,0.0,40.43406588,-84.98045855,1,1
76,"1121 W MICHIGAN ST # DS307B,INDIANAPOLIS,IN,46202-5211",28.812155388471155,1.040909090909091,16.659523809523815,39.77464152,-86.18061126,1,1
77,"113 E DELAWARE ST,CAMBRIDGE CITY,IN,47327-1332",1.0,0.0,0.0,39.81710046,-85.16713088,1,1
78,"113 N CHESTNUT ST,SEYMOUR,IN,47274-2176",1.3373015873015872,0.0,0.0,38.95876448,-85.89029362,1,1
79,"1130 E PRINCETON AVE,MUNCIE,IN,47303-2092",4.9297979797979785,0.0,0.0,40.22402531,-85.37292019,1,1
80,"1131 MEDICAL PL,SEYMOUR,IN,47274-2639",1.0,0.0,0.0,38.9571135,-85.87271266,1,1
81,"1133 N MAIN ST,BLUFFTON,IN,46714-1324",1.0,0.0,0.0,40.758676799999996,-85.16568527,1,1
82,"114 4TH ST # 264,TIPTON,IN,46072-1851",1.0,0.0,0.0,40.28130025,-86.05000851,1,1
83,"115 E MAIN ST,WORTHINGTON,IN,47471-1602",1.0,0.0,0.0,39.11876948,-86.97726947,1,1
84,"115 W 4TH ST,MONON,IN,47959",1.0,0.0,0.0,40.86273254,-86.88004132,1,1
85,"11530 ALLISONVILLE RD STE 175,FISHERS,IN,46038-1865",0.5909090909090909,0.0,0.0,39.9527306,-86.041623,1,1
86,"116 E 2ND ST,WILLIAMSPORT,IN,47993-1149",1.0,0.0,0.0,40.28871092,-87.29265928,1,1
87,"116 E DUSTMAN RD,BLUFFTON,IN,46714-1269",0.3333333333333333,0.0,0.0,40.75695954,-85.16458349,1,1
88,"116 W 3RD ST,MISHAWAKA,IN,46544-2024",0.0,0.0,1.0,41.66012452,-86.18142091,1,1
89,"1160 E LEWIS AND CLARK PKWY,CLARKSVILLE,IN,47129-7735",3.0541674398872543,0.0,0.06666666666666668,38.31794145,-85.75469269,1,1
90,"11683 FOX RD,INDIANAPOLIS,IN,46236-8423",1.2,0.0,0.0,39.90232260000001,-85.9584897,1,1
91,"117 S NAPPANEE ST,ELKHART,IN,46514-1955",0.0,0.0,1.0,41.68499358,-86.00343926,1,1
92,"117 W WASHINGTON ST,SHELBYVILLE,IN,46176-1245",2.0,0.0,0.0,39.52439754,-85.77989172,1,1
93,"11700 N MERIDIAN ST STE K106,CARMEL,IN,46032-4656",0.08333333333333333,0.0,0.0,39.95841105,-86.15870891,1,1
94,"11710 PROSPECT ST,INDIANAPOLIS,IN,46239-9613",0.5,0.0,0.0,39.75553046,-85.95757327,1,1
95,"118 E SOUTH ST,TIPTON,IN,46072-2040",3.0,0.0,0.0,40.2775935,-86.04027402,1,1
96,"118 S GREEN ST,GREENTOWN,IN,46936-1411",1.0,0.0,0.0,40.47729311,-85.96792443,1,1
97,"1184 E CANVASBACK DR # 120,TERRE HAUTE,IN,47802-5302",1.0,0.0,0.0,39.39869575,-87.39887872,1,1
98,"11876 OLIO RD,FISHERS,IN,46037-9765",0.7,0.0,0.0,39.96195323,-85.91868828,1,1
99,"1190 W MAIN ST STE 100,VEVAY,IN,47043-3664",1.5,0.0,0.0,38.7348445,-85.09020317,1,1
100,"11920 PENDLETON PIKE,INDIANAPOLIS,IN,46236-9734",2.0,0.0,0.0,39.87301681,-85.95524647,1,1
101,"12 S 4TH ST,VINCENNES,IN,47591-1207",1.0,0.0,0.0,38.67799447,-87.53130466,1,1
102,"120 E BRIDGE ST,BROWNSTOWN,IN,47220-1521",1.0,0.0,0.0,38.88071723,-86.0399691,1,1
103,"120 S MEMORIAL DR STE F,NEW CASTLE,IN,47362-4991",2.083333333333333,0.0,0.0,39.9297964,-85.38155434,1,1
104,"120 SAINT LOUIS AVE,SEYMOUR,IN,47274-2304",0.25,0.0,0.0,38.95842111,-85.88972658,1,1
105,"1200 S WOODLAND AVE STE B,MICHIGAN CITY,IN,46360-7389",1.0,0.0,0.0,41.69430858,-86.87437668,1,1
106,"1200 W MCKAY RD,SHELBYVILLE,IN,46176-3292",0.09761904761904762,0.0,0.0,39.50467049,-85.79388069,1,1
107,"1202 N MAIN ST,AUBURN,IN,46706-1232",2.0,0.0,0.0,41.37600168,-85.05475806,1,1
108,"1206 N 1000 W STE A,LINTON,IN,47441-5294",0.0,1.0,0.0,39.04173852,-87.12913434,1,1
109,"121 W WASHINGTON ST,ALEXANDRIA,IN,46001-1809",0.1360805860805861,0.0,0.0,40.26262554,-85.67525249,1,1
110,"1210 MEDICAL ARTS BLVD STE 300,ANDERSON,IN,46011-3439",0.1360805860805861,0.0,0.0,40.12996774,-85.69313099,1,1
111,"1212 LINCOLN AVE,EVANSVILLE,IN,47714-1047",1.0,0.0,0.0,37.97002749,-87.54290999,1,1
112,"1216 W EADS PKWY,LAWRENCEBURG,IN,47025-1165",4.0458333333333325,0.0,0.16666666666666666,39.07885905,-84.88688814,1,1
113,"12188A N MERIDIAN ST STE 365,CARMEL,IN,46032-4407",0.0,0.5,0.0,39.96621889,-86.15843842,1,1
114,"122 LEE BLVD,SHELBYVILLE,IN,46176-3403",1.0,0.0,0.0,39.5267551,-85.73968689,1,1
115,"122 W WASHINGTON BLVD,FORT WAYNE,IN,46802-3019",1.0,0.0,0.0,41.07713336,-85.13995628,1,1
116,"1225 OHIO ST,TERRE HAUTE,IN,47807-3923",0.8333333333333333,0.0,0.0,39.46542151,-87.39830266,1,1
117,"1229 LINCOLN ST,ANDERSON,IN,46016-1693",0.1360805860805861,0.0,0.0,40.10377161,-85.68486899999998,1,1
118,"123 E 113TH AVE,CROWN POINT,IN,46307-9706",1.1761904761904762,0.0,0.0,41.41286548,-87.33513149,1,1
119,"123 N MCCREARY ST,FORT BRANCH,IN,47648-1313",2.0,0.0,0.0,38.24823474,-87.57994795,1,1
120,"1234 E DUPONT RD STE 4,FORT WAYNE,IN,46825-1545",2.0,0.0,0.0,41.17832173,-85.12646711,1,1
121,"124 E INDIANA AVE,BLOOMFIELD,IN,47424-1045",2.0,0.0,0.0,39.02785448,-86.93679175,1,1
122,"124 E US HIGHWAY 30,SCHERERVILLE,IN,46375-2117",1.0,0.0,0.0,41.48504641,-87.44802384,1,1
123,"124 N INDIANA ST,MOORESVILLE,IN,46158-1503",0.0,1.0,0.0,39.6145533,-86.37493619,1,1
124,"1240 VETERANS PKWY STE 100,CLARKSVILLE,IN,47129-2394",0.953968253968254,0.0,0.0,38.32834284,-85.76045395,1,1
125,"125 E MAIN ST,NORTH MANCHESTER,IN,46962-1822",1.0,0.0,0.0,40.99901149,-85.76938308,1,1
126,"125 N SHORTRIDGE RD,INDIANAPOLIS,IN,46219-4908",0.0,0.0,2.0,39.775086,-86.04055425,1,1
127,"125 S STEWART ST,BREMEN,IN,46506-1829",1.0,0.0,0.0,41.44575544,-86.15869015,1,1
128,"125 W BROADWAY ST,SHELBYVILLE,IN,46176-1201",0.5,0.0,0.0,39.52290752,-85.77990369,1,1
129,"127 S CAPITOL AVE,CORYDON,IN,47112-1103",1.0,0.0,0.0,38.20960803,-86.12642594,1,1
130,"128 LAKEVIEW DR,NOBLESVILLE,IN,46060-1307",1.3333333333333333,0.0,0.0,40.048299,-86.02404663,1,1
131,"1283 HILLVIEW DR,CORYDON,IN,47112-2226",0.0,0.0,0.5,38.22034063,-86.14220573,1,1
132,"1285 HILLVIEW DR,CORYDON,IN,47112-2226",1.0,0.0,0.0,38.22035158,-86.1423012,1,1
133,"1299 HUSKY TRL,WARSAW,IN,46582-1956",1.5833333333333337,0.0,0.0,41.2534969,-85.82344656,1,1
134,"1300 N OLD HIGHWAY 135,CORYDON,IN,47112-2022",1.0,0.0,0.0,38.21970124,-86.1273932,1,1
135,"1302 PEARL ST,COVINGTON,IN,47932-9760",1.0,0.0,0.0,40.14210754,-87.38183322,1,1
136,"1313 W CHICAGO AVE,EAST CHICAGO,IN,46312-3316",0.9190170940170941,0.0,0.0,41.62907147,-87.48883324,1,1
137,"1315 N ARLINGTON AVE,INDIANAPOLIS,IN,46219-3278",0.047619047619047616,0.0,0.0,39.78633594,-86.06429772,1,1
138,"1316 DUNCAN AVE,JEFFERSONVILLE,IN,47130-3723",1.0,0.0,0.0,38.28373951,-85.75018823,1,1
139,"1316 MILL ST,CRAWFORDSVILLE,IN,47933-3644",2.0,0.0,0.0,40.0264144,-86.88981323,1,1
140,"1319 DUNCAN AVE,JEFFERSONVILLE,IN,47130-3759",1.0,0.0,0.0,38.28370648,-85.7502557,1,1
141,"1320 BROADWAY,GARY,IN,46407-1309",0.9761904761904762,0.0,0.0,41.58911206,-87.33703023,1,1
142,"1324 TIPPECANOE ST,LAFAYETTE,IN,47904-2051",1.2261904761904758,0.0,0.0,40.42675349,-86.88280024,1,1
143,"1329 N IRONWOOD DR,SOUTH BEND,IN,46615",1.0,0.0,0.0,41.69327989,-86.21642003,1,1
144,"1330 E STATE BLVD,FORT WAYNE,IN,46805-4422",1.2,0.0,0.0,41.09673254,-85.12126141,1,1
145,"1331 W BOONVILLE NEW HARMONY RD,EVANSVILLE,IN,47725-9583",1.0,0.0,0.0,38.09955439,-87.58005896,1,1
146,"1332 119TH ST,WHITING,IN,46394-1631",1.3333333333333333,0.0,0.0,41.67929551,-87.49637966,1,1
147,"1339 MADISON AVE,INDIANAPOLIS,IN,46225-1606",1.0,0.0,0.0,39.74943683,-86.15409829,1,1
148,"13432 MCKINLEY HWY,MISHAWAKA,IN,46545-7447",1.0,0.0,0.0,41.68064252,-86.12749902,1,1
149,"135 N SHORTRIDGE RD STE A1,INDIANAPOLIS,IN,46219-8905",0.2,0.0,0.0,39.775275,-86.04055674,1,1
150,"135 N SHORTRIDGE RD STE B5,INDIANAPOLIS,IN,46219-8905",1.0,0.0,0.0,39.775275,-86.04055674,1,1
151,"13590 N MERIDIAN ST STE 202,CARMEL,IN,46032-1555",0.0,0.5,0.0,39.98567678,-86.14220812,1,1
152,"13590B N MERIDIAN ST STE 101,CARMEL,IN,46032-1409",0.6666666666666666,0.0,0.0,39.98594059,-86.14173790000002,1,1
153,"1360 E 4TH ST,ROCHESTER,IN,46975-9103",1.0,0.0,0.0,41.07218546,-86.19394083,1,1
154,"1375 S LEBANON ST STE 200,LEBANON,IN,46052-2951",1.5245421245421245,0.0,0.0,40.0357097,-86.47052522,1,1
155,"13955 MORSE ST,CEDAR LAKE,IN,46303-9639",0.5,0.0,0.0,41.36429683,-87.42152734,1,1
156,"1400 HUDSON ST,ELKHART,IN,46516-2023",3.0,0.5,0.0,41.67851160000001,-85.98900896,1,1
157,"1405 MEDICAL PARK DR,FORT WAYNE,IN,46825-5889",1.0,0.0,0.0,41.12398349,-85.12229294,1,1
158,"141 N SHORTRIDGE RD STE B5,INDIANAPOLIS,IN,46219-8907",1.6666666666666663,0.0,0.0,39.775617,-86.04055576,1,1
159,"1410 SPRING ST,JEFFERSONVILLE,IN,47130-3731",0.5,0.0,0.0,38.28468876,-85.74863028,1,1
160,"1411 N CHESTNUT ST,HUNTINGBURG,IN,47542-9341",1.0,0.0,0.0,38.30981366,-86.96076545,1,1
161,"1411 S GREEN ST STE 200,BROWNSBURG,IN,46112-2048",1.0,0.3333333333333333,0.0,39.82315422,-86.40102671,1,1
162,"1413 W VOTAW ST,PORTLAND,IN,47371-9501",1.0,0.0,0.0,40.43906953,-85.00107294,1,1
163,"1417 BAKER PL,BLUFFTON,IN,46714-1180",1.5,0.0,0.0,40.76307,-85.16548424,1,1
164,"1417 MARKET ST,CHARLESTOWN,IN,47111-1838",1.0,0.0,0.0,38.45970268,-85.67010844,1,1
165,"1422 LINCOLN WAY E,SOUTH BEND,IN,46613-3250",2.0,0.0,0.0,41.65925513,-86.22682825,1,1
166,"1429 CHESTER BLVD STE A,RICHMOND,IN,47374-1919",3.403069561157797,0.0,0.0,39.84760763,-84.88887821,1,1
167,"1429 CHESTER BLVD STE B,RICHMOND,IN,47374-1919",4.472222222222221,0.0,0.0,39.84760763,-84.88887821,1,1
168,"1431 S WOODLAND AVE,MICHIGAN CITY,IN,46360-7122",1.3333333333333333,0.2,0.6666666666666666,41.68952069,-86.8745088,1,1
169,"1433 E WABASH ST,FRANKFORT,IN,46041-2742",1.282117882117882,0.0,0.0,40.27892548,-86.49534369,1,1
170,"14331 E JACKSON ST,PARKER CITY,IN,47368-9401",1.5,0.0,0.0,40.19307051,-85.21851191,1,1
171,"1434 SHELBY ST,INDIANAPOLIS,IN,46203-1945",0.4609126984126983,0.0,0.0,39.747789000000004,-86.13982824,1,1
172,"1445 W HOOSIER BLVD STE 103,PERU,IN,46970-3727",1.0833333333333333,0.0,0.0,40.66652022,-86.13590578,1,1
173,"1445 W HOOSIER BLVD,PERU,IN,46970-3727",2.174242424242424,0.0,0.0,40.66652022,-86.13590578,1,1
174,"1452 E 85TH AVE,MERRILLVILLE,IN,46410-8905",1.0,0.0,0.0,41.46330147,-87.31817999,1,1
175,"14555 HAZEL DELL PKWY STE 100,CARMEL,IN,46033-7234",0.4761904761904762,1.4575757575757575,0.0,39.99948300000001,-86.07040616,1,1
176,"1463 W WESTRIDGE PKWY STE A,GREENSBURG,IN,47240-3252",0.5,0.0,0.0,39.35404095,-85.50479935,1,1
177,"1463 W WESTRIDGE PKWY STE B,GREENSBURG,IN,47240-3252",0.0,0.0,0.5333333333333333,39.35404095,-85.50479935,1,1
178,"1495 POPE CT,CHESTERTON,IN,46304-5301",0.0625,1.3333333333333333,0.0,41.59839734,-87.05113585,1,1
179,"1499 WINDHORST WAY STE 100,GREENWOOD,IN,46143-8800",9.970353302611368,0.0,0.0,39.61659546,-86.07591628,1,1
180,"15026 GREYHOUND CT,CARMEL,IN,46032-1015",1.0,0.0,0.0,40.0063138,-86.12831786,1,1
181,"1503 OHIO ST,TERRE HAUTE,IN,47807-4009",1.0,0.0,0.0,39.46543449,-87.39281305,1,1
182,"1504 DENTAL DR,BEDFORD,IN,47421-3574",0.5,0.0,0.0,38.86196408,-86.51193773,1,1
183,"1505 E SOUTHPORT RD,INDIANAPOLIS,IN,46227-5303",1.0,0.0,0.0,39.66484554,-86.13213291,1,1
184,"1506 CHESTER BLVD,RICHMOND,IN,47374-1915",1.0,0.0,0.0,39.84931272,-84.88893881,1,1
185,"1516 LAFAYETTE AVE,TERRE HAUTE,IN,47804-1336",1.0,0.0,0.0,39.50026666,-87.39205493,1,1
186,"1516 LYNCH LN STE A,CLARKSVILLE,IN,47129-2297",0.10555555555555557,0.0,0.0,38.31531566,-85.76779029999999,1,1
187,"1516 LYNCH LN STE C,CLARKSVILLE,IN,47129-2297",1.0,0.0,0.0,38.31531566,-85.76779029999999,1,1
188,"1518 MAIN ST,ELWOOD,IN,46036-2021",0.16666666666666666,0.0,0.0,40.27698951,-85.84095069,1,1
189,"1518 S 3RD ST,TERRE HAUTE,IN,47802-1012",2.0,0.0,0.0,39.450483,-87.41372539,1,1
190,"1518 WASHINGTON ST,NEW CASTLE,IN,47362-4355",1.0,0.0,0.0,39.93919009,-85.36617799,1,1
191,"1520 WASHINGTON ST,NEW CASTLE,IN,47362-4355",0.0,0.0,0.5333333333333333,39.93918946,-85.36615212,1,1
192,"1521 ROCKFORD CT,KOKOMO,IN,46902-3207",2.0,0.0,0.0,40.45416947,-86.15221132,1,1
193,"1522 W MORRIS ST,INDIANAPOLIS,IN,46221-1629",2.253571428571429,0.14285714285714285,0.1111111111111111,39.75125946,-86.18813099,1,1
194,"1530 N 7TH ST STE 201,TERRE HAUTE,IN,47807-1061",0.16666666666666666,0.0,0.0,39.48439469,-87.40721709,1,1
195,"1535 PROSPECT ST,INDIANAPOLIS,IN,46203-2053",0.7261904761904762,0.0,0.0,39.75236148,-86.13260099,1,1
196,"1537 S SCATTERFIELD RD STE A,ANDERSON,IN,46016-5783",2.177020202020202,0.0,0.0,40.10075961,-85.65268640000002,1,1
197,"1540 CONNER ST,NOBLESVILLE,IN,46060-2914",1.0,0.0,0.0,40.04567752,-86.00596199,1,1
198,"1545 J ST,BEDFORD,IN,47421-3839",2.5,0.0,0.0,38.86113633,-86.48418628,1,1
199,"1547 OHIO AVE,ANDERSON,IN,46016-1917",2.698924731182796,0.0,0.25,40.10012033,-85.6694563,1,1
200,"1552 E WABASH ST STE A,FRANKFORT,IN,46041-2783",1.0,0.0,0.0,40.27897948,-86.49440099,1,1
201,"1555 N CLINE AVE,GRIFFITH,IN,46319-1567",1.0,0.0,0.0,41.55017058,-87.43241772,1,1
202,"15626 SPRING MILL RD,WESTFIELD,IN,46074-9671",1.0,0.0,0.0,40.01461496,-86.16493934,1,1
203,"157 MEADOW DR,DANVILLE,IN,46122-1413",1.0,0.0,0.0,39.76244111,-86.49957729,1,1
204,"1570 W HOSPITAL RD,PAOLI,IN,47454-9666",1.0,0.0,0.0,38.56279881,-86.48564606,1,1
205,"160 HOLIDAY PL,FRANKLIN,IN,46131-2622",1.6666666666666663,0.0,0.0,39.48255925,-86.01642842,1,1
206,"1600 ROOSEVELT RD OFC,VALPARAISO,IN,46383-3738",0.7190170940170939,0.0,0.0,41.481072,-87.04652381,1,1
207,"1600 W BLOOMFIELD RD STE C,BLOOMINGTON,IN,47403-2053",1.5333333333333332,0.0,0.0,39.15684053,-86.56025519,1,1
208,"16000 PROSPERITY DR STE 400,NOBLESVILLE,IN,46060-4322",1.3333333333333333,0.0,0.0,40.02146833,-85.99901059,1,1
209,"1601 MEDICAL ARTS BLVD STE 301,ANDERSON,IN,46011-3460",0.0,0.0,1.5833333333333333,40.13093446,-85.69581738,1,1
210,"1602 W 3RD ST STE A,BLOOMINGTON,IN,47404-5079",2.333333333333333,0.0,0.0,39.16442247,-86.55358105,1,1
211,"1602 W JACKSON ST,MUNCIE,IN,47303-4962",0.0,0.0,1.0,40.1930535,-85.40484299,1,1
212,"16050 ALLISONVILLE RD,NOBLESVILLE,IN,46060-3817",1.0,0.0,0.0,40.02828182,-86.01204638,1,1
213,"1608 W YALE AVE,MUNCIE,IN,47304-1569",1.0,0.0,0.0,40.22457749,-85.40548199,1,1
214,"1610 N LEBANON ST,LEBANON,IN,46052-1514",1.0,0.0,0.0,40.06093233,-86.47167989,1,1
215,"1612 E 53RD ST,ANDERSON,IN,46013-2826",0.3333333333333333,0.0,0.0,40.06188347,-85.65940269,1,1
216,"1612 N BALDWIN AVE STE A,MARION,IN,46952-1457",0.5,0.0,0.25,40.58185483,-85.66494672,1,1
217,"1618 25TH ST,BEDFORD,IN,47421-5000",0.5,0.0,0.0,38.85175923,-86.49428147,1,1
218,"1620 SAINT JOE RIVER DR,FORT WAYNE,IN,46805-1434",1.0,0.0,0.0,41.10920671,-85.11788648,1,1
219,"1630 45TH ST STE 104,MUNSTER,IN,46321-3959",1.0,0.0,0.0,41.53764453,-87.48922338,1,1
220,"1630 POPLAR ST,TERRE HAUTE,IN,47807-4559",0.0,0.0,1.0,39.46290147,-87.39094033,1,1
221,"1630 W SMITH VALLEY RD,GREENWOOD,IN,46142-1550",0.0,0.0,2.1666666666666665,39.60601342,-86.15538742,1,1
222,"1633 N CAPITOL AVE STE 236,INDIANAPOLIS,IN,46202-1262",1.182142857142857,0.14285714285714285,0.1111111111111111,39.78953036,-86.16139627,1,1
223,"1633 N CAPITOL AVE STE 500,INDIANAPOLIS,IN,46202-1453",0.7142857142857142,0.0,0.0,39.78953036,-86.16139627,1,1
224,"1637 PORTAGE AVE SOUTH BEND FAMILY DENTISTRY,SOUTH BEND,IN,46616",0.5,0.0,0.0,41.68472,-86.26158999,1,1
225,"1639 N CASS ST,WABASH,IN,46992-9404",2.5476190476190474,0.0,0.0,40.82009029,-85.84261956,1,1
226,"1640 EAST STATE RD STE B,SHELBYVILLE,IN,46176",0.1360805860805861,0.0,0.0,39.5206898,-85.77905509,1,1
227,"1642 OLIVE BRANCH PARKE LN STE 700,GREENWOOD,IN,46143-5900",1.605357142857143,0.0,0.1,39.59414927,-86.16047816,1,1
228,"1649 S 6TH ST,TERRE HAUTE,IN,47802-1608",1.0,0.0,0.0,39.44854766,-87.40988758,1,1
229,"165 W UNIVERSITY DR,MISHAWAKA,IN,46545-1199",1.3333333333333333,0.0,0.0,41.72020719,-86.17877239,1,1
230,"1650 N COLLEGE AVE STE B,INDIANAPOLIS,IN,46202-1715",0.1380952380952381,0.0,0.0,39.79017947,-86.14479725,1,1
231,"16597 STATE ROAD 23,SOUTH BEND,IN,46635-1461",1.0,0.0,0.0,41.71899768,-86.19409573,1,1
232,"1669 E MAIN ST,DANVILLE,IN,46122-9468",1.0,0.0,0.0,39.76151848,-86.49372149,1,1
233,"168 E NEW RD,GREENFIELD,IN,46140-9085",5.458823529411764,0.0,0.0,39.81410449,-85.76894508,1,1
234,"1690 N MAIN ST,HUNTINGBURG,IN,47542-8973",1.0,0.0,0.0,38.31110564,-86.95535214,1,1
235,"1690 S OHIO ST,MARTINSVILLE,IN,46151-3317",2.0,0.5,0.3333333333333333,39.41110714,-86.42339656,1,1
236,"17 S DIVISION ST,FLORA,IN,46929-1335",1.25,0.0,0.0,40.54729478,-86.52295965,1,1
237,"1700 N ILLINOIS ST,INDIANAPOLIS,IN,46202-1316",0.3201548899129544,0.0,0.0,39.78974582,-86.15909622,1,1
238,"1700 W SMITH VALLEY RD STE C2,GREENWOOD,IN,46142-1589",0.5333333333333333,0.0,0.0,39.60593943,-86.15802183,1,1
239,"1701 SENATE BLVD RM 1204A,INDIANAPOLIS,IN,46202-1239",0.08333333333333333,0.0,0.0,39.78957764,-86.16553472,1,1
240,"1701 SENATE BLVD,INDIANAPOLIS,IN,46202-1239",0.08333333333333333,0.0,0.0,39.78957764,-86.16553472,1,1
241,"17021 CLOVER RD STE 101,NOBLESVILLE,IN,46060-3622",1.0,0.0,0.0,40.03686909,-85.99789848,1,1
242,"1713 E 10TH ST STE A,JEFFERSONVILLE,IN,47130-7100",1.0,0.0,0.0,38.30204872,-85.72467081,1,1
243,"1716 HARTFORD ST,LAFAYETTE,IN,47904-2173",1.2261904761904758,0.0,0.0,40.42804746,-86.87762116,1,1
244,"1717 S CALHOUN ST,FORT WAYNE,IN,46802-5257",2.333333333333333,0.0,0.0,41.06988903,-85.13820458,1,1
245,"1738 165TH ST,HAMMOND,IN,46320-2821",3.486226318484383,0.0,0.0,41.59567249,-87.48625347,1,1
246,"1739 MICHIGAN RD,MADISON,IN,47250-2721",1.0,0.0,0.0,38.75976,-85.38738570000002,1,1
247,"17455 DOUGLAS RD STE 1,SOUTH BEND,IN,46635-1732",1.0,0.0,0.0,41.70917448,-86.20766036,1,1
248,"175 W US HIGHWAY 20 STE 8,CHESTERTON,IN,46304-1309",0.8428571428571429,0.0,0.0,41.63064984,-87.06989909999999,1,1
249,"175-8 E US HIGHWAY 20,CHESTERTON,IN,46304-9501",0.3333333333333333,0.0,0.0,41.63730267,-87.03405195,1,1
250,"1754 N ARLINGTON AVE,INDIANAPOLIS,IN,46218-5126",0.5,0.0,0.0,39.79151983,-86.06437576,1,1
251,"17746 SUN PARK DR,WESTFIELD,IN,46074-9536",1.4944444444444445,0.0,0.0,40.04519997,-86.13906179,1,1
252,"1792 E STATE ROAD 163,CLINTON,IN,47842-7327",1.0,0.0,0.0,39.65759244,-87.431188,1,1
253,"18 E WASHINGTON ST,GREENCASTLE,IN,46135-1545",2.0,0.0,0.0,39.64395846,-86.86429273,1,1
254,"1800 FORT HARRISON RD,TERRE HAUTE,IN,47804-1413",3.6608516931097577,0.1944444444444444,0.4055555555555556,39.50677176,-87.38854962,1,1
255,"1801 N SENATE BLVD,INDIANAPOLIS,IN,46202",0.08333333333333333,0.0,0.0,39.79052075,-86.16521116,1,1
256,"1804 W MCGALLIARD RD,MUNCIE,IN,47304-2209",0.5833333333333333,0.0,0.0,40.21894249,-85.40760149,1,1
257,"1806 W MCGALLIARD RD,MUNCIE,IN,47304-2209",0.0,0.0,0.16666666666666666,40.21894249,-85.40791199,1,1
258,"1810 LAFAYETTE RD,CRAWFORDSVILLE,IN,47933-1035",0.16666666666666666,0.0,0.0,40.06765236,-86.90770635,1,1
259,"1811 DOGWOOD DR,KOKOMO,IN,46902-5738",1.0,0.0,0.0,40.46491883,-86.11795762,1,1
260,"1813 STATE ST STE 200,NEW ALBANY,IN,47150-5966",0.0,0.0,1.0,38.29959711,-85.83418274,1,1
261,"1815 N GREENSBURG XING,GREENSBURG,IN,47240-8587",0.6499999999999999,0.0,0.0,39.35470649,-85.48426998,1,1
262,"1818 N RILEY HWY STE B,SHELBYVILLE,IN,46176-8572",0.0,0.2,0.0,39.54919439,-85.77550641,1,1
263,"1821 CHASE RD,LOGANSPORT,IN,46947-1200",1.0,0.0,0.0,40.77076453,-86.34590991,1,1
264,"1827 N MADISON AVE,ANDERSON,IN,46011-2166",0.0,1.0,0.0,40.13264171,-85.69159329,1,1
265,"1828 E STATE ROAD 44 STE 300,SHELBYVILLE,IN,46176-5508",0.5,0.0,0.0,39.52167844,-85.74731464,1,1
266,"1836 W MAIN ST,RICHMOND,IN,47374-3822",0.7,0.0,0.0,39.8292545,-84.92865291,1,1
267,"1852 BLUFFTON RD,FORT WAYNE,IN,46809-1306",5.487042169300233,0.28535353535353536,0.4944444444444445,41.05073334,-85.16215412,1,1
268,"1852 FIELDS BLVD STE A,GREENFIELD,IN,46140-4006",1.0,0.0,0.0,39.81175166,-85.77352676,1,1
269,"1852 FIELDS BLVD STE B,GREENFIELD,IN,46140-4006",1.0,0.0,0.0,39.81175166,-85.77352676,1,1
270,"186 PROFESSIONAL CT,HEBRON,IN,46341-8948",0.0,0.0,0.5,41.33385647,-87.20113049,1,1
271,"1900 W 4TH ST,MOUNT VERNON,IN,47620-9407",1.0,0.0,0.0,37.92856459,-87.92252673,1,1
272,"1901 GRANT ST,GARY,IN,46404-2761",1.0,0.0,0.0,41.58404111,-87.35624424,1,1
273,"1901 W WESTERN AVE STE B,SOUTH BEND,IN,46619-3570",3.337301587301587,0.0,0.0,41.67216552,-86.27831379999998,1,1
274,"191 US HIGHWAY 31 S STE A,GREENWOOD,IN,46142-3582",0.25,0.0,0.0,39.61376329,-86.11582744,1,1
275,"191 W GORDON PIKE,BLOOMINGTON,IN,47403-4518",1.5,0.0,0.0,39.12142254,-86.53183158,1,1
276,"1910 SAINT JOE CENTER RD STE 21,FORT WAYNE,IN,46825-5000",1.0,0.0,0.0,41.132292799999995,-85.11385711,1,1
277,"1910 VIRGINIA AVE,CONNERSVILLE,IN,47331-2834",1.0,0.0,0.0,39.65566432,-85.13192677,1,1
278,"1911 S HEATON ST,KNOX,IN,46534",1.0,0.0,0.0,41.27916299,-86.62071936,1,1
279,"1923 CHESTER BLVD,RICHMOND,IN,47374-1212",4.083333333333333,0.08333333333333333,0.0,39.85828641,-84.88864976,1,1
280,"1927 BROAD RIPPLE AVE,INDIANAPOLIS,IN,46220-2327",1.5,0.0,0.0,39.86860853,-86.12721352,1,1
281,"1934 45TH AVE,MUNSTER,IN,46321-3917",0.5333333333333333,0.0,0.0,41.53756065,-87.48220047,1,1
282,"195 E BROAD ST,LYONS,IN,47443-9502",1.0,0.0,0.0,38.98895053,-87.08033347,1,1
283,"1960 NORTHSIDE BLVD,SOUTH BEND,IN,46615-1630",0.5940170940170939,0.0,0.0,41.66219287,-86.2182871,1,1
284,"1970 W BOULEVARD,KOKOMO,IN,46902-6078",0.0,0.0,1.0,40.4618005,-86.15972187,1,1
285,"2 EXECUTIVE DR,LAFAYETTE,IN,47905-4878",2.510353535353536,0.0,0.0,40.41811851,-86.84380581,1,1
286,"200 CONRAD HARCOURT WAY,RUSHVILLE,IN,46173-1100",3.0,0.0,0.0,39.62324149,-85.44323291,1,1
287,"200 E MCGALLIARD RD,MUNCIE,IN,47303-2009",0.8666666666666667,0.0,0.0,40.21904547,-85.38554258,1,1
288,"200 KINGSTON DR,WEST LAFAYETTE,IN,47906-2482",1.3590409590409591,0.0,0.0,40.43659455,-86.90543143,1,1
289,"200 MEDICAL DR STE A,CARMEL,IN,46032-2985",1.25,0.0,0.0,39.95886126,-86.1220355,1,1
290,"2001 E BROADWAY,LOGANSPORT,IN,46947-2048",3.736601307189544,0.0,0.0,40.75785475,-86.34327521,1,1
291,"2001 S TIGER DR,YORKTOWN,IN,47396-9385",0.43333333333333335,0.0,0.0,40.1754209,-85.49291764,1,1
292,"2001 W WASHINGTON ST STE B2,INDIANAPOLIS,IN,46222-4549",2.4,0.1111111111111111,1.0,39.76633958,-86.19554794,1,1
293,"2004 EDISON RD STE B,SOUTH BEND,IN,46617-1712",1.0,0.0,0.0,41.69446053,-86.21838055,1,1
294,"2005 ROOSEVELT RD STE B,VALPARAISO,IN,46383-2746",2.395833333333333,0.2,0.6666666666666666,41.487129,-87.04659921,1,1
295,"2005 SAINT CHARLES ST STE 2,JASPER,IN,47546-2271",0.0,0.0,1.3333333333333333,38.40654546,-86.95195497,1,1
296,"2005 SAINT CHARLES ST STE 5,JASPER,IN,47546-2271",1.0,0.0,0.0,38.40654546,-86.95195497,1,1
297,"2007 MEMORIAL AVE,WASHINGTON,IN,47501-3127",1.0,0.0,0.0,38.65868046,-87.15153149,1,1
298,"2008 W SYCAMORE ST,KOKOMO,IN,46901-4112",0.5,0.0,0.9166666666666664,40.48734642,-86.15708207,1,1
299,"201 N ILLINOIS ST STE 1770,INDIANAPOLIS,IN,46204-4212",3.583333333333333,0.0,0.0,39.77029755,-86.1597473,1,1
300,"201 W ACADEMY ST,BLOOMINGDALE,IN,47832-8095",0.16666666666666666,0.0,0.0,39.83072547,-87.25341626,1,1
301,"2016 W MCGALLIARD RD,MUNCIE,IN,47304-2148",1.0,0.0,0.0,40.21895052,-85.41064324,1,1
302,"2017 S WESTERN AVE,MARION,IN,46953-2824",4.313034188034187,0.0,0.0,40.54213794,-85.67365589,1,1
303,"202 N MAIN ST,LYNN,IN,47355",1.0,0.0,0.0,40.049307,-84.94003986,1,1
304,"202 N STATE ST,SOUTH WHITLEY,IN,46787-1388",2.0,0.0,0.0,41.08638532,-85.62788757,1,1
305,"2020 UNION ST STE 200,LAFAYETTE,IN,47904-2694",1.0,0.0,2.2,40.424769500000004,-86.87346299,1,1
306,"203 E MAIN ST,RICHMOND,IN,47374-4208",0.3333333333333333,0.0,0.0,39.82906452,-84.89850299,1,1
307,"2038 BROADWAY ST,ANDERSON,IN,46012-1603",1.0,0.0,0.0,40.13536332,-85.67767563,1,1
308,"2038 LINCOLN AVE,EVANSVILLE,IN,47714-1561",3.1428571428571432,0.0,0.0,37.96994052,-87.52752997,1,1
309,"2040 N SHADELAND AVE STE 300,INDIANAPOLIS,IN,46219-1712",0.1360805860805861,0.0,0.0,39.795372,-86.04553828,1,1
310,"205 E JACKSON BLVD,ELKHART,IN,46516",0.5,0.0,0.0,41.68796505,-85.97127279,1,1
311,"206 S MERIDIAN ST,JASONVILLE,IN,47438-1520",3.583333333333333,0.0,0.0,39.16180334,-87.19886804,1,1
312,"2060 N SHADELAND AVE,INDIANAPOLIS,IN,46219-1762",1.25,0.0,0.0,39.796002,-86.04567923,1,1
313,"2060 SAGAMORE PKWY W STE A,W LAFAYETTE,IN,47906-1421",1.3590409590409591,0.0,0.0,40.45162979999999,-86.89370677,1,1
314,"2086 OLD HIGHWAY 135 NW STE 1,CORYDON,IN,47112-4015",0.0,0.2,0.0,38.23196165,-86.13083793,1,1
315,"2086 OLD HIGHWAY 135 NW,CORYDON,IN,47112-4014",1.953968253968254,0.2,0.0,38.23196165,-86.13083793,1,1
316,"210 N SECTION ST,SULLIVAN,IN,47882-1237",2.0,0.0,0.0,39.09797986,-87.40957791,1,1
317,"210 W 7TH ST,CONNERSVILLE,IN,47331-1508",1.0,0.0,0.0,39.64412312,-85.13957045,1,1
318,"210 W WHITLEY ST,CHURUBUSCO,IN,46723-1720",1.0,0.0,0.0,41.2299119,-85.3208753,1,1
319,"2101 E COLISEUM BLVD,FORT WAYNE,IN,46805-1445",1.0,0.0,0.0,41.11405567,-85.11409407,1,1
320,"2102 W 2ND ST,MARION,IN,46952-3252",0.5,0.0,0.0,40.55982446,-85.68991327,1,1
321,"211 E 4TH ST,MICHIGAN CITY,IN,46360-3351",0.0,1.0,0.0,41.71881105,-86.90053365,1,1
322,"211 N SAINT PETER ST,SOUTH BEND,IN,46617-2823",1.0,0.0,0.0,41.67837549,-86.23991074,1,1
323,"2116 STATE ST,WASHINGTON,IN,47501-8543",0.25,0.0,0.0,38.65477632,-87.15022425,1,1
324,"212 HANCOCK ST,MILLTOWN,IN,47145-2660",1.0,0.0,0.0,38.34161668,-86.27732158,1,1
325,"2121 E DUPONT RD,FORT WAYNE,IN,46825",2.0,0.0,0.0,41.17874747,-85.11451199,1,1
326,"2122 E CENTER ST,WARSAW,IN,46580-3704",0.4,0.0,0.6000000000000001,41.23797752,-85.82810416,1,1
327,"2127 16TH ST,BEDFORD,IN,47421-3003",2.0,0.0,0.0,38.86108248,-86.50283399,1,1
328,"2128 MOUNDS RD,ANDERSON,IN,46016-5713",3.2855166462364607,0.0,0.0,40.09246992,-85.65340658,1,1
329,"213 N 16TH ST,ELWOOD,IN,46036-1769",2.3,0.0,0.0,40.27826686,-85.84012503,1,1
330,"213 WOODLAND PL,PITTSBORO,IN,46167-9073",0.9083333333333332,0.0,0.0,39.86775867,-86.46155624,1,1
331,"214 E MCCLAIN AVE,SCOTTSBURG,IN,47170-1824",1.0,0.0,0.0,38.68581051,-85.76768129999998,1,1
332,"215 E WASHINGTON ST,FAIRMOUNT,IN,46928-1747",0.5,0.0,0.0,40.41570648,-85.6487148,1,1
333,"2155 COMMERCE DR,BLUFFTON,IN,46714-9292",0.5,0.0,0.0,40.77411211,-85.16320724,1,1
334,"2158 INTELLIPLEX DR STE 114,SHELBYVILLE,IN,46176-8549",1.0,0.0,0.0,39.557115,-85.78070737,1,1
335,"216 E 15TH ST,WINAMAC,IN,46996-1148",1.0,0.0,0.0,41.05980448,-86.6045118,1,1
336,"2166 E MAIN ST,DANVILLE,IN,46122-9082",0.3333333333333333,0.0,0.0,39.76171151,-86.48221436,1,1
337,"21781 OMEGA CT,GOSHEN,IN,46528-7809",0.0,1.0,0.0,41.66280198,-85.88446508,1,1
338,"2179 N MORTON ST STE A,FRANKLIN,IN,46131-7035",2.6666666666666665,0.0,0.0,39.50404909,-86.06895802,1,1
339,"2186 N HOSPITAL BLVD STE 1,SULLIVAN,IN,47882-7654",3.0,0.0,0.0,39.11388,-87.38611099,1,1
340,"219 E 17TH ST,BLOOMINGTON,IN,47408-1731",1.0,0.0,0.0,39.17899448,-86.53128299,1,1
341,"219 E CROSS ST,BROWNSTOWN,IN,47220-2012",1.0,0.0,0.0,38.87745136,-86.04011025,1,1
342,"22 VINE ST,HUNTINGTON,IN,46750-1409",3.0,0.0,0.0,40.89105941,-85.50307144,1,1
343,"220 W 3RD ST,MADISON,IN,47250-3339",2.0,0.0,0.0,38.73782345,-85.38197788,1,1
344,"2204 S PARK AVE,ALEXANDRIA,IN,46001-8059",2.333333333333333,0.0,0.0,40.240029799999995,-85.66932361,1,1
345,"2204 SCOTT ST,LAFAYETTE,IN,47904-2933",1.0,0.0,1.0,40.41712966,-86.86970999,1,1
346,"2206 STATE ST STE 100,NEW ALBANY,IN,47150-4925",0.14285714285714285,0.0,0.0,38.30550654,-85.84010007,1,1
347,"2220 W MCGALLIARD RD,MUNCIE,IN,47304-2188",0.0,1.0,0.0,40.21896748,-85.41212399,1,1
348,"2224 LAFAYETTE AVE,TERRE HAUTE,IN,47805-2916",1.0,0.0,0.0,39.51160357,-87.38320905,1,1
349,"2229 W VIRGINIA ST,EVANSVILLE,IN,47712-5214",1.0,0.0,0.0,37.98244048,-87.59869114,1,1
350,"223 S COURT ST,CROWN POINT,IN,46307-3951",2.0,0.0,0.0,41.41530852,-87.36556765,1,1
351,"223 W 10TH ST STE 110,FERDINAND,IN,47532-9016",1.0,0.0,0.0,38.22468976,-86.86308687,1,1
352,"2235 S 825 E,AVILLA,IN,46710-9735",1.0,0.0,0.0,41.31793801,-85.26432512,1,1
353,"2236 N MITTHOEFFER RD,INDIANAPOLIS,IN,46229-1791",2.583333333333333,0.0,0.0,39.79979169,-85.99064672,1,1
354,"2248 E 53RD ST,INDIANAPOLIS,IN,46220-3479",6.1890623713204365,0.28535353535353536,0.29444444444444445,39.84939239,-86.12327015,1,1
355,"225 FAIRVIEW BLVD,KENDALLVILLE,IN,46755-2988",2.0,0.0,0.0,41.44748277,-85.24644821,1,1
356,"225 N NOTRE DAME AVE STE 3,SOUTH BEND,IN,46617-2836",0.5,0.0,0.0,41.67869388,-86.23842078,1,1
357,"228 S VAN RENSSELAER ST,RENSSELAER,IN,47978-2817",1.0,0.0,0.0,40.9343893,-87.15051447,1,1
358,"2291 N MERIDIAN ST,INDIANAPOLIS,IN,46208-5727",3.083333333333333,0.0,0.0,39.798934,-86.15700761,1,1
359,"230 E WHITLEY ST,CHURUBUSCO,IN,46723-1506",2.0,0.0,0.0,41.23119125,-85.31779009,1,1
360,"230 S MAIN ST,KENDALLVILLE,IN,46755-1718",2.0,0.0,0.0,41.44171241,-85.26527777,1,1
361,"2301 E 3RD ST,BLOOMINGTON,IN,47401-5320",1.0,0.0,0.0,39.16429551,-86.50586249,1,1
362,"2302 S DIXON RD STE 125,KOKOMO,IN,46902-6429",2.4686868686868686,0.0,0.0,40.45953768,-86.16505625,1,1
363,"231 S 2ND ST,ORLEANS,IN,47452-1601",1.5,0.0,0.0,38.66124964,-86.45416989,1,1
364,"2316 SOUTH ST,LAFAYETTE,IN,47904-2971",0.25,0.0,0.0,40.41751261,-86.87106973,1,1
365,"2320 NORTHPARK DR STE B,COLUMBUS,IN,47203-4482",2.0,0.0,0.0,39.23115338,-85.89744697,1,1
366,"2320 NORTHPARK DR STE C,COLUMBUS,IN,47203-4482",1.0,0.0,0.0,39.23115338,-85.89744697,1,1
367,"2325 GREEN VALLEY RD STE 1,NEW ALBANY,IN,47150-4600",0.1111111111111111,0.2,0.0,38.30956225,-85.83652555,1,1
368,"2330 E 116TH ST,CARMEL,IN,46032",1.4686868686868686,0.0,0.0,39.95671646,-86.11633151,1,1
369,"2332 MIRACLE LN,MISHAWAKA,IN,46545-3012",2.0,0.0,0.0,41.68283955,-86.19576198,1,1
370,"2333 W LINCOLN RD,KOKOMO,IN,46902-8012",4.833333333333333,0.0,0.0,40.4546225,-86.16330152,1,1
371,"2340 E 10TH ST,INDIANAPOLIS,IN,46201-2008",1.3646825396825395,0.14285714285714285,0.0,39.78134252,-86.12162999,1,1
372,"2347 CASON ST,LAFAYETTE,IN,47904-2670",0.0,2.5,0.0,40.42066658,-86.87022292,1,1
373,"2350 S DIXON RD STE 425,KOKOMO,IN,46902-6422",1.0,0.3333333333333333,0.0,40.45903429,-86.16506045,1,1
374,"236 SIMPSON AVE,ELKHART,IN,46516-4666",9.2,0.0,0.0,41.69010594,-85.94642618,1,1
375,"23603 JEB DR,LAWRENCEBURG,IN,47025-9651",1.0,0.0,0.0,39.21330737,-84.846699,1,1
376,"2362 W BOULEVARD STE A,KOKOMO,IN,46902-6084",3.41025641025641,0.0,0.0,40.46178348,-86.16189239,1,1
377,"2370 E 37TH AVE,LAKE STATION,IN,46405-2802",0.3333333333333333,0.0,0.0,41.5513465,-87.30766055,1,1
378,"2380 MERCHANT MILE,COLUMBUS,IN,47201-1557",1.4761904761904765,0.0,0.0,39.19791274,-85.95091255,1,1
379,"2401 E BROADWAY,LOGANSPORT,IN,46947-2056",1.0,0.0,0.0,40.75889869,-86.33734815,1,1
380,"2401 W UNIVERSITY AVE,MUNCIE,IN,47303-3428",0.08333333333333333,0.0,0.0,40.19758053,-85.41489133,1,1
381,"2409 FAIROAK DR,FORT WAYNE,IN,46809-2301",1.0,0.0,0.0,41.02230752,-85.17033327,1,1
382,"2441 N MORTON ST,FRANKLIN,IN,46131-9703",0.16666666666666666,0.0,0.0,39.50779389,-86.07038785,1,1
383,"2441 STATE ST STE 1,NEW ALBANY,IN,47150-4962",1.5308913308913308,0.0,0.0,38.30963255,-85.84450191,1,1
384,"2444 GETZ RD,FORT WAYNE,IN,46804-1632",1.0,0.0,0.0,41.06260774,-85.21938846,1,1
385,"245 N STATE ROAD 135,TRAFALGAR,IN,46181-8663",2.0,0.0,0.0,39.41936418,-86.15808561,1,1
386,"2459 W JONATHAN MOORE PIKE,COLUMBUS,IN,47201-9206",1.1428571428571428,0.0,0.0,39.20042248,-85.95284377,1,1
387,"2464 W LINCOLN HWY,MERRILLVILLE,IN,46410-5245",1.0,0.0,0.0,41.47123926,-87.36852388,1,1
388,"250 S WASHINGTON ST,HOBART,IN,46342-4151",0.4,0.0,0.0,41.53292983,-87.26811918,1,1
389,"2505 N ARLINGTON AVE,INDIANAPOLIS,IN,46218-3318",0.7074564772145415,0.0,0.0,39.80388569,-86.06443473,1,1
390,"2510 HULMAN ST,TERRE HAUTE,IN,47803-3853",1.0,0.0,0.0,39.44843045,-87.37797086,1,1
391,"2526 CENTRAL AVE,COLUMBUS,IN,47201-3121",1.3590409590409591,0.0,0.0,39.22437603,-85.90417597,1,1
392,"2528 WALTON BLVD,WARSAW,IN,46582-6522",0.25,0.0,0.0,41.27131113,-85.85384948,1,1
393,"253 W MAIN ST,MONROVIA,IN,46157-9567",2.25,0.0,0.0,39.57884048,-86.48314199,1,1
394,"2536 CHARLESTOWN RD,NEW ALBANY,IN,47150-2560",1.0,0.0,0.0,38.3107181,-85.80707170000002,1,1
395,"2536 E 10TH ST,INDIANAPOLIS,IN,46201-2155",0.5666666666666667,0.0,0.0,39.78134752,-86.11829099,1,1
396,"2549 PRAIRIE ST,ELKHART,IN,46517-2193",2.7,0.0,0.0,41.66123602,-85.96540231,1,1
397,"2598 W WHITE RIVER BLVD,MUNCIE,IN,47303-5251",0.08333333333333333,0.0,0.0,40.18635608,-85.41672658,1,1
398,"2614 SMILE LN,BEDFORD,IN,47421-3573",0.0,0.0,1.2,38.86018749,-86.50690722,1,1
399,"2623 W JACKSON ST,MUNCIE,IN,47303-4634",0.5,0.0,0.0,40.19295654,-85.41767055,1,1
400,"2625 45TH ST,HIGHLAND,IN,46322-2902",2.142857142857143,0.0,0.0,41.53753147,-87.46519113,1,1
401,"2628 E JEFFERSON BLVD,SOUTH BEND,IN,46615-2724",1.0,0.0,0.0,41.67285749,-86.21007299,1,1
402,"2628 WESTERN AVE,CONNERSVILLE,IN,47331-1803",1.0,0.0,0.0,39.66743666,-85.1386268,1,1
403,"270 E DAY RD STE 260,MISHAWAKA,IN,46545-3464",0.0,0.0,1.0,41.69860149,-86.17912136,1,1
404,"2700 DR MARTIN LUTHER KING JR ST,INDIANAPOLIS,IN,46208-5019",0.7074564772145415,0.0,0.0,39.80612455,-86.17195399,1,1
405,"2704 45TH ST,HIGHLAND,IN,46322-2903",1.0,0.0,0.0,41.53748054,-87.46368227,1,1
406,"2705 S BERKLEY RD STE 2B,KOKOMO,IN,46902-8007",1.0,1.0,0.0,40.4542083,-86.15557809,1,1
407,"2714 ROCKFORD LN,KOKOMO,IN,46902-3204",1.0428571428571427,0.0,0.0,40.4538248,-86.15103999,1,1
408,"272 MEDICAL DR,CARMEL,IN,46032-2945",0.0,0.0,0.16666666666666666,39.95954237,-86.12021416,1,1
409,"2727 N HIGH SCHOOL RD,SPEEDWAY,IN,46224-2911",1.0,0.0,0.0,39.80519969,-86.26989426,1,1
410,"2732 W MICHIGAN ST,INDIANAPOLIS,IN,46222-3750",0.4609126984126983,0.0,0.0,39.7746015,-86.20580474,1,1
411,"27345 N STATE ST,WEST HARRISON,IN,47060-9671",1.0,0.0,0.0,39.26711719,-84.81975894,1,1
412,"2760 JEFFERSON CENTRE WAY STE 2,JEFFERSONVILLE,IN,47130-8266",1.0,0.0,0.0,38.32508476,-85.71039891,1,1
413,"2801 FAIRVIEW PL STE U,GREENWOOD,IN,46142-1339",2.0,0.0,0.0,39.62178619,-86.15796896,1,1
414,"2802 LAFAYETTE RD STE 33,INDIANAPOLIS,IN,46222-2112",3.5297619047619047,0.0,0.0,39.80624093,-86.2172819,1,1
415,"2825 S 7TH ST,TERRE HAUTE,IN,47802-3837",1.0,0.0,0.0,39.43582255,-87.40687656,1,1
416,"2828 E STATE BLVD,FORT WAYNE,IN,46805-4761",1.9020202020202024,0.0,0.0,41.09721454,-85.10246219,1,1
417,"2829 CHARLESTOWN RD,NEW ALBANY,IN,47150-1913",1.0,0.0,0.0,38.32978169,-85.79970872,1,1
418,"2833 LINCOLN ST STE 1,HIGHLAND,IN,46322-1957",0.0,1.0,0.0,41.55202946,-87.46092947,1,1
419,"2855 N KEYSTONE AVE STE 100,INDIANAPOLIS,IN,46218-2790",0.968253968253968,0.14285714285714285,0.0,39.808125,-86.12152723,1,1
420,"288 NORTHWOOD AVE,JASPER,IN,47546-1212",2.0,0.0,0.0,38.41538751,-86.93951695,1,1
421,"2890 W WHITE RIVER BLVD,MUNCIE,IN,47304-4532",2.2777777777777777,0.0,0.0,40.18568741,-85.42049392,1,1
422,"29 E MCCARTY ST STE 200,INDIANAPOLIS,IN,46225-3326",0.3333333333333333,0.0,0.0,39.75648653,-86.15778277,1,1
423,"290 A ST SE,LINTON,IN,47441-1844",1.0,0.0,0.0,39.03268648,-87.16346019,1,1
424,"2900 16TH ST,BEDFORD,IN,47421-3510",0.08333333333333333,0.0,0.0,38.86096247,-86.51168983,1,1
425,"2900 E MORGAN AVE,EVANSVILLE,IN,47711-4426",1.0,0.0,0.0,37.99151352,-87.51409042,1,1
426,"2911 E COVENANTER DR # B,BLOOMINGTON,IN,47401-6320",0.0,0.0,1.2,39.155300200000006,-86.49482925,1,1
427,"2915 LAFAYETTE RD,INDIANAPOLIS,IN,46222-2113",0.125,0.0,0.0,39.80783668,-86.21880999,1,1
428,"2917 E 10TH ST STE 105,JEFFERSONVILLE,IN,47130-6916",0.1111111111111111,0.2,0.0,38.32181321,-85.71355957,1,1
429,"2917 E 10TH ST,JEFFERSONVILLE,IN,47130-6916",1.0308913308913308,0.0,0.0,38.32181321,-85.71355957,1,1
430,"2918 S REED RD,KOKOMO,IN,46902-3991",1.3590409590409591,0.0,0.0,40.45308106,-86.11459951,1,1
431,"2940 E 38TH ST STE G,INDIANAPOLIS,IN,46218-1221",0.8428571428571429,0.0,0.0,39.82540741,-86.11415006,1,1
432,"2955 N HIGH SCHOOL RD,INDIANAPOLIS,IN,46224-2915",0.25,0.0,0.0,39.80883569,-86.26996719,1,1
433,"2955 PROFESSIONAL LN,TERRE HAUTE,IN,47802-3300",1.0,0.0,0.0,39.43433658,-87.38101558,1,1
434,"300 W 21ST AVE,GARY,IN,46407-2511",0.3333333333333333,0.0,0.0,41.58042046,-87.3403811,1,1
435,"3001 MERIDIAN MEADOWS RD,GREENWOOD,IN,46142-1011",1.0,0.0,0.0,39.63163279,-86.1584557,1,1
436,"3007 CHARLESTOWN XING STE 100,NEW ALBANY,IN,47150-9484",1.0,0.0,0.0,38.35051136,-85.79726706,1,1
437,"301 E BROADWAY ST,PRINCETON,IN,47670-1841",1.0,0.0,0.0,38.3551605,-87.56489303,1,1
438,"301 S COURT ST,CROWN POINT,IN,46307-3960",1.0,0.0,0.0,41.415048,-87.3655801,1,1
439,"301 W BRISTOL ST,ELKHART,IN,46514-3078",1.0,0.0,0.0,41.70257154,-85.98103199,1,1
440,"3012 N 1ST AVE,EVANSVILLE,IN,47710-3167",0.3333333333333333,0.0,0.0,38.00674819,-87.57436687,1,1
441,"302 E COURT AVE,JEFFERSONVILLE,IN,47130-3412",1.0,0.0,0.0,38.27547927,-85.73970899999998,1,1
442,"302 S INDIANA AVE,ENGLISH,IN,47118",1.0,0.0,0.0,38.35166366,-86.44330751,1,1
443,"3021 E 98TH ST STE 250,INDIANAPOLIS,IN,46280-2908",0.2,0.0,0.6428571428571428,39.93084266,-86.11083447,1,1
444,"303 S MAIN ST,BLUFFTON,IN,46714-2503",1.0,0.0,0.0,40.737491999999996,-85.17146773,1,1
445,"304 NORRIS AVE STE 1,NORTH VERNON,IN,47265-2343",4.2125,0.0,0.16666666666666666,38.99440808,-85.63044762,1,1
446,"304 NORRIS AVE,NORTH VERNON,IN,47265-2343",0.37916666666666665,0.0,0.16666666666666666,38.99414708,-85.6304481,1,1
447,"3041 E MAIN ST,RICHMOND,IN,47374-5924",1.0,0.0,0.0,39.83081552,-84.85883438,1,1
448,"305 PARKVIEW DR,NEW CASTLE,IN,47362-2946",1.0,0.0,0.0,39.91404053,-85.3838103,1,1
449,"306 E STATE ROUTE 68,HAUBSTADT,IN,47639-8200",1.0,0.0,0.0,38.20108685,-87.5713187,1,1
450,"306 N PRINCE ST,PRINCETON,IN,47670",1.0,0.0,0.0,38.35756732,-87.56618643,1,1
451,"306 S BALDWIN AVE,MARION,IN,46952-3528",1.0333333333333332,0.0,0.0,40.55865334,-85.67580937,1,1
452,"308 W 11TH ST,ALEXANDRIA,IN,46001-2806",0.047619047619047616,0.0,0.0,40.24863747,-85.67792099,1,1
453,"3099 CENTRAL AVE,LAKE STATION,IN,46405-2207",0.8500000000000001,0.0,0.0,41.57352687,-87.24656557,1,1
454,"3101 CENTRAL AVE,LAKE STATION,IN,46405-2209",1.0,0.0,0.0,41.57359984,-87.24623804,1,1
455,"3105 BLACKISTON MILL RD,NEW ALBANY,IN,47150-9536",0.0,0.0,1.0,38.33501787,-85.79604843,1,1
456,"311 KENTWOOD DR,FRANKFORT,IN,46041-2729",0.75,0.0,0.0,40.27818524,-86.48931647,1,1
457,"311 N BROADWAY ST,SEYMOUR,IN,47274-1709",1.0,0.0,0.0,38.96135606,-85.88688538,1,1
458,"3118 S LAFOUNTAIN ST,KOKOMO,IN,46902-3710",2.087301587301587,0.0,0.0,40.45071236,-86.12707453,1,1
459,"3120 BLACKISTON MILL RD,NEW ALBANY,IN,47150-9501",0.14285714285714285,0.0,1.0,38.33497485,-85.79702093,1,1
460,"314 N SAINT JOSEPH AVE,EVANSVILLE,IN,47712-5563",1.0,0.0,0.0,37.98131414,-87.60055678,1,1
461,"3146 N NATIONAL RD,COLUMBUS,IN,47201-3169",1.0,0.0,0.0,39.23028455,-85.90741567,1,1
462,"315 W WASHINGTON ST,MUNCIE,IN,47305-1634",1.0,0.0,0.0,40.1945355,-85.38943486,1,1
463,"3154 N NATIONAL RD,COLUMBUS,IN,47201-3170",0.5769230769230769,0.0,0.0,39.23029653,-85.90752622,1,1
464,"3158 N NATIONAL RD,COLUMBUS,IN,47201-3170",0.8269230769230769,0.0,0.0,39.23031455,-85.90777394,1,1
465,"317 W MARKET ST,BLUFFTON,IN,46714",0.3333333333333333,0.0,0.0,40.73983947,-85.17473099,1,1
466,"317 W MARKET ST,BLUFFTON,IN,46714-1936",0.6666666666666666,0.0,0.0,40.73983947,-85.17473099,1,1
467,"3185 N HIGH SCHOOL RD,INDIANAPOLIS,IN,46224-2003",1.0,0.0,0.0,39.81224686,-86.2700247,1,1
468,"319 W TEMPERANCE ST,ELLETTSVILLE,IN,47429-1534",1.0,0.0,0.0,39.23302765,-86.62373651,1,1
469,"3204 LANCER ST STE B,PORTAGE,IN,46368-4491",0.0,0.0,0.5,41.55907513,-87.18009718,1,1
470,"321 WABASH AVE,TERRE HAUTE,IN,47807-3213",0.0,0.0,0.16666666666666666,39.46646147,-87.41318374,1,1
471,"3220 N NATIONAL RD,COLUMBUS,IN,47201-3166",0.25,0.0,0.0,39.2317575,-85.92058743,1,1
472,"3225 NICHOL AVE,ANDERSON,IN,46011-3148",0.95,0.0,0.0,40.10145452,-85.72942366,1,1
473,"3229 BROADWAY STE 205,GARY,IN,46409-1038",0.3333333333333333,0.0,0.0,41.55902949,-87.33655482,1,1
474,"3240 MIDDLE DR,COLUMBUS,IN,47203-4426",1.0,0.0,0.0,39.23309941,-85.89689870000002,1,1
475,"325 N WALNUT ST STE A,SEYMOUR,IN,47274-2113",2.0,0.0,0.0,38.960462299999996,-85.89248251,1,1
476,"325 W 38TH ST,ANDERSON,IN,46013-4017",0.5106837606837606,0.0,0.0,40.07624006,-85.6848696,1,1
477,"3269 W 86TH ST STE A2,INDIANAPOLIS,IN,46268-3822",3.387500773220588,0.0,0.06666666666666668,39.91166047,-86.21637347,1,1
478,"3280 MIDDLE DR,COLUMBUS,IN,47203-4426",0.3333333333333333,0.0,0.0,39.23338537,-85.89691568,1,1
479,"3303 TRIER RD,FORT WAYNE,IN,46815-4768",2.333333333333333,0.0,1.25,41.11195646,-85.09863361,1,1
480,"331 E AMSLER RD,RENSSELAER,IN,47978-8591",2.0,0.0,0.0,40.96987053,-87.15058272,1,1
481,"3315 S 7TH ST,TERRE HAUTE,IN,47802-4014",0.3333333333333333,0.0,0.0,39.428622,-87.40685759,1,1
482,"3317 NICHOL AVE,ANDERSON,IN,46011-3001",1.0,0.0,0.0,40.10145752,-85.73087233,1,1
483,"332 DUNES PLZ,MICHIGAN CITY,IN,46360-7342",0.25,0.0,0.0,41.67868928,-86.89779642,1,1
484,"333 E TILLMAN RD,FORT WAYNE,IN,46816-1017",2.0,0.0,0.0,41.0171005,-85.13150152,1,1
485,"333 S MADISON ST,MUNCIE,IN,47305-2465",1.3333333333333333,0.0,0.0,40.19129131,-85.38182932,1,1
486,"3332 PORTAGE AVE,SOUTH BEND,IN,46628-3656",1.0,0.0,0.0,41.72083417,-86.28506159,1,1
487,"3350 E PAULDING RD,FORT WAYNE,IN,46816-4513",2.333333333333333,0.0,0.0,41.03247748,-85.09267214,1,1
488,"3353 S US HIGHWAY 41 UNIT 3369,TERRE HAUTE,IN,47802-3727",0.3333333333333333,0.0,0.0,39.42802891,-87.41531322,1,1
489,"3401 E RAYMOND ST,INDIANAPOLIS,IN,46203-4744",1.3646825396825395,0.14285714285714285,0.0,39.73781053,-86.10783283,1,1
490,"3401 S 7TH ST,TERRE HAUTE,IN,47802-4016",1.0,0.0,0.0,39.42837883,-87.40685759,1,1
491,"341 LOGAN ST STE 110,NOBLESVILLE,IN,46060-1572",1.0,0.0,0.0,40.04864707,-86.02260304,1,1
492,"3410 W 56TH ST,INDIANAPOLIS,IN,46228-1606",1.0,0.0,0.0,39.85358652,-86.21776366,1,1
493,"3415 S LAFOUNTAIN ST STE D,KOKOMO,IN,46902-3826",1.0,0.0,0.0,40.447691999999996,-86.12714709,1,1
494,"3415 S LAFOUNTAIN ST STE H,KOKOMO,IN,46902-3826",0.7,0.0,1.0,40.44769199,-86.12714709,1,1
495,"3430 W STATE ROAD 66,ROCKPORT,IN,47635-9259",2.0,0.0,0.0,37.90158044,-87.11733278,1,1
496,"3434 DOUGLAS RD,SOUTH BEND,IN,46635-1776",1.0,1.0,0.0,41.70920624,-86.19868478,1,1
497,"3443 W 86TH ST STE C,INDIANAPOLIS,IN,46268-1991",0.5686868686868687,0.0,0.0,39.91158081,-86.2190761,1,1
498,"35 S CREASY LN STE 3,LAFAYETTE,IN,47905-4873",2.333333333333333,0.0,0.0,40.41727524,-86.83892662,1,1
499,"3502 WASHINGTON AVE,EVANSVILLE,IN,47714-0537",1.0,0.0,0.0,37.96246448,-87.50758016,1,1
500,"3506 VILLAGE CT,GARY,IN,46408-1428",0.5,0.3333333333333333,0.0,41.55371655,-87.35667915,1,1
501,"351 S LINCOLN ST,BLOOMINGTON,IN,47401-2706",1.0,0.0,0.0,39.16296058,-86.53113606,1,1
502,"3511 W FOX RIDGE LN,MUNCIE,IN,47304-5206",1.0,0.0,0.0,40.22010755,-85.42831097,1,1
503,"3520 E 96TH ST,INDIANAPOLIS,IN,46240-3782",1.0,0.0,0.0,39.9269355,-86.10726052,1,1
504,"3554 PROMENADE PKWY,LAFAYETTE,IN,47909-8417",1.282117882117882,0.0,0.0,40.366269,-86.8627791,1,1
505,"3590 N BRIARWOOD LN,MUNCIE,IN,47304-5211",1.0,0.0,0.0,40.221612,-85.428278,1,1
506,"360 NEW ALBANY PLZ,NEW ALBANY,IN,47150-4654",3.5569452176650325,0.0,0.0,38.30654141,-85.83860866,1,1
507,"3611 BROADWAY,FORT WAYNE,IN,46807-1724",1.0,0.0,0.0,41.05180439,-85.15679743,1,1
508,"3611 W 16TH ST,INDIANAPOLIS,IN,46222-2501",0.5833333333333333,0.0,0.0,39.78765954,-86.22175097,1,1
509,"3616 ELM ST,EAST CHICAGO,IN,46312-2270",0.3333333333333333,0.0,0.0,41.64742788,-87.44807109999998,1,1
510,"3617 W STATE ROAD 46,BLOOMINGTON,IN,47404-9152",0.5,0.0,0.0,39.21003328,-86.58293451,1,1
511,"3628 N SHERMAN DR,INDIANAPOLIS,IN,46218-1436",1.0,0.0,0.0,39.82274983,-86.10274878,1,1
512,"3630 S 4TH ST,TERRE HAUTE,IN,47802-5543",0.41025641025641024,0.0,0.5333333333333333,39.42233019,-87.41276646,1,1
513,"3636 E 38TH ST,INDIANAPOLIS,IN,46218-1454",1.5833333333333333,0.0,0.0,39.82534943,-86.10447169,1,1
514,"3658 S EAST ST,INDIANAPOLIS,IN,46227-1239",6.598153280411347,0.28535353535353536,0.29444444444444445,39.71299546,-86.14905768,1,1
515,"370 MEDICAL DR STE E,CARMEL,IN,46032-2971",1.0,0.0,0.0,39.96075574,-86.12020687,1,1
516,"3700 N BRIARWOOD LN STE D,MUNCIE,IN,47304-6372",0.0,0.0,0.45,40.223015999999994,-85.42827448,1,1
517,"3700 WASHINGTON AVE,EVANSVILLE,IN,47714-0541",5.625,1.0,0.0,37.96242353,-87.50411999,1,1
518,"3701 S MAIN ST STE A150,ELKHART,IN,46517-3140",2.6632687205267853,0.28535353535353536,0.1944444444444444,41.64262542,-85.92864904,1,1
519,"3711 ROME DR STE A,LAFAYETTE,IN,47905-4426",3.111111111111111,0.0,0.0,40.42060047,-86.84104008,1,1
520,"3711 W 86TH ST,INDIANAPOLIS,IN,46268-1904",1.0,0.0,0.0,39.91154846,-86.22555299,1,1
521,"3725 ROME DR STE A,LAFAYETTE,IN,47905-4490",2.583333333333333,0.0,0.0,40.42058247,-86.84217152,1,1
522,"3737 N MERIDIAN ST STE 100,INDIANAPOLIS,IN,46208-4357",1.9523809523809523,1.2095238095238094,0.0,39.82356916,-86.15680467,1,1
523,"3737 N MERIDIAN ST STE 400,INDIANAPOLIS,IN,46208-4374",0.5,0.0,0.0,39.82335316,-86.1568082,1,1
524,"3739 CHARLESTOWN RD,NEW ALBANY,IN,47150-9576",0.5,0.0,0.0,38.33824684,-85.79993488,1,1
525,"3750 GUION RD STE 225,INDIANAPOLIS,IN,46222-7606",0.0,0.0,1.2,39.82231552,-86.22219166,1,1
526,"3750 N MERIDIAN ST STE 200,INDIANAPOLIS,IN,46208-4300",2.6666666666666665,0.0,0.0,39.82392883,-86.15687625,1,1
527,"3780 W JONATHAN MOORE PIKE STE 180,COLUMBUS,IN,47201-9430",0.3333333333333333,0.25,0.8333333333333333,39.20011644,-85.96524424,1,1
528,"3800 W INDUSTRIAL BLVD,BLOOMINGTON,IN,47403-5139",1.0,0.0,0.0,39.14368515,-86.58032666,1,1
529,"3808 N LAWNDALE AVE,INDIANAPOLIS,IN,46254-2814",1.1242424242424245,0.0,0.0,39.82400212,-86.26596714,1,1
530,"3810 W 86TH ST,INDIANAPOLIS,IN,46268-1905",0.07142857142857142,0.0,0.0,39.91170153,-86.22764036,1,1
531,"3815 RIVER CROSSING PKWY STE 100,INDIANAPOLIS,IN,46240-7766",3.552631578947368,0.0,0.0,39.91765339,-86.10138272,1,1
532,"3820 CENTRAL AVE,LAKE STATION,IN,46405-2324",1.0,0.0,0.0,41.57469949,-87.23710366,1,1
533,"3825 FAIRVIEW DR,ANDERSON,IN,46013-4059",0.0,0.0,0.3333333333333333,40.07509174,-85.68772892,1,1
534,"3837 N HIGH SCHOOL RD STE 12,INDIANAPOLIS,IN,46254-2700",0.6428571428571428,0.0,0.0,39.82557399,-86.27028676,1,1
535,"3838 N RURAL ST RM 646,INDIANAPOLIS,IN,46205-2930",5.666666666666666,0.0,0.0,39.82656474,-86.11678625,1,1
536,"3840 N SHERMAN DR,INDIANAPOLIS,IN,46226-4462",0.7074564772145415,0.0,0.0,39.82628649,-86.10275724,1,1
537,"3850 N POST RD STE B,INDIANAPOLIS,IN,46226-5514",0.5,0.0,0.0,39.82701596,-86.01005722,1,1
538,"3850 N POST RD,INDIANAPOLIS,IN,46226-5510",1.5,0.0,0.0,39.82701596,-86.01005722,1,1
539,"3901 MEADOWS DR,INDIANAPOLIS,IN,46205-3113",0.5249167946748591,0.0,0.0,39.82686698,-86.11471649,1,1
540,"3905 N WHEELING AVE,MUNCIE,IN,47304-1769",4.0,1.0,0.0,40.22490894,-85.40612171,1,1
541,"392 E 100 N,FLORA,IN,46929-9209",0.25,0.0,0.0,40.53976586,-86.50570788,1,1
542,"3945 EAGLE CREEK PKWY STE A,INDIANAPOLIS,IN,46254-4691",1.5,0.0,0.0,39.82534189,-86.28330579,1,1
543,"400 E DIAMOND AVE,EVANSVILLE,IN,47711-3714",4.671962804220868,0.4444444444444444,0.6277777777777778,37.99963772,-87.55842016,1,1
544,"400 KENTWOOD DR,FRANKFORT,IN,46041",1.0,0.0,0.0,40.27814978,-86.48939,1,1
545,"400 TEEGARDEN ST,LA PORTE,IN,46350-3175",1.3333333333333333,0.0,0.0,41.60912227,-86.72898815,1,1
546,"401 E 34TH ST,INDIANAPOLIS,IN,46205-3754",0.5,0.0,0.0,39.81756055,-86.15051138,1,1
547,"401 SE 6TH ST STE 208,EVANSVILLE,IN,47713-1216",1.0,0.0,0.0,37.9686364,-87.56573501,1,1
548,"401 WALL ST UNIT D,VALPARAISO,IN,46383-2585",0.0625,0.0,0.0,41.488704,-87.0561869,1,1
549,"4011 W JEFFERSON BLVD,FORT WAYNE,IN,46804-6853",0.4,0.0,0.6000000000000001,41.07138989,-85.19295707,1,1
550,"4017 W JACKSON ST,MUNCIE,IN,47304-3610",1.0,0.0,0.0,40.19442926,-85.43343413,1,1
551,"4020 W GOELLER BLVD STE A,COLUMBUS,IN,47201-8272",0.2,0.0,0.0,39.19808449,-85.96823332,1,1
552,"4022 HOHMAN AVE,HAMMOND,IN,46327-1239",0.3333333333333333,0.0,0.0,41.64033343,-87.51725065,1,1
553,"4024 ELKHART RD STE 15,GOSHEN,IN,46526-5803",1.4166666666666663,0.5,0.0,41.62239716,-85.90034568,1,1
554,"4030 S MERIDIAN ST STE A,INDIANAPOLIS,IN,46217-4091",1.0,0.0,0.0,39.706742,-86.1585053,1,1
555,"405 UNION ST,LAGRANGE,IN,46761-2234",1.0,0.0,0.0,41.64066903,-85.4188534,1,1
556,"408 E 86TH AVE,MERRILLVILLE,IN,46410",1.0,0.0,0.0,41.46250127,-87.33133528,1,1
557,"408 W MARKET ST,CRAWFORDSVILLE,IN,47933-1600",0.3333333333333333,0.0,0.0,40.04285152,-86.90651172,1,1
558,"409 N PERU ST,CICERO,IN,46034-9498",0.0,1.0,0.0,40.13694016,-86.01337655,1,1
559,"409 ROOSEVELT RD,WALKERTON,IN,46574-1215",1.0,0.0,0.0,41.46763624,-86.48432619,1,1
560,"409 S DUNN ST,BLOOMINGTON,IN,47401-4822",0.8928571428571428,0.0,0.0,39.16246452,-86.52838809,1,1
561,"410 WEST ST,MADISON,IN,47250-3302",0.0,0.0,0.5,38.73681,-85.3801863,1,1
562,"411 PLAZA DR STE G,COLUMBUS,IN,47201-2918",1.0,0.0,0.0,39.23070252,-85.92030913,1,1
563,"412 HALE RD,CLARKSVILLE,IN,47129-1422",0.0,1.0,0.0,38.30676883,-85.77835053,1,1
564,"4121 GATEWAY BLVD,NEWBURGH,IN,47630-8954",1.0,0.0,2.5,37.97397973,-87.44919475,1,1
565,"4130 E 10TH ST,INDIANAPOLIS,IN,46201-2613",2.0,0.0,0.0,39.78154137,-86.0973776,1,1
566,"4131 SHELBY ST,INDIANAPOLIS,IN,46227-3727",1.0,0.0,0.0,39.70573166,-86.13933628,1,1
567,"416 W CAMP ST,LEBANON,IN,46052-1799",1.2261904761904758,0.0,0.0,40.05748167,-86.47151987,1,1
568,"420 W 4TH ST,MISHAWAKA,IN,46544-1948",0.7190170940170939,0.0,0.0,41.65913446,-86.18527141,1,1
569,"4201 MANNHEIM RD STE E,JASPER,IN,47546-9617",1.0,0.0,0.0,38.42945005,-86.93815651,1,1
570,"4205 HOBSON CT,FORT WAYNE,IN,46815-8648",0.0,0.0,1.0,41.11734596,-85.09904942,1,1
571,"4217 E 3RD ST,BLOOMINGTON,IN,47401-5550",1.0,0.0,0.0,39.1642445,-86.47726049,1,1
572,"422 N BENTON ST,MILLERSBURG,IN,46543-9732",0.5,0.0,0.0,41.528106,-85.69326477,1,1
573,"423 WATERFALL DR,ELKHART,IN,46516-3660",0.2,0.0,0.0,41.68495771,-85.96287738,1,1
574,"4233 E 38TH ST,INDIANAPOLIS,IN,46218-1541",1.0,0.0,0.0,39.82537653,-86.09687155,1,1
575,"429 CONKEY ST,HAMMOND,IN,46324-1156",1.0,0.0,0.0,41.60131251,-87.51709349,1,1
576,"4302 E STATE BLVD,FORT WAYNE,IN,46815-6988",3.0,0.0,0.0,41.09777654,-85.08563291,1,1
577,"4315 COMMERCE DR STE 210,LAFAYETTE,IN,47905-3823",0.05263157894736842,0.0,0.0,40.4145565,-86.82463001,1,1
578,"4315 COMMERCE DR STE 310,LAFAYETTE,IN,47905-3824",2.9104909427490084,0.08333333333333333,0.1944444444444444,40.4145565,-86.82463001,1,1
579,"4318 W WASHINGTON ST,INDIANAPOLIS,IN,46241-0822",1.613095238095238,0.0,0.0,39.75709266,-86.23649007,1,1
580,"4341 FLAGSTAFF CV,FORT WAYNE,IN,46815-4400",2.333333333333333,0.0,0.0,41.1207698,-85.02672491,1,1
581,"435 VIRGINIA AVE UNIT 1800,INDIANAPOLIS,IN,46203-0016",0.3611111111111111,0.0,0.0,39.76034817,-86.14845331,1,1
582,"435 W COLISEUM BLVD,FORT WAYNE,IN,46805-1010",3.635964035964036,0.0,0.0,41.1179495,-85.14671341,1,1
583,"4350 N FRANKLIN RD,INDIANAPOLIS,IN,46226-4002",0.6666666666666666,0.0,0.3333333333333333,39.83660106,-86.02712671,1,1
584,"438 S EMERSON AVE STE 230,GREENWOOD,IN,46143-1948",0.75,0.0,0.0,39.610845,-86.08290616,1,1
585,"440 E HOSPITAL LN,TERRE HAUTE,IN,47802-4251",0.5333333333333333,0.0,0.0,39.42025151,-87.41156408,1,1
586,"4401 E 10TH ST,INDIANAPOLIS,IN,46201-2744",2.038857897431752,0.0,0.0,39.78136562,-86.09399429,1,1
587,"4420 E BRISTOL ST,ELKHART,IN,46514-6946",0.0,0.5,0.0,41.7045564,-85.90811538,1,1
588,"444 N FLYNN RD,WESTVILLE,IN,46391-9647",1.0,0.0,0.0,41.54467527,-86.89716737,1,1
589,"4456 N KEYSTONE AVE,INDIANAPOLIS,IN,46205-2251",0.14285714285714285,0.0,0.0,39.837816,-86.12200675,1,1
590,"450 E 96TH ST STE 500,INDIANAPOLIS,IN,46240-3760",9.028822055137844,0.0,0.0,39.92719349,-86.15024379,1,1
591,"4500 TOWN CENTER BLVD STE 102,JEFFERSONVILLE,IN,47130-7148",1.0,0.0,0.0,38.33205998,-85.74759777,1,1
592,"4512 PARNELL AVE,FORT WAYNE,IN,46825-5836",1.8103535353535352,0.0,0.0,41.11864631,-85.12580614,1,1
593,"4525 LAFAYETTE RD STE C,INDIANAPOLIS,IN,46254-2011",0.6666666666666666,0.0,0.0,39.83716737,-86.24759741,1,1
594,"4550 N COLLEGE AVE,INDIANAPOLIS,IN,46205-1936",0.25,0.0,0.0,39.83887744,-86.14522575,1,1
595,"457 S LANDMARK AVE,BLOOMINGTON,IN,47403-5004",1.0,0.0,0.0,39.16244483,-86.55596465,1,1
596,"4606 E STATE BLVD STE B,FORT WAYNE,IN,46815-6993",1.0,0.0,0.0,41.09793049,-85.08170891,1,1
597,"4606 E STATE BLVD STE D,FORT WAYNE,IN,46815-6963",0.2,0.2,0.6000000000000001,41.09514339,-85.08165459,1,1
598,"461 BIELBY RD,LAWRENCEBURG,IN,47025-1058",1.0,0.0,0.0,39.120912,-84.88257838,1,1
599,"4615 LAFAYETTE RD STE B,INDIANAPOLIS,IN,46254-2035",0.6666666666666666,0.0,0.0,39.83893306,-86.2492801,1,1
600,"4616 W JEFFERSON BLVD,FORT WAYNE,IN,46804-6826",1.0769230769230769,0.0,0.0,41.06742076,-85.19956736,1,1
601,"4625 S EMERSON AVE,INDIANAPOLIS,IN,46203-5972",0.5,0.0,0.0,39.69989036,-86.0823863,1,1
602,"4629 MELTON RD,GARY,IN,46403-2866",0.3333333333333333,0.0,0.0,41.5953145,-87.28052216,1,1
603,"4656 W JEFFERSON BLVD STE 220,FORT WAYNE,IN,46804-6833",1.0,0.0,0.0,41.06680770000001,-85.20052893,1,1
604,"470 BENNETT DR STE A,WARREN,IN,46792-9273",1.0,0.0,0.0,40.68925912,-85.42564633,1,1
605,"470 BENNETT DR STE C,WARREN,IN,46792-9273",1.0,0.0,0.0,40.68925912,-85.42564633,1,1
606,"4729 S SCATTERFIELD RD,ANDERSON,IN,46013-2907",1.3590409590409591,0.0,0.0,40.06687139,-85.6530046,1,1
607,"4740 W 38TH ST,INDIANAPOLIS,IN,46254-3318",0.8428571428571429,0.5,0.0,39.82407647,-86.23913149,1,1
608,"477 S LANDMARK AVE,BLOOMINGTON,IN,47403-5005",0.5,0.7,0.0,39.16267962,-86.55611471,1,1
609,"4800 W SMITH VALLEY RD STE K,GREENWOOD,IN,46142-9195",1.0,0.0,0.0,39.60532046,-86.19305336,1,1
610,"4801 PAOLI PIKE STE 102,FLOYDS KNOBS,IN,47119-9681",1.0,0.0,0.0,38.3351015,-85.89765373,1,1
611,"4809 N PENNSYLVANIA ST,INDIANAPOLIS,IN,46205-1743",1.0,0.0,0.0,39.84196541,-86.15461767,1,1
612,"4828 LINCOLN AVE,EVANSVILLE,IN,47715-4110",1.0,0.0,1.0,37.96954744,-87.49156063,1,1
613,"485 NOBLE CREEK DR,NOBLESVILLE,IN,46060-3108",1.0,0.0,0.0,40.04057591,-85.9974194,1,1
614,"4900 JULIAN AVE,INDIANAPOLIS,IN,46201-3755",0.1360805860805861,0.0,0.0,39.76909613,-86.08478799,1,1
615,"4921 STATE ROAD 26 E STE 100,LAFAYETTE,IN,47905-4616",1.1428571428571428,0.0,0.0,40.41751853,-86.81128939,1,1
616,"4930 LAFAYETTE RD # 0,INDIANAPOLIS,IN,46254-1959",2.9356671554252203,0.0,0.0,39.84298838,-86.25357474,1,1
617,"4960 S EMERSON AVE,INDIANAPOLIS,IN,46203-5937",3.922446383166198,0.0,0.0,39.694896,-86.08257571,1,1
618,"5 E CENTER ST,LAWRENCEBURG,IN,47025-1849",1.0,0.0,0.0,39.09426398,-84.84958006,1,1
619,"5 LOGAN ST,PERU,IN,46970-1642",2.0,0.0,0.0,40.76023694,-86.0739264,1,1
620,"500 W VOTAW ST,PORTLAND,IN,47371-1322",0.08333333333333333,0.0,0.0,40.43940348,-84.98354344,1,1
621,"5001 HANNA ST,FORT WAYNE,IN,46806-3128",1.0,0.0,0.0,41.03783228,-85.12718418,1,1
622,"501 E COMMERCIAL AVE,LOWELL,IN,46356-1816",0.14285714285714285,0.0,0.0,41.29148346,-87.41896122,1,1
623,"501 N EAST ST,INDIANAPOLIS,IN,46204-1632",0.3894841269841269,0.0,0.0,39.77442955,-86.14870625,1,1
624,"502 E 8TH ST,ANDERSON,IN,46012-4017",0.0,0.1111111111111111,0.0,40.10793353,-85.67226938,1,1
625,"502 WALL ST STE 103,VALPARAISO,IN,46383-2599",1.0625,0.0,0.0,41.48859551,-87.0546684,1,1
626,"5023 E 56TH ST STE 203,INDIANAPOLIS,IN,46226-1471",0.37916666666666665,0.0,0.0,39.85498920000001,-86.08557984,1,1
627,"503 SILHAVY RD STE 105,VALPARAISO,IN,46383-4494",1.3590409590409591,0.0,0.0,41.47368787,-87.02717736,1,1
628,"505 CRAGMONT ST,MADISON,IN,47250-3003",1.0,0.0,0.0,38.74019751,-85.39268307,1,1
629,"506 N LINE ST,COLUMBIA CITY,IN,46725-1230",0.5,0.0,0.0,41.165082,-85.49142747,1,1
630,"508 CORDA BLVD,CRAWFORDSVLLE,IN,47933-4935",1.0,0.0,0.0,40.04958151,-86.86991249,1,1
631,"508 INDIANA AVE,INDIANAPOLIS,IN,46202-3106",0.25,0.0,1.0,39.77461581,-86.16554974,1,1
632,"5081 W HESSLER RD,MUNCIE,IN,47304-8960",2.91025641025641,0.0,0.0,40.21902451,-85.44542399,1,1
633,"5120 CHARLESTOWN RD STE 1,NEW ALBANY,IN,47150-9497",0.0,0.0,0.5,38.36552327,-85.7790489,1,1
634,"5170 COMMERCE CIR,INDIANAPOLIS,IN,46237-9744",1.9444444444444444,0.0,0.0,39.65520889,-86.08105557,1,1
635,"518 LINCOLNWAY W,MISHAWAKA,IN,46544-1807",1.2,0.0,0.0,41.66113445,-86.1868533,1,1
636,"520 8TH AVE NE,DEMOTTE,IN,46310-9108",1.0,0.0,0.0,41.20993353,-87.19510049,1,1
637,"520 SHELDON ST,GREENDALE,IN,47025-1549",1.0,0.0,0.0,39.10987761,-84.8625951,1,1
638,"520 W MAIN ST,GREENTOWN,IN,46936-1021",1.9166666666666663,0.0,0.0,40.47795544,-85.97270211,1,1
639,"520 W NAVAJO ST,WEST LAFAYETTE,IN,47906-1999",0.3333333333333333,0.8333333333333333,0.0,40.45148646,-86.91321138,1,1
640,"525 W PARR RD,BERNE,IN,46711-1131",1.5,0.0,0.0,40.66505752,-84.95516186,1,1
641,"5250 E US HIGHWAY 36 STE 160,AVON,IN,46123-9078",2.576190476190476,0.0,0.0,39.75932084,-86.43392147,1,1
642,"5254 HOHMAN AVE,HAMMOND,IN,46320-1722",0.8333333333333333,0.0,0.0,41.617422,-87.52206926,1,1
643,"5259 DAVID ST,INDIANAPOLIS,IN,46226-1793",0.5583028083028083,0.0,0.0,39.84953288,-86.05029619,1,1
644,"526 E STATE ROAD 32,WESTFIELD,IN,46074-8767",0.0,0.2,0.0,40.04262749,-86.15004236,1,1
645,"529 E LEWIS AND CLARK PKWY,CLARKSVILLE,IN,47129-1729",1.0,0.0,0.0,38.31174728,-85.76640314,1,1
646,"530 PLAZA DR STE J,COLUMBUS,IN,47201-2940",2.5,0.0,0.0,39.23046951,-85.91901172,1,1
647,"5310 PEARL DR STE C,EVANSVILLE,IN,47712-8105",1.0,0.0,0.0,37.97465284,-87.63945576,1,1
648,"5317 E 16TH ST,INDIANAPOLIS,IN,46218-4897",1.0106837606837606,0.0,0.0,39.7888615,-86.07777299,1,1
649,"532 E 81ST AVE,MERRILLVILLE,IN,46410-5599",3.1993694600892746,0.0,0.0,41.47121226,-87.33359577,1,1
650,"5328 COLDWATER RD,FORT WAYNE,IN,46825-5445",3.1761904761904765,0.0,1.0,41.12832687,-85.13573559,1,1
651,"5330 W WASHINGTON ST,INDIANAPOLIS,IN,46241-2147",0.8055555555555556,0.0,0.0,39.75240982,-86.25172155,1,1
652,"54 W MAIN ST,ROSSVILLE,IN,46065-9459",2.0,0.0,0.0,40.41696545,-86.59631249,1,1
653,"5404 E BILL FARR DR,TERRE HAUTE,IN,47803-9321",1.0,0.0,0.0,39.43745748,-87.33460122,1,1
654,"5406 S EMERSON AVE STE A,INDIANAPOLIS,IN,46237-1980",2.5,0.0,0.0,39.6891,-86.08259817,1,1
655,"5406 S EMERSON AVE,INDIANAPOLIS,IN,46237-1970",2.0,0.0,0.0,39.6891,-86.08259817,1,1
656,"5408 N JOHNSON RD,MICHIGAN CITY,IN,46360-9376",1.3333333333333333,0.0,0.0,41.68502973,-86.8487677,1,1
657,"5430 E WASHINGTON ST,INDIANAPOLIS,IN,46219-6446",3.5297619047619047,0.0,0.0,39.77062651,-86.07455489,1,1
658,"545 COUNTRY CLUB RD SE,CORYDON,IN,47112-1793",1.0,0.0,0.0,38.20045249,-86.10666129,1,1
659,"5457 W 38TH ST,INDIANAPOLIS,IN,46254-2917",3.7660361267559415,0.0,0.0,39.82370647,-86.25527066,1,1
660,"5470 E 16TH ST,INDIANAPOLIS,IN,46218-4861",0.1360805860805861,0.0,0.0,39.78893149,-86.07459149,1,1
661,"548 RIDGE RD,MUNSTER,IN,46321-1649",0.0,0.0,1.0,41.5620016,-87.51437661,1,1
662,"55 BRENDON WAY STE 500,ZIONSVILLE,IN,46077-1958",0.0,0.5,0.0,39.94917396,-86.27482328,1,1
663,"55 S 4TH ST,SCOTTSBURG,IN,47170-1721",1.0,0.0,0.0,38.68558892,-85.76600275,1,1
664,"550 UNIVERSITY BLVD # 3195,INDIANAPOLIS,IN,46202-5149",25.978822055137826,1.040909090909091,12.859523809523814,39.77525792,-86.17556919,1,1
665,"550 UNIVERSITY BLVD,INDIANAPOLIS,IN,46202-5149",0.08333333333333333,0.0,0.0,39.77525792,-86.17556919,1,1
666,"550 W VIRGINIA ST,EVANSVILLE,IN,47710-1614",1.0,0.0,2.5,37.98208551,-87.57149416,1,1
667,"5501 E 71ST ST STE 3,INDIANAPOLIS,IN,46220-3900",2.0,0.0,0.0,39.88328552,-86.0742723,1,1
668,"5515 W 38TH ST,INDIANAPOLIS,IN,46254-2919",0.5963453661034305,0.0,0.0,39.82368551,-86.25734999,1,1
669,"5521 W LINCOLN HWY STE 215,CROWN POINT,IN,46307-1098",1.0,0.0,0.0,41.47476687,-87.40150817,1,1
670,"5525 GEORGETOWN RD STE B,INDIANAPOLIS,IN,46254-3717",1.619047619047619,0.0,0.0,39.85220543,-86.24012945,1,1
671,"555 W US HIGHWAY 30,SCHERERVILLE,IN,46375-2650",0.0,1.0,0.0,41.49046495,-87.46427286,1,1
672,"556 N CASS ST,WABASH,IN,46992-2437",1.0,0.0,0.0,40.80548208,-85.82862392,1,1
673,"556 N OAK DR,PLYMOUTH,IN,46563-1664",2.0,0.0,0.0,41.3438899,-86.32865363,1,1
674,"559 N MAIN ST,LINTON,IN,47441-1374",1.0,0.0,0.0,39.039003,-87.16609711,1,1
675,"5607 E WASHINGTON ST,INDIANAPOLIS,IN,46219-6427",2.0769230769230766,0.0,0.0,39.77069958,-86.07173966,1,1
676,"5655 HARRISON ST,MERRILLVILLE,IN,46410-2071",0.3333333333333333,0.0,0.0,41.5153775,-87.34571581,1,1
677,"5660 CAITO DR STE 130,INDIANAPOLIS,IN,46226-1364",0.16666666666666666,0.0,0.0,39.85712599,-86.04172878,1,1
678,"5685 LAFAYETTE RD STE 100,INDIANAPOLIS,IN,46254-6158",1.0769230769230769,0.0,0.0,39.854260499999995,-86.26453069,1,1
679,"57 N CHANDLER ST,DENVER,IN,46926-2304",1.0,0.0,0.0,40.86658875,-86.07609516,1,1
680,"5935 S EMERSON AVE STE 200,INDIANAPOLIS,IN,46237-1975",2.1159090909090907,0.0,0.1,39.68133283,-86.08247677,1,1
681,"5957 W BROADWAY,MCCORDSVILLE,IN,46055-9355",0.16666666666666666,0.0,0.0,39.89618663,-85.91827475,1,1
682,"6002 W 62ND ST,INDIANAPOLIS,IN,46278-2909",1.0,0.0,0.0,39.86709249,-86.26633199,1,1
683,"6008 E 46TH ST,INDIANAPOLIS,IN,46226-3413",0.5,0.0,0.0,39.84048243,-86.06421416,1,1
684,"601 E WALNUT ST,FRANKFORT,IN,46041-2562",1.0,0.0,0.0,40.27970752,-86.50572258,1,1
685,"601 MILL ST,CRAWFORDSVILLE,IN,47933-3440",1.0,0.0,0.0,40.03571666,-86.89003991,1,1
686,"601 W US HIGHWAY 30,SCHERERVILLE,IN,46375-2656",0.0,0.0,1.0,41.4905315,-87.46554149,1,1
687,"6010 W 86TH ST STE 118,INDIANAPOLIS,IN,46278-1407",0.25,0.0,0.0,39.91079684,-86.26638232,1,1
688,"602 W LOCUST ST,BOONVILLE,IN,47601-1530",2.0,0.0,0.0,38.04905762,-87.28041574,1,1
689,"6044 LUTE RD,PORTAGE,IN,46368-5008",0.25,0.0,0.0,41.55782048,-87.18079427,1,1
690,"6058 BUTTONWOOD DR,NOBLESVILLE,IN,46062-9133",0.0,0.0,0.2,40.07745402,-86.06296126,1,1
691,"6058 E 82ND ST,INDIANAPOLIS,IN,46250-1530",0.05263157894736842,0.0,0.0,39.90543372,-86.06313932,1,1
692,"6075 CLEVELAND CIR,MERRILLVILLE,IN,46410-2378",1.0,0.0,0.0,41.50799941,-87.36024528,1,1
693,"6091 BROADWAY,MERRILLVILLE,IN,46410-2619",0.8500000000000001,0.0,0.0,41.50778364,-87.33597088,1,1
694,"610 E 11TH ST,RUSHVILLE,IN,46173-1319",0.3333333333333333,0.0,0.0,39.61877548,-85.43629327,1,1
695,"610 S TILLOTSON AVE STE 200,MUNCIE,IN,47304-4476",0.0,1.0,0.0,40.18887033,-85.41911501,1,1
696,"612 S DETROIT ST,LAGRANGE,IN,46761-2314",1.0,0.0,0.0,41.63833738,-85.4177902,1,1
697,"614 ANDREW AVE,LAPORTE,IN,46350-4677",0.0,0.3333333333333333,0.0,41.60115,-86.73393722,1,1
698,"615 N WALNUT ST,BLOOMINGTON,IN,47404-3811",1.0,0.0,0.0,39.17219358,-86.53361892,1,1
699,"6150 E 82ND ST STE 100,INDIANAPOLIS,IN,46250-1500",3.50972299544281,0.0,0.0,39.90540348,-86.06074452,1,1
700,"619 N BURKHARDT RD,EVANSVILLE,IN,47715-7296",0.5,0.0,0.0,37.98269974,-87.47391659,1,1
701,"620 S TILLOTSON AVE,MUNCIE,IN,47304-4448",0.0,0.0,0.8333333333333333,40.18877044,-85.41911599,1,1
702,"6201 WINTHROP AVE STE 3,INDIANAPOLIS,IN,46220-1982",1.0,0.0,0.0,39.86891899,-86.14167773,1,1
703,"6202 EVANSTON AVE,INDIANAPOLIS,IN,46220-2100",1.0,0.0,0.0,39.868902,-86.12693582,1,1
704,"6211 W 30TH ST STE D,INDIANAPOLIS,IN,46224-3057",1.0,0.0,0.0,39.80927246,-86.26882105,1,1
705,"622 N MADISON AVE STE 10,GREENWOOD,IN,46142-4052",0.21978021978021967,0.0,0.0,39.62400569,-86.11321797,1,1
706,"622 W LINCOLN AVE,GOSHEN,IN,46526-2416",3.2,0.0,0.0,41.58630107,-85.84429743,1,1
707,"623 N STATE ST,NORTH VERNON,IN,47265-1043",2.333333333333333,0.25,0.0,39.00947394,-85.63364281,1,1
708,"625 ELM ST,CLINTON,IN,47842-1728",1.0,0.0,0.0,39.657174499999996,-87.40467016,1,1
709,"6355 ROCKVILLE RD,INDIANAPOLIS,IN,46214",0.3333333333333333,0.0,0.0,39.76464152,-86.27174932,1,1
710,"637 S WALKER ST STE 1,BLOOMINGTON,IN,47403-2175",0.0,0.0,0.2,39.16041115,-86.5460467,1,1
711,"6412 WINCHESTER RD,FORT WAYNE,IN,46819-1550",1.0,0.0,0.0,41.02608463,-85.14851562,1,1
712,"6414 CALUMET AVE STE A,HAMMOND,IN,46324-1207",1.0,0.0,0.0,41.59653818,-87.50901036,1,1
713,"6425 N KEYSTONE AVE,INDIANAPOLIS,IN,46220-2158",1.0,0.0,0.0,39.87408655,-86.12203517,1,1
714,"6443 W 10TH ST STE 204,INDIANAPOLIS,IN,46214-6502",2.619047619047619,0.4166666666666666,2.0,39.77937255,-86.27508419,1,1
715,"6450 US HIGHWAY 6,PORTAGE,IN,46368-5110",0.8500000000000001,0.0,0.0,41.55068236,-87.16474037,1,1
716,"6496 N PIQUA RD,DECATUR,IN,46733-9434",5.0,0.0,0.0,40.83916176,-84.91029914,1,1
717,"65 E 2ND ST,PERU,IN,46970",1.0,0.0,0.0,40.7529069,-86.06572053,1,1
718,"650 CHERRY ST,HUNTINGTON,IN,46750-2033",1.0,0.0,0.0,40.883390399999996,-85.49791596,1,1
719,"650 FAIRGROUNDS RD,TIPTON,IN,46072-8599",4.0,0.0,0.0,40.269735499999996,-86.04900008,1,1
720,"6502 GRAPE RD STE 882,MISHAWAKA,IN,46545-1102",1.3590409590409591,0.0,0.0,41.71874849,-86.18769577,1,1
721,"6535 E 82ND ST STE 211,INDIANAPOLIS,IN,46250-4519",0.14285714285714285,0.0,0.0,39.905204499999996,-86.05447335,1,1
722,"6561 WHITESTOWN PKWY STE 5,ZIONSVILLE,IN,46077-7621",0.75,0.0,0.0,39.94916663,-86.34392362,1,1
723,"6653 W BROADWAY,MCCORDSVILLE,IN,46055-9558",1.5833333333333333,0.0,0.0,39.88997034,-85.93206817,1,1
724,"6695 E US HIGHWAY 36,AVON,IN,46123-8923",1.0,0.0,2.7,39.76260151,-86.40577269,1,1
725,"6703 INDIANAPOLIS BLVD,HAMMOND,IN,46324-1707",1.0,0.0,0.0,41.591817,-87.48091471,1,1
726,"6820 PARKDALE PL STE 117,INDIANAPOLIS,IN,46254-4699",0.95,0.1111111111111111,0.3333333333333333,39.8261722,-86.28093868,1,1
727,"6834 INDIANAPOLIS BLVD,HAMMOND,IN,46324-1710",0.25,0.0,0.0,41.58897569,-87.48101136,1,1
728,"6835 E SOUTHPORT RD STE H,INDIANAPOLIS,IN,46237-9714",1.7499999999999998,0.0,0.0,39.66654655,-86.04735991,1,1
729,"6850 BROADWAY,MERRILLVILLE,IN,46410-3534",0.5,0.3333333333333333,0.0,41.49317641,-87.33602814,1,1
730,"6919 E 10TH ST STE A1,INDIANAPOLIS,IN,46219-4811",0.5833333333333333,0.0,0.0,39.78173247,-86.04761196,1,1
731,"6920 INDIANAPOLIS BLVD,HAMMOND,IN,46324-2206",1.85,0.0,0.0,41.58769499,-87.48099724,1,1
732,"6920 PARKDALE PL STE 217,INDIANAPOLIS,IN,46254-5611",1.0,0.0,0.0,39.82624049,-86.28270129999999,1,1
733,"6940 MICHIGAN RD STE 140,INDIANAPOLIS,IN,46268-2800",0.3942460317460317,0.0,0.0,39.88242422,-86.20868273,1,1
734,"6998 E 30TH ST,INDIANAPOLIS,IN,46219-1105",1.0,0.0,0.0,39.8111465,-86.04633149,1,1
735,"7 VILLAGE RD,BATESVILLE,IN,47006-9277",1.0,0.0,0.0,39.29150443,-85.20576248,1,1
736,"7007 US 31 S,INDIANAPOLIS,IN,46227-8686",1.0,0.0,0.0,39.66382263,-86.14673473,1,1
737,"701 N MADISON AVE,GREENWOOD,IN,46142-4126",1.0,0.0,0.0,39.62506810000001,-86.11348082,1,1
738,"701 WALL ST,VALPARAISO,IN,46383-2514",0.6805555555555556,0.0,0.0,41.48916046,-87.05197349,1,1
739,"7015 US 31 S STE D,INDIANAPOLIS,IN,46227-8619",4.263294424014239,0.0,0.0,39.66330258,-86.14636413,1,1
740,"702 W TRAFALGAR POINTE WAY,TRAFALGAR,IN,46181-9702",0.2,0.0,0.0,39.41205092,-86.15671311,1,1
741,"703 W PARK ST,CAYUGA,IN,47928-8207",0.16666666666666666,0.0,0.0,39.94101253,-87.46871383,1,1
742,"705 RILEY HOSPITAL DR RM 4205,INDIANAPOLIS,IN,46202-5109",2.7857142857142856,4.4409090909090905,0.0,39.777255,-86.18137626,1,1
743,"706 N MAIN ST,BLUFFTON,IN,46714-1312",1.6666666666666663,0.0,0.0,40.74812795,-85.169193,1,1
744,"7073L S STATE ROAD 67,PENDLETON,IN,46064-9079",0.5,0.0,0.0,40.00241809,-85.73222403,1,1
745,"710 FRANKLIN ST STE 200,MICHIGAN CITY,IN,46360-3564",0.9190170940170941,0.0,0.0,41.71466925,-86.90051334,1,1
746,"710 W MILL RD,EVANSVILLE,IN,47710-3928",2.0,0.0,0.0,38.02139654,-87.57344253,1,1
747,"7101 E LINCOLN HWY,CROWN POINT,IN,46307-8821",0.5,0.0,0.0,41.47054047,-87.25006192,1,1
748,"7102 N KEYSTONE AVE,INDIANAPOLIS,IN,46240-3242",0.4,0.0,0.0,39.883635,-86.12221829,1,1
749,"7120 S US HIGHWAY 231,HUNTINGBURG,IN,47542-9319",2.0,0.0,0.0,38.26919815,-86.96225132,1,1
750,"713 US HIGHWAY 41 STE A,SCHERERVILLE,IN,46375-1798",3.4458341065539213,0.0,0.0,41.511410299999994,-87.47110582,1,1
751,"7134 CALUMET AVE,HAMMOND,IN,46324-2406",1.0,0.0,0.0,41.5837945,-87.50908391,1,1
752,"7141 MICHIGAN RD,INDIANAPOLIS,IN,46268-2700",1.5,0.0,0.0,39.88337873,-86.2090702,1,1
753,"715 JEFFERSON ST,ROCHESTER,IN,46975-1533",1.0,0.0,0.0,41.06674729,-86.21739762,1,1
754,"715 MACARTHUR ST,JASPER,IN,47546-2621",1.0,0.0,0.0,38.39269407,-86.93904602,1,1
755,"717 E MAIN ST,GAS CITY,IN,46933-1545",2.0,0.0,0.0,40.48791446,-85.60178058,1,1
756,"718 E BROADWAY,LOGANSPORT,IN,46947-3158",1.5,0.0,0.0,40.75490622,-86.36079785,1,1
757,"720 ESKENAZI AVE FL 2,INDIANAPOLIS,IN,46202-5189",0.4609126984126983,0.0,0.0,39.77757112,-86.18294118,1,1
758,"720 ESKENAZI AVE FL 5,INDIANAPOLIS,IN,46202-5189",0.5963453661034305,0.0,0.0,39.77757112,-86.18294118,1,1
759,"720 ESKENAZI AVE,INDIANAPOLIS,IN,46202",0.5963453661034305,0.0,0.0,39.77757112,-86.18294118,1,1
760,"720 ESKENAZI AVE,INDIANAPOLIS,IN,46202-5187",0.2933691756272401,0.0,0.0,39.77757112,-86.18294118,1,1
761,"7200 E VIRGINIA ST,EVANSVILLE,IN,47715-4068",0.0,1.0,0.0,37.98143447,-87.46537444,1,1
762,"7207 ENGLE RD STE B,FORT WAYNE,IN,46804-2231",1.0909090909090908,0.0,0.0,41.04325293,-85.23403669,1,1
763,"7210 MAPLECREST RD,FORT WAYNE,IN,46835-1892",2.0,0.0,0.0,41.14814448,-85.06291765,1,1
764,"7225 US 31 S STE G,INDIANAPOLIS,IN,46227-8599",7.462689110078753,0.0,0.0,39.66006467,-86.14405383,1,1
765,"723 COLLEGE AVE,VINCENNES,IN,47591-3117",1.3333333333333333,0.0,0.0,38.68061207,-87.51932628,1,1
766,"724 N GRAND AVE,CONNERSVILLE,IN,47331-2015",1.0,0.0,0.0,39.6446946,-85.13845868,1,1
767,"7255 N KEYSTONE AVE STE B,INDIANAPOLIS,IN,46240-3297",0.3333333333333333,0.0,0.0,39.88680241,-86.12193422,1,1
768,"727 E BROADWAY ST,FORTVILLE,IN,46040-1565",1.0,0.0,0.0,39.93585072,-85.84065018,1,1
769,"7303 FOREST RIDGE DR,SCHERERVILLE,IN,46375-3351",1.0,0.0,0.0,41.48684345,-87.39952565,1,1
770,"731 N GREEN RIVER RD,EVANSVILLE,IN,47715-2415",1.6880341880341885,0.0,0.0,37.98290856,-87.49260017,1,1
771,"734 E IRELAND RD,SOUTH BEND,IN,46614-2662",3.0,0.0,0.0,41.62923554,-86.23989097,1,1
772,"7340 CROSSING PL STE 200,FISHERS,IN,46038-2730",3.1666666666666665,0.0,0.0,39.96029163,-86.04043936,1,1
773,"7397 N 600 W STE 400,MCCORDSVILLE,IN,46055-9381",0.5,0.0,0.0,39.89042027,-85.91904519,1,1
774,"741 12TH ST,TELL CITY,IN,47586-1728",1.0,0.0,0.0,37.95207316,-86.76456682,1,1
775,"7481 N SHADELAND AVE STE A,INDIANAPOLIS,IN,46250-2077",0.047619047619047616,0.0,0.0,39.88977299,-86.0460652,1,1
776,"750 N STATE ROAD 25,ROCHESTER,IN,46975-9785",2.0,0.0,0.0,41.06324663,-86.19244842,1,1
777,"7524 S ANTHONY BLVD,FORT WAYNE,IN,46816-2523",2.0,0.0,0.0,41.01557701,-85.11217035,1,1
778,"753 W MAIN ST,MADISON,IN,47250-3150",1.0,0.0,0.0,38.73817763,-85.39044623,1,1
779,"757 E 81ST AVE,MERRILLVILLE,IN,46410-5538",1.3333333333333333,0.0,0.0,41.47086426,-87.33245618,1,1
780,"757 E LEWIS AND CLARK PKWY,CLARKSVILLE,IN,47129-2269",0.0,0.0,0.5,38.31287717,-85.76430398,1,1
781,"760 PARK EAST BLVD STE 5,LAFAYETTE,IN,47905-0796",0.14285714285714285,0.0,0.0,40.40897324,-86.82905009,1,1
782,"7605 S EMERSON AVE,INDIANAPOLIS,IN,46237-8748",2.583333333333333,0.0,0.0,39.65663674,-86.08243689,1,1
783,"7650 E STATE ROAD 252,EDINBURGH,IN,46124-1094",1.5,0.0,0.0,39.36161607,-85.95933843,1,1
784,"77 FAIRVIEW AVE,SPENCER,IN,47460-1513",1.3333333333333333,0.0,0.0,39.28680866,-86.75430796,1,1
785,"7725 BROADWAY STE H,MERRILLVILLE,IN,46410-4787",0.5,0.0,0.0,41.477499,-87.33588482,1,1
786,"7725 S EMERSON AVE,INDIANAPOLIS,IN,46237-8654",0.0,2.0,0.0,39.65531324,-86.08259528,1,1
787,"7750 W 200 S,TOPEKA,IN,46571-9436",1.5833333333333337,0.0,0.0,41.61116551,-85.57468183,1,1
788,"777 BEACHWAY DR STE 202,INDIANAPOLIS,IN,46224-7877",0.0,0.0,0.8928571428571428,39.77690706,-86.26966866,1,1
789,"777 BROADWAY ST STE B,ANDERSON,IN,46012-2959",3.119079939668175,0.0,0.0,40.12296286,-85.67837945,1,1
790,"777 S MAIN ST STE 100,CLINTON,IN,47842-2493",0.16666666666666666,0.0,0.0,39.653433,-87.39823866,1,1
791,"7780 MICHIGAN RD STE B,INDIANAPOLIS,IN,46268-2372",1.0,0.0,0.0,39.89425132,-86.21438028,1,1
792,"7800 E US HIGHWAY 36,AVON,IN,46123-7156",2.833333333333333,0.25,0.0,39.76301551,-86.3846139,1,1
793,"7803 W 75TH AVE STE 3,SCHERERVILLE,IN,46375-2655",0.5,0.0,0.0,41.48231554,-87.43086114,1,1
794,"7830 ROCKVILLE RD STE A,INDIANAPOLIS,IN,46214-3130",0.8095238095238095,0.7,0.0,39.7642634,-86.29850497,1,1
795,"7830 ROCKVILLE RD,INDIANAPOLIS,IN,46214-3129",0.16666666666666666,0.5,0.0,39.7642634,-86.29850497,1,1
796,"7845 CARNEGIE BLVD,FORT WAYNE,IN,46804-5792",0.4,0.0,0.6000000000000001,41.07346141,-85.24457935,1,1
797,"7855 IN-66 E,NEWBURGH,IN,47630",1.0,0.0,0.0,37.97644254,-87.39316155,1,1
798,"7863 BROADWAY STE 111,MERRILLVILLE,IN,46410-5530",1.0,0.3333333333333333,1.0625,41.47667044,-87.33588432,1,1
799,"7863 BROADWAY,MERRILLVILLE,IN,46410-5553",1.0625,0.5333333333333333,0.0,41.47667044,-87.33588432,1,1
800,"7880 BROADWAY STE A,MERRILLVILLE,IN,46410-5565",0.75,0.0,0.0,41.47543736,-87.33595813,1,1
801,"7891 BROADWAY,MERRILLVILLE,IN,46410-5556",0.3333333333333333,0.0,0.0,41.47582444,-87.33588679,1,1
802,"7911 MICHIGAN RD STE E,INDIANAPOLIS,IN,46268-1915",0.6666666666666666,0.0,0.0,39.89800203,-86.21613201,1,1
803,"8 HILL AVE,KNIGHTSTOWN,IN,46148-1228",2.0,0.0,0.0,39.79448958,-85.53319827,1,1
804,"800 N 1ST AVE,EVANSVILLE,IN,47710-1938",2.5,0.0,0.0,37.98513864,-87.57496632,1,1
805,"800 OFFICE PARK DR,BOONVILLE,IN,47601-8601",2.0,0.0,0.0,38.04540224,-87.30266762,1,1
806,"8001 E 10TH ST,INDIANAPOLIS,IN,46219-5240",0.2,0.0,0.0,39.78182648,-86.02562224,1,1
807,"8011 ROBIN HILL RD,NEWBURGH,IN,47630-3083",1.0,0.0,0.0,37.96014951,-87.39599383,1,1
808,"8028 E 10TH ST STE C,INDIANAPOLIS,IN,46219-5243",1.0,0.0,0.0,39.78193072,-86.02540732,1,1
809,"8028 S EMERSON AVE,INDIANAPOLIS,IN,46237",1.5,0.0,0.0,39.649617,-86.08267917,1,1
810,"803 EDWARDS DR,PLAINFIELD,IN,46168-2785",0.07692307692307693,0.0,0.0,39.69668683,-86.36949481,1,1
811,"803 S PRAIRIE ST,BROOKSTON,IN,47923-8410",1.0,0.0,0.0,40.59782978,-86.86862719,1,1
812,"803 W GARDNER DR,MARION,IN,46952-1819",0.0,1.0,0.0,40.57974647,-85.67040205,1,1
813,"804 S GREEN RIVER RD STE A,EVANSVILLE,IN,47715-4106",1.842857142857143,0.0,0.0,37.96595779,-87.4926146,1,1
814,"8060 N SHADELAND AVE,INDIANAPOLIS,IN,46250-2689",6.143390864464718,0.0,0.2666666666666667,39.90182902,-86.0461261,1,1
815,"807 W GARDNER DR,MARION,IN,46952-1819",1.0,0.0,0.0,40.57971226,-85.66953378,1,1
816,"8079 MADISON ST,MERRILLVILLE,IN,46410-5465",1.5625,0.0,0.0,41.47200843,-87.34139172,1,1
817,"8080 UTAH ST,MERRILLVILLE,IN,46410-6502",0.5,0.0,0.0,41.47141483,-87.29097014,1,1
818,"809 N WASHINGTON AVE,FOWLER,IN,47944-1192",0.3809523809523809,0.0,0.0,40.62553241,-87.32355731,1,1
819,"809 WALL ST STE D,VALPARAISO,IN,46383-2571",0.0,1.0,0.0,41.48926149,-87.05103479,1,1
820,"8101 E US HIGHWAY 36 STE A,AVON,IN,46123-8082",1.5386904761904765,0.0,0.0,39.76303254,-86.38053347,1,1
821,"813 N LINCOLN ST,GREENSBURG,IN,47240-1330",2.0,0.0,0.0,39.34451797,-85.47943602,1,1
822,"8137 PENDLETON PIKE,INDIANAPOLIS,IN,46226-4014",2.038857897431752,0.0,0.0,39.8381692,-86.02325863,1,1
823,"8151 E 21ST ST,INDIANAPOLIS,IN,46219-2513",2.533333333333333,0.0,0.0,39.79653049,-86.02414166,1,1
824,"8159 E 109TH AVE,CROWN POINT,IN,46307-8613",1.0,0.0,0.0,41.42020079,-87.23674737,1,1
825,"819 MAIN ST,TELL CITY,IN,47586-2105",1.3333333333333333,0.0,0.0,37.95259274,-86.76986607,1,1
826,"8190 WINDFALL LN STE A,CAMBY,IN,46113-7907",2.311111111111111,0.0,0.0,39.64396642,-86.33055164,1,1
827,"8190 WINDFALL LN STE B,CAMBY,IN,46113-7907",3.1880341880341883,0.0,0.0,39.64396642,-86.33055164,1,1
828,"820 E 53RD ST,ANDERSON,IN,46013-1731",3.25,0.0,0.0,40.06188152,-85.66890202,1,1
829,"820 W MADISON ST,ALEXANDRIA,IN,46001-1520",0.047619047619047616,0.0,0.0,40.26670047,-85.68653336,1,1
830,"821 E FRANKLIN ST,GREENCASTLE,IN,46135-1407",0.0,1.0,0.0,39.64477051,-86.85164208,1,1
831,"8217 WICKER AVE,SAINT JOHN,IN,46373-8878",1.5,0.0,0.0,41.46960054,-87.47034413,1,1
832,"823 S ADAMS ST,VERSAILLES,IN,47042-9422",2.0,0.0,0.0,39.06423383,-85.25537194,1,1
833,"8240 NAAB RD STE 355,INDIANAPOLIS,IN,46260-1987",2.0,0.0,0.0,39.905586,-86.19827784,1,1
834,"825 W OHIO ST,ROCKVILLE,IN,47872-1533",1.5,0.0,0.0,39.76280281,-87.23719559999998,1,1
835,"828 S AUTO MALL RD,BLOOMINGTON,IN,47401-5430",1.0,0.0,0.0,39.15780129,-86.49616838,1,1
836,"8280 MICHIGAN RD,INDIANAPOLIS,IN,46268-3826",0.125,0.0,0.0,39.90563429,-86.21986174,1,1
837,"829 PLAZA DR,MARTINSVILLE,IN,46151-3236",3.0,0.0,0.0,39.40574052,-86.44082399,1,1
838,"830 N THEATRE RD,MARION,IN,46952-1700",3.0,0.0,0.0,40.57365633,-85.68264735,1,1
839,"8301 RAWLES AVE,INDIANAPOLIS,IN,46219-7730",0.1360805860805861,0.0,0.0,39.7619885,-86.02107291,1,1
840,"832 MANCHESTER AVE,WABASH,IN,46992-1422",1.0,0.0,0.0,40.81608865,-85.80799111,1,1
841,"8320 MADISON AVE,INDIANAPOLIS,IN,46227-6066",0.1360805860805861,0.0,0.0,39.64486507,-86.12026277,1,1
842,"8327 INDIANAPOLIS BLVD,HIGHLAND,IN,46322-1065",3.766605661363726,0.1944444444444444,0.4998015873015873,41.56016261,-87.47115073,1,1
843,"840 E 45TH ST,MARION,IN,46953-5312",4.415811965811965,0.0,0.0,40.51639454,-85.65716313,1,1
844,"8425 WOODFIELD CROSSING BLVD STE 100,INDIANAPOLIS,IN,46240-7316",4.871794871794872,0.0,0.0,39.90906739,-86.12010695,1,1
845,"844 N CLINE AVE,GRIFFITH,IN,46319-1588",2.0,0.0,0.0,41.53719599,-87.43252069,1,1
846,"8445 S EMERSON AVE STE 100,INDIANAPOLIS,IN,46237-9597",1.0,0.0,2.1666666666666665,39.644226,-86.08264482,1,1
847,"850 COLUMBUS DR,PLYMOUTH,IN,46563-1877",1.0,0.0,0.0,41.34713461,-86.29689346,1,1
848,"850 MARSH ST STE A,VALPARAISO,IN,46385-6239",1.0,0.0,0.0,41.46059719,-87.07550763,1,1
849,"850 N MERIDIAN ST,INDIANAPOLIS,IN,46204",0.2534882232462877,0.0,0.0,39.77904658,-86.15764772,1,1
850,"8555 TAFT ST,MERRILLVILLE,IN,46410-6123",0.3333333333333333,0.0,0.0,41.46297737,-87.36491333,1,1
851,"8562 BROADWAY,MERRILLVILLE,IN,46410-7032",1.0,0.0,0.0,41.46276527,-87.33617886,1,1
852,"8691 CONNECTICUT ST,MERRILLVILLE,IN,46410-6222",0.0,0.0,2.0,41.46043129,-87.332661,1,1
853,"8788 S IN-109,KNIGHTSTOWN,IN,46148",2.0,0.0,0.0,39.80251761,-85.53217676,1,1
854,"8807 W 400 N,MICHIGAN CITY,IN,46360-9330",0.0,0.0,1.0,41.66577871,-86.871015,1,1
855,"8830 S MERIDIAN ST,INDIANAPOLIS,IN,46217-5029",0.08333333333333333,0.0,0.0,39.63776463,-86.15845966,1,1
856,"884 W JEFFERSON ST,FRANKLIN,IN,46131-2120",1.0,0.0,0.0,39.4799645,-86.06746251,1,1
857,"8845 BOEHNING LN,INDIANAPOLIS,IN,46219-1974",3.9458341065539213,0.0,0.0,39.79934609,-86.01152994,1,1
858,"8853 ROCKVILLE RD,INDIANAPOLIS,IN,46234-2731",1.0,0.0,0.0,39.76382047,-86.31984251,1,1
859,"8860 ZIONSVILLE RD STE B,INDIANAPOLIS,IN,46268-1061",0.0,0.0,1.0,39.91428899,-86.25992631,1,1
860,"888 SIM HODGIN PKWY STE C,RICHMOND,IN,47374-1942",0.0,0.0,0.2,39.84182026,-84.89104759,1,1
861,"888 SIM HODGIN PKWY,RICHMOND,IN,47374-1936",1.0,0.0,0.0,39.84182026,-84.89104759,1,1
862,"8906 ROCKVILLE RD,INDIANAPOLIS,IN,46234-2732",3.4319452176650325,0.0,0.0,39.76386647,-86.32027196,1,1
863,"8930 W 10TH ST,INDIANAPOLIS,IN,46234-2132",1.0,0.5,0.0,39.7787825,-86.3202245,1,1
864,"8931 E 30TH ST,INDIANAPOLIS,IN,46219-1501",0.1360805860805861,0.0,0.0,39.81127053,-86.01085349,1,1
865,"894 SIM HODGIN PKWY,RICHMOND,IN,47374-1931",1.0428571428571427,0.0,0.0,39.84208926,-84.89056509999998,1,1
866,"8966 RUFFIAN LN,NEWBURGH,IN,47630-3424",0.0,1.0,0.0,37.9756315,-87.41326041,1,1
867,"900 S MAIN ST,KENDALLVILLE,IN,46755-2025",1.5,0.0,0.0,41.43396648,-85.26514749,1,1
868,"900 SPRING ST STE B,JEFFERSONVILLE,IN,47130-3676",0.5,0.0,0.0,38.27806437,-85.74514069,1,1
869,"9002 N MERIDIAN ST STE 105,INDIANAPOLIS,IN,46260-5349",1.5,0.0,0.0,39.91846474,-86.15839986,1,1
870,"9002 N MERIDIAN ST STE 210,INDIANAPOLIS,IN,46260-5350",1.5,0.0,0.0,39.91846474,-86.15839986,1,1
871,"901 3RD ST,COLUMBUS,IN,47201-6816",0.5,0.0,0.0,39.20163954,-85.91380294,1,1
872,"901 E WATERFORD ST,WAKARUSA,IN,46573-9560",2.0,0.0,0.0,41.53620754,-86.00488183,1,1
873,"901 S MAIN ST,PRINCETON,IN,47670-2653",0.125,0.0,0.0,38.34700737,-87.56763748,1,1
874,"901 SHELBY ST,INDIANAPOLIS,IN,46203-1151",1.3646825396825395,0.14285714285714285,0.0,39.75459244,-86.13978572,1,1
875,"901 WILLIAMS ST,ANGOLA,IN,46703-1167",1.3333333333333333,0.0,0.0,41.6454388,-84.99464726,1,1
876,"9020 E WASHINGTON ST,INDIANAPOLIS,IN,46229-3025",1.5,0.0,0.0,39.77401248,-86.00816533,1,1
877,"903 NORTH PARK DR,EVANSVILLE,IN,47710-3629",0.5,0.0,0.0,38.01802297,-87.57687302,1,1
878,"905 E COLUMBIA ST,FLORA,IN,46929-1414",0.8333333333333333,0.0,0.0,40.54692551,-86.51003416,1,1
879,"906 E WASHINGTON ST,SOUTH BEND,IN,46617-3108",1.0,0.0,0.0,41.67648052,-86.23772999,1,1
880,"907 LINCOLNWAY S,LIGONIER,IN,46767-1707",1.0,0.0,0.0,41.45774932,-85.58658436,1,1
881,"908 N SAMUEL MOORE PKWY,MOORESVILLE,IN,46158-1475",0.3333333333333333,0.0,0.0,39.62622157,-86.35460912,1,1
882,"910 AVERITT RD,GREENWOOD,IN,46143-9540",1.0,0.0,0.0,39.60349235,-86.12090663,1,1
883,"911 AIGNER DR,BOONVILLE,IN,47601-8471",1.0,0.0,0.0,38.04677036,-87.31048488,1,1
884,"9124 TECHNOLOGY LN # 300,FISHERS,IN,46038-2839",0.5,0.0,0.0,39.963359499999996,-86.00523333,1,1
885,"9126 TECHNOLOGY LN STE 100,FISHERS,IN,46038-3094",2.333333333333333,1.15,0.3333333333333333,39.963359499999996,-86.00523333,1,1
886,"915 S IRONWOOD DR,SOUTH BEND,IN,46615-1613",1.0,0.0,0.0,41.665149,-86.21511924,1,1
887,"916 S MAIN ST,NEW CASTLE,IN,47362-2821",1.5,0.0,0.0,39.92315257,-85.37044722,1,1
888,"9215 IN-64,GEORGETOWN,IN,47122",1.0,0.0,0.0,38.29445552,-85.97949367,1,1
889,"924 WILLIAMS PARK DR,BEDFORD,IN,47421-6713",2.0,0.0,0.0,38.869029,-86.51326571,1,1
890,"9240 N MERIDIAN ST STE 250,INDIANAPOLIS,IN,46260-1876",0.2,0.5,0.0,39.922452,-86.15803735,1,1
891,"9240 N MERIDIAN ST STE 300,INDIANAPOLIS,IN,46260-1822",0.0,0.0,0.95,39.922452,-86.15803735,1,1
892,"9247 BROADWAY STE C,MERRILLVILLE,IN,46410-7093",0.07142857142857142,0.0,0.0,41.4507864,-87.33564581,1,1
893,"926 E LASALLE AVE,SOUTH BEND,IN,46617-2817",0.0,0.0,1.0,41.67918753,-86.23730233,1,1
894,"927 S WASHINGTON ST,KOKOMO,IN,46901-5319",4.69672035480859,0.0,0.0,40.47710002,-86.1336781,1,1
895,"9270 WICKER AVE,SAINT JOHN,IN,46373",0.2,0.2,0.0,41.45146294,-87.47022765,1,1
896,"9351 IN-144,MARTINSVILLE,IN,46151",1.3333333333333333,0.0,0.0,39.56635865,-86.25209774,1,1
897,"9352 CALUMET AVE,MUNSTER,IN,46321-2810",5.333333333333333,0.0,0.0,41.5433778,-87.50906966,1,1
898,"9443 E 38TH ST,INDIANAPOLIS,IN,46235-2132",0.7074564772145415,0.0,0.0,39.82610249,-86.00163363,1,1
899,"945 N GREEN ST,BROWNSBURG,IN,46112-1032",2.7,0.0,0.0,39.85558859,-86.39286151,1,1
900,"9465 COUNSELORS ROW STE 200,INDIANAPOLIS,IN,46240-3817",19.362750626566413,0.0,0.0,39.92527547,-86.10096149,1,1
901,"948 MANCHESTER AVE,WABASH,IN,46992",1.0,0.0,0.0,40.81699966,-85.80698454,1,1
902,"9510 N MERIDIAN ST,INDIANAPOLIS,IN,46260-1332",0.75,0.0,0.0,39.92652107,-86.15809877,1,1
903,"953 PARK EAST BLVD STE A,LAFAYETTE,IN,47905-0792",0.3333333333333333,0.0,1.0,40.40491503,-86.82782497,1,1
904,"9571 W STATE ROAD 56,FRENCH LICK,IN,47432-9708",2.0,0.0,0.0,38.5343508,-86.63671814,1,1
905,"9595 WHITLEY DR STE 100,INDIANAPOLIS,IN,46240-1308",2.0,0.0,0.0,39.92572766,-86.11501618,1,1
906,"960 S HEBRON AVE,EVANSVILLE,IN,47714-4081",2.5,0.0,0.0,37.96393214,-87.49572089,1,1
907,"9602 E WASHINGTON ST STE C,INDIANAPOLIS,IN,46229-3060",1.5,0.8333333333333333,0.0,39.77461651,-85.99623202,1,1
908,"9620 E 59TH ST,INDIANAPOLIS,IN,46216-1020",1.3333333333333333,0.0,0.0,39.86299347,-85.99759338,1,1
909,"9651 E 21ST ST,INDIANAPOLIS,IN,46229-1706",0.5198412698412698,0.0,0.0,39.79678946,-85.99723247,1,1
910,"9669 E 146TH ST STE 260,NOBLESVILLE,IN,46060-5006",0.0,0.5,0.2,40.00103955,-85.9969713,1,1
911,"9670 E WASHINGTON ST STE 235,INDIANAPOLIS,IN,46229-3090",0.0,0.0,0.95,39.77478443,-85.99405408,1,1
912,"9702 E WASHINGTON ST STE 200,INDIANAPOLIS,IN,46229-3631",1.4254329004329005,0.0,0.1,39.77483345,-85.99322257,1,1
913,"973 EMERSON PKWY STE A,GREENWOOD,IN,46143-6907",1.0,0.0,0.0,39.63003649,-86.08356102,1,1
914,"9780 E US HIGHWAY 36,AVON,IN,46123-7979",0.8333333333333333,0.0,0.0,39.76366868,-86.34997691,1,1
915,"980 N BROADWAY,PERU,IN,46970-1021",2.433333333333333,0.0,0.0,40.77172123,-86.08060226,1,1
916,"9850 E 79TH ST,INDIANAPOLIS,IN,46256-4822",0.5,0.0,0.0,39.89887547,-85.99352768,1,1
917,"9855 CROSSPOINT BLVD STE 144,INDIANAPOLIS,IN,46256-3353",0.0,0.0,1.0,39.93316428,-86.02747834,1,1
918,"986 N MITTHOEFFER RD,INDIANAPOLIS,IN,46229-2622",5.9444444444444455,0.0,1.0,39.78172201,-85.99047657,1,1
919,"9860 WESTPOINT DR STE 100,INDIANAPOLIS,IN,46256-3398",0.5,0.0,0.8333333333333333,39.93257706,-86.03103853,1,1
920,"9885 E 116TH ST STE 100,FISHERS,IN,46037-9242",2.083333333333333,0.08333333333333333,0.0,39.9569985,-85.99121002,1,1
921,"989 N US HIGHWAY 31 STE 11,WHITELAND,IN,46184-1379",0.5769230769230769,0.0,0.0,39.5638652,-86.09217005,1,1
922,"9893 N MICHIGAN RD STE 180,CARMEL,IN,46032-7966",0.3333333333333333,0.0,0.0,39.93179782,-86.23233174,1,1
923,"99 MEADOW DR,DANVILLE,IN,46122-1411",1.0,0.0,0.0,39.76205411,-86.49955775,1,1
924,"9901 AUBURN RD,FORT WAYNE,IN,46825-2345",0.3333333333333333,0.0,0.0,41.17340319,-85.11439095,1,1
925,"9909 N STATE ROAD 9,HOPE,IN,47246-8700",1.0,0.0,0.0,39.29741958,-85.77139845,1,1
926,"997 E COUNTY LINE RD STE L,GREENWOOD,IN,46143-1076",1.0,0.0,0.0,39.63641649,-86.0831898,1,1
927,"9972 E WASHINGTON ST,INDIANAPOLIS,IN,46229-3040",2.436742424242424,0.09090909090909093,0.0,39.77493244,-85.99103219,1,1
928,"999 MANCHESTER AVE,WABASH,IN,46992-1639",1.0,0.0,0.0,40.81719541,-85.80668169,1,1
929,"CENTER ST,CROWN POINT,IN,46307",1.3333333333333333,0.2,0.6666666666666666,41.413914,-87.35579324,1,1
930,"E 10TH ST,SHERIDAN,IN,46069",1.0,0.0,0.0,40.12989169,-86.21566195,1,1
931,"PO BOX 126,BICKNELL,IN,47512-0126",4.0,0.0,0.0,38.776884,-87.31109149,1,1
932,"PO BOX 296,PETERSBURG,IN,47567-0296",1.0,0.0,0.0,38.476634999999995,-87.28755199,1,1
933,"PO BOX 526,GENEVA,IN,46740-0526",1.0,0.0,0.0,40.602866999999996,-84.95145349,1,1
