idx,IKN_addr,general,pediatric,specialist,Y_lat,X_long,med_indicator,chip_indicator
0,"#37 MADDEX PROFFESIONAL CENTER RTE 45W,SHEPHERDSTOWN,WV,25443",1.0,0.0,0.0,39.439499700000006,-77.82034329,0,1
1,"1 EAGLE WAY,CLARKSBURG,WV,26301-9784",0.04651162790697674,0.0,0.0,39.26598861,-80.35152861,0,1
2,"1 FRENCH ST,CLENDENIN,WV,25045",1.0,0.0,0.0,38.48736,-81.35234738,0,1
3,"1 HIGHLANDER WAY,HUNTINGTON,WV,25701-5261",0.4908496732026144,0.0,0.0,38.39381297,-82.39554492,0,1
4,"1 MEDICAL CENTER DR,MORGANTOWN,WV,26506-1200",14.5,0.0,10.0,39.65333076,-79.95926164,0,1
5,"1 MOUNTAINEER DR,CLARKSBURG,WV,26301-5511",0.04651162790697674,0.0,0.0,39.27652547,-80.39936394,0,1
6,"1 PARK VIEW LN,WHEELING,WV,26003-5442",1.0,0.0,0.0,40.05216277,-80.66610934,0,1
7,"1 PHYSICIANS PLAZA SUITE A,LOCHGELLY,WV,25866",3.5,0.0,0.0,37.9992412,-81.13912114,0,1
8,"1 PIONEER PATH,MAN,WV,25635-1235",0.06666666666666668,0.0,0.0,37.72808197,-81.85582832,0,1
9,"1 TIMBERWOLF LN,HUNTINGTON,WV,25704-9377",0.4908496732026144,0.0,0.0,38.37967365,-82.52623612,0,1
10,"1 WILDCAT WAY,LOGAN,WV,25601-3474",0.06666666666666668,0.0,0.0,37.8507191,-81.99570984,0,1
11,"100 CARTER BRAXTON DR,SUTTON,WV,26601-9773",0.04651162790697674,0.0,0.0,38.69500376,-80.66438003,0,1
12,"100 FLORIDA ST,BIG CHIMNEY,WV,25302-1131",9.083333333333332,0.0,0.0,38.36485597,-81.66178514,0,1
13,"100 FLORIDA ST,CHARLESTON,WV,25302-1131",0.20192307692307693,0.0,0.0,38.36485597,-81.66178514,0,1
14,"100 GREENBRIER PLZ,FAIRMONT,WV,26554-1735",2.0,0.0,0.0,39.49464045,-80.15637146,0,1
15,"100 KANAWHA BLVD W,CHARLESTON,WV,25302-2300",0.3333333333333333,0.0,0.0,38.35718466,-81.64722888,0,1
16,"100 MORRISON DR,PRINCETON,WV,24740-2322",1.0,0.0,0.0,37.36577097,-81.11487224,0,1
17,"100 PIONEER RD,WAYNE,WV,25570-9504",0.4908496732026144,0.0,0.0,38.248334,-82.43476457,0,1
18,"1000 PARKWAY RD,SOUTH CHARLESTON,WV,25309",1.5,0.0,0.0,38.31555792,-81.71377207,0,1
19,"10003 WEBSTER RD,CAMDEN ON GAULEY,WV,26208-7713",0.5,0.0,0.0,38.36520702,-80.61175599,0,1
20,"10009 MACCORKLE AVE,MARMET,WV,25315-1913",1.0,0.0,0.0,38.24271366,-81.5639299,0,1
21,"1003 SUSHRUTA DR,MARTINSBURG,WV,25401-8876",3.0,0.0,0.0,39.47483617,-77.97357866,0,1
22,"1004 SUSHRUTA DR STE B,MARTINSBURG,WV,25401-8801",0.0,0.0,1.0,39.47462182,-77.97368582,0,1
23,"1007 SUSHRUTA DR,MARTINSBURG,WV,25401-8876",1.0,0.0,1.0,39.47458220000001,-77.97361571,0,1
24,"100A PRESTIGE PARK DR,HURRICANE,WV,25526-8417",0.25,0.0,1.0,38.46214174,-81.93257768,0,1
25,"1016 MAPLE DR STE 103,MORGANTOWN,WV,26505-2893",2.125,0.0,0.16666666666666666,39.65693768,-79.94966712,0,1
26,"102 GALLERIA PLZ,BECKLEY,WV,25801-3162",0.5,0.0,0.0,37.79945174,-81.17709825,0,1
27,"102 MARKET ST,PETERSTOWN,WV,24963",1.0,0.0,0.0,37.39700633,-80.79888549,0,1
28,"102 MEMORIAL DR,RIPLEY,WV,25271-1164",0.0,0.0,1.0,38.81821056,-81.72371353,0,1
29,"102 VINE ST,PRINCETON,WV,24740-3931",1.0,0.0,0.0,37.36344164,-81.06338154,0,1
30,"1021 QUARRIER ST STE 207,CHARLESTON,WV,25301-2329",1.0,0.0,0.0,38.34820166,-81.63301002,0,1
31,"1026 20TH ST,HUNTINGTON,WV,25703-2059",1.0,0.0,0.0,38.41529001,-82.42031983,0,1
32,"103 S TENNESSEE AVE,MARTINSBURG,WV,25401-2326",1.0,0.0,0.0,39.46014456,-77.97709424,0,1
33,"103 STEELE ST,BRIDGEPORT,WV,26330-1068",1.0,0.0,0.0,39.30153,-80.26939249,0,1
34,"1030 MORGANTOWN AVE,FAIRMONT,WV,26554-4375",0.0,0.0,1.0,39.47979921,-80.12205282,0,1
35,"1031 QUARRIER ST STE 301,CHARLESTON,WV,25301-2314",0.5,0.0,0.0,38.34786815,-81.63258143,0,1
36,"1035 FLORIDA AVE,KEYSER,WV,26726-2804",0.5,0.0,0.0,39.42703903,-78.99239495,0,1
37,"104 KOHLER ST,PARSONS,WV,26287-1209",1.0,0.0,0.0,39.09302318,-79.68083901,0,1
38,"104 VINE ST,PRINCETON,WV,24740-3931",1.0,0.0,0.0,37.36313864,-81.06352301,0,1
39,"1040 20TH ST,HUNTINGTON,WV,25703-2059",1.0,0.0,0.0,38.41490301,-82.42020733,0,1
40,"1040 WILSONBURG RD,CLARKSBURG,WV,26301-6511",0.04651162790697674,0.0,0.0,39.29265991,-80.39837799,0,1
41,"1051 MAIN ST E,WHITE SULPHUR SPRINGS,WV,24986-3019",1.0,0.0,0.0,37.800456200000006,-80.28969684,0,1
42,"1052 E BETHLEHEM BLVD,WHEELING,WV,26003-4961",0.5,0.0,0.0,40.04026373,-80.68025514,0,1
43,"1065 MAIN ST,MILTON,WV,25541",1.0,0.0,0.0,38.43450739,-82.13365589,0,1
44,"107 KOONTZ AVE STE 200,CLENDENIN,WV,25045-9581",1.5,0.0,0.0,38.489613,-81.34583784,0,1
45,"107 RITCHIE COUNTY SCHOOL RD,ELLENBORO,WV,26346",0.5,0.0,0.0,39.26221049,-81.06401156,0,1
46,"108 3RD ST,ELKINS,WV,26241",3.0,0.0,0.0,38.92517057,-79.84901502,0,1
47,"1086 MARTINS BRANCH RD,CHARLESTON,WV,25312",2.0,0.0,0.0,38.47600159,-81.67251095,0,1
48,"109 BROOKS ST,CHARLESTON,WV,25301-2904",0.0,0.0,1.0,38.34588902,-81.63108851,0,1
49,"1100 NEVILLE ST,BECKLEY,WV,25801-4228",3.0,0.0,0.5,37.77738081,-81.198509,0,1
50,"111 BROOKS ST,CHARLESTON,WV,25301-2904",2.0,0.0,0.0,38.34597002,-81.63097053,0,1
51,"111 LAFAYETTE ST STE 203,SAINT MARYS,WV,26170-1059",1.0,0.0,0.0,39.38968713,-81.20802588,0,1
52,"113 5TH ST,GASSAWAY,WV,26624-1224",0.04651162790697674,0.0,0.0,38.67170462,-80.77568277,0,1
53,"114 BECKLEY PLZ,BECKLEY,WV,25801-2221",1.0,0.0,0.0,37.81134692,-81.18342065,0,1
54,"1151 WASHINGTON ST,NEWELL,WV,26050-1437",0.5,0.0,0.0,40.61600955,-80.61632977,0,1
55,"116 HILLS PLZ,CHARLESTON,WV,25387-2438",0.20192307692307693,0.0,0.0,38.36852997,-81.67072755,0,1
56,"116 NORTH ST,BLUEFIELD,WV,24701-4034",1.0,0.0,0.0,37.25938665,-81.22078741,0,1
57,"1160 JOHNSON AVE STE 104,BRIDGEPORT,WV,26330-1487",1.0,0.0,0.0,39.29922384,-80.27475559,0,1
58,"1176 OIL CREEK RD,ROANOKE,WV,26447-8263",0.04651162790697674,0.0,0.0,38.92244592,-80.50331114,0,1
59,"119 COURT ST S,RIPLEY,WV,25271-1408",0.5588235294117647,0.0,0.0,38.81783828,-81.71189513,0,1
60,"1191 PINEVIEW DR STE B,MORGANTOWN,WV,26505-2778",1.0,0.0,0.0,39.65926836,-79.95421144,0,1
61,"12 KANAWHA TER STE B,SAINT ALBANS,WV,25177-2750",0.16666666666666666,1.0,0.0,38.38507051,-81.83832308,0,1
62,"1201 MOUNT DE CHANTAL RD,WHEELING,WV,26003-6332",2.0,0.0,0.0,40.06619548,-80.69168283,0,1
63,"1203 JEFFERSON RD,SOUTH CHARLESTON,WV,25309-9732",0.5,0.0,0.0,38.34337348,-81.7035569,0,1
64,"1203 MOUNT DE CHANTAL RD STE 1,WHEELING,WV,26003-6332",0.0,0.0,1.0,40.06619847,-80.691012,0,1
65,"1213 VIRGINIA ST E,CHARLESTON,WV,25301-2941",2.5,0.0,0.0,38.34534997,-81.63130308,0,1
66,"1215 VIRGINIA ST E,CHARLESTON,WV,25301-2908",0.25,0.0,1.0,38.34479694,-81.63062107,0,1
67,"1217 VIRGINIA ST E,CHARLESTON,WV,25301-2908",1.0,0.0,0.0,38.34466097,-81.63046012,0,1
68,"1218 VIRGINIA ST E STE B,CHARLESTON,WV,25301-2951",0.5,0.0,0.0,38.34444103,-81.63010492,0,1
69,"1219 JOHNSON AVE STE 201,BRIDGEPORT,WV,26330-1353",1.0,0.0,0.0,39.29970809,-80.27676866,0,1
70,"122 NICK SAVAS DR,LOGAN,WV,25601-3468",0.06666666666666668,0.0,0.0,37.85823598,-82.04512739,0,1
71,"1223 MYERS AVE,DUNBAR,WV,25064",0.3333333333333333,0.0,0.0,38.35886153,-81.74067913,0,1
72,"1225 N PIKE ST,GRAFTON,WV,26354-2629",1.0,0.0,0.0,39.3509761,-80.03789757,0,1
73,"1226 OHIO AVE,DUNBAR,WV,25064-3020",1.5,0.0,0.0,38.35975029,-81.74105022,0,1
74,"1226 SHEPHERDSTOWN RD,MARTINSBURG,WV,25404-0501",1.0,0.0,0.0,39.46443697,-77.93816991,0,1
75,"1238 W WASHINGTON ST,HARPERS FERRY,WV,25425-6300",2.0,0.0,0.0,39.32580101,-77.74866977,0,1
76,"1246 MCCLELLAN HWY,HARTS,WV,25524-9524",0.4908496732026144,0.0,0.0,38.0376439,-82.13678937,0,1
77,"127 PROSPERITY LN,LOGAN,WV,25601-3488",0.5,0.0,0.0,37.84893,-82.00675249,0,1
78,"128 COLLEGE ST,LOST CREEK,WV,26385",0.04651162790697674,0.0,0.0,39.16353373,-80.35029692,0,1
79,"130 CEDAR KNOLL DR,RONCEVERTE,WV,24970-8382",1.0,0.0,0.0,37.77386558,-80.46076922,0,1
80,"130 S 2ND ST,CLARKSBURG,WV,26301-2921",0.0,0.0,1.0,39.27895668,-80.33790368,0,1
81,"1300 UNIVERSITY AVE,MORGANTOWN,WV,26505-5518",1.0,0.0,0.0,39.63077233,-79.95746906,0,1
82,"1302 BUCKHANNON PIKE,CLARKSBURG,WV,26301-4406",0.04651162790697674,0.0,0.0,39.26022808,-80.32435998,0,1
83,"1306 COMMERCE AVE,HUNTINGTON,WV,25701-1609",0.3333333333333333,0.0,0.0,38.42393529,-82.43630589,0,1
84,"13150 VETERANS MEMORIAL HWY,REEDSVILLE,WV,26547",1.0,0.0,0.0,39.50886392,-79.79121582,0,1
85,"1319 HAL GREER BLVD,HUNTINGTON,WV,25701-3803",1.0,0.0,0.0,38.41008919,-82.42846745,0,1
86,"1321 DORSEY AVE,MORGANTOWN,WV,26501-7122",1.0,0.0,0.0,39.61043449,-79.9469505,0,1
87,"1321 STADIUM DR,BLUEFIELD,WV,24701-3318",1.0,0.0,0.0,37.25349558,-81.23565291,0,1
88,"133 7TH AVE,SOUTH CHARLESTON,WV,25303-1417",0.0,0.0,1.0,38.36707579,-81.69986525,0,1
89,"1334 OHIO AVE,DUNBAR,WV,25064-2933",1.3333333333333333,0.0,0.0,38.36006524,-81.7432574,0,1
90,"138 LIVELY ST,FAYETTEVILLE,WV,25840-1148",0.5,0.0,0.0,38.05267993,-81.10944844,0,1
91,"139 7TH AVE,CHARLESTON,WV,25303-1453",1.0,0.0,0.0,38.36721979,-81.69954223,0,1
92,"1393 JEFFERSON ST N,LEWISBURG,WV,24901-2212",1.5,0.0,0.0,37.80589145,-80.43812645,0,1
93,"14 N SPRING ST,BUCKHANNON,WV,26201-2720",2.0,0.0,0.5,38.99478112,-80.22933384,0,1
94,"14 S MAIN ST,PETERSBURG,WV,26847-1752",1.0,0.0,0.0,38.99197511,-79.124087,0,1
95,"140 7TH AVE,SOUTH CHARLESTON,WV,25303-1452",1.5,0.0,0.0,38.36719721,-81.69946127,0,1
96,"1400 KANAWHA BLVD E,CHARLESTON,WV,25301-3059",0.0,1.0,0.0,38.34159732,-81.62841017,0,1
97,"1400 N 19TH ST,CLARKSBURG,WV,26301-1644",0.04651162790697674,0.0,0.0,39.29484391,-80.34768609999998,0,1
98,"1401 BLIZZARD DR,PARKERSBURG,WV,26101-6422",0.5333333333333333,0.0,0.0,39.24376834,-81.55164587,0,1
99,"1402 3RD AVE,HUNTINGTON,WV,25701-1634",1.0,0.0,0.0,38.42349421,-82.43540486,0,1
100,"1402 BUCKHANNON PIKE STE A,NUTTER FORT,WV,26301-4494",1.625,0.0,0.0,39.25917907,-80.3234666,0,1
101,"1404 WEBSTER RD,SUMMERSVILLE,WV,26651",1.0,0.0,0.0,38.28365177,-80.84441798,0,1
102,"1412 BLIZZARD DR,PARKERSBURG,WV,26101-6458",2.5,0.0,0.0,39.24261153,-81.55000777,0,1
103,"142 FLATWOODS CORNER RD,CORLEY,WV,26621-1112",0.04651162790697674,0.0,0.0,38.7286523,-80.65230359,0,1
104,"142 HOLIDAY LN,LEWISBURG,WV,24901-9381",1.0,0.0,0.0,37.80617139,-80.46105529,0,1
105,"1422 QUARRIER ST,CHARLESTON,WV,25301-3015",1.0,0.0,0.0,38.34255641,-81.62527388,0,1
106,"1427 COOK PKWY,OCEANA,WV,24870",3.5,0.0,0.0,37.6941529,-81.63461028,0,1
107,"1498 MAPLEWOOD AVE,RONCEVERTE,WV,24970-8017",1.0,0.0,0.0,37.76796266,-80.46559352,0,1
108,"1501 7TH AVE,CHARLESTON,WV,25387-2305",2.0,0.0,0.0,38.37034621,-81.66056323,0,1
109,"15081 MACCORKLE AVE # 40,CABIN CREEK,WV,25035-8047",0.5,0.0,0.0,38.19526077,-81.48528748,0,1
110,"15081 MACCORKLE AVE,CABIN CREEK,WV,25035-8047",1.0,0.0,0.0,38.19526077,-81.48528748,0,1
111,"151 DODDRIDGE COUNTY SCHOOL RD,WEST UNION,WV,26456-8402",0.5,0.0,0.0,39.28869457,-80.74225672,0,1
112,"1510 HARRISON AVE,ELKINS,WV,26241-8500",1.2916666666666663,0.0,0.16666666666666666,38.93287682,-79.86823249,0,1
113,"1512 COMMERCE ST,WELLSBURG,WV,26070-1323",1.0,0.0,0.0,40.27842487,-80.6083108,0,1
114,"1514 N WALKER ST,PRINCETON,WV,24740-2639",1.5,0.0,0.0,37.36783525,-81.10211136,0,1
115,"1516 KANAWHA BLVD W,CHARLESTON,WV,25387-2533",0.5,0.0,0.0,38.36548309,-81.66502826,0,1
116,"1520 COUNTRY CLUB RD,FAIRMONT,WV,26554-1353",1.0,0.0,0.0,39.4732179,-80.17865727,0,1
117,"1520 WASHINGTON ST E,CHARLESTON,WV,25311-2511",6.833333333333332,0.0,0.0,38.34296771,-81.62172802,0,1
118,"15300 US HIGHWAY 33 W,LINN,WV,26384-9322",0.04651162790697674,0.0,0.0,39.01051518,-80.71638861,0,1
119,"1563 SAND PLANT RD,CHARLESTON,WV,25309-6120",0.06666666666666668,0.0,0.0,38.27316985,-81.78609438,0,1
120,"1573 WASHINGTON ST E,CHARLESTON,WV,25311-2505",0.0,1.0,0.0,38.34139021,-81.61853254,0,1
121,"16 COLLEGE AVE,BUCKHANNON,WV,26201-2628",0.04651162790697674,0.0,0.0,38.98674988,-80.22409332,0,1
122,"160 KRUGER ST,WHEELING,WV,26003-5160",2.0,0.0,0.0,40.03949739,-80.65794728,0,1
123,"1600 E MAIN ST,HARRISVILLE,WV,26362-9201",1.0,0.0,0.0,39.21476429,-81.04035075,0,1
124,"1600 MEDICAL CENTER DR STE 1100,HUNTINGTON,WV,25701-3656",1.0833333333333333,0.0,1.0,38.410926,-82.43250199,0,1
125,"1607 MARYLAND AVE,BLUEFIELD,WV,24701-3803",0.75,0.0,0.5,37.25327027,-81.23179851,0,1
126,"16100 WEBSTER RD,CRAIGSVILLE,WV,26205-8858",3.0,0.0,0.0,38.34047344,-80.68184867,0,1
127,"1628 W 3RD AVE,WILLIAMSON,WV,25661-3007",3.5,0.0,0.0,37.67520992,-82.29188629,0,1
128,"1630 13TH AVE,HUNTINGTON,WV,25701-3812",0.05,0.0,0.0,38.41101799,-82.42669422,0,1
129,"1636 W PIKE ST,CLARKSBURG,WV,26301-2361",0.04651162790697674,0.0,0.0,39.2911366,-80.35941174,0,1
130,"170 THOMPSON DR STE 203,BRIDGEPORT,WV,26330-2608",1.0,0.0,0.0,39.28370519,-80.27278663,0,1
131,"1702 OAK ST,KENOVA,WV,25530-1120",1.0,0.0,0.0,38.40227126,-82.58139833,0,1
132,"1715 WARWOOD AVE,WHEELING,WV,26003-7159",1.0,0.0,0.0,40.11884733,-80.69885939,0,1
133,"1717 JEFFERSON ST,BLUEFIELD,WV,24701-4013",1.0,0.0,0.0,37.25724738,-81.22050576,0,1
134,"1749 JEFFERSON ST N,LEWISBURG,WV,24901-1373",0.0,1.0,0.0,37.81034465,-80.43375996,0,1
135,"176 MEDICAL CENTER DR,RAINELLE,WV,25962-1064",1.0,0.0,0.0,37.96908211,-80.77866816,0,1
136,"176 MONROE ST,RIVESVILLE,WV,26588",1.0,0.0,0.0,39.53188645,-80.12476264,0,1
137,"17978 STATE ROAD 55,BAKER,WV,26801",2.0,0.0,0.0,39.05004604,-78.73546477,0,1
138,"1801 EARL L CORE RD,MORGANTOWN,WV,26505",0.9583333333333331,0.0,0.16666666666666666,39.62282677,-79.92400216,0,1
139,"1804 HARPER RD,BECKLEY,WV,25801-3331",0.0,0.0,1.0,37.79029406,-81.20547734,0,1
140,"1804 WARWOOD AVE,WHEELING,WV,26003-7115",1.0,0.0,0.0,40.11946304,-80.69885667,0,1
141,"1836 LOCUST AVE,FAIRMONT,WV,26554-0061",1.0,0.0,0.0,39.47243664,-80.18113428,0,1
142,"184 E 2ND AVE STE 210,WILLIAMSON,WV,25661-3602",1.0,0.0,0.0,37.67170116,-82.27737222,0,1
143,"186 HOSPITAL DR,GRANTSVILLE,WV,26147",0.5,0.0,0.0,38.92314,-81.09260999,0,1
144,"186 HOSPITAL DR,GRANTSVILLE,WV,26147-7100",2.5,0.0,0.0,38.92425126,-81.09170743,0,1
145,"19 E MAIN ST,BUCKHANNON,WV,26201-2715",2.458333333333333,0.0,0.16666666666666666,38.99390324,-80.2299677,0,1
146,"1911 VALLEY RD,BERKELEY SPRINGS,WV,25411-4815",1.0,0.0,0.0,39.6027919,-78.23990284,0,1
147,"19366 BUFFALO RD,BUFFALO,WV,25033-7468",0.07692307692307693,0.0,0.0,38.61011027,-81.98786699,0,1
148,"2 MOUNTAINEER DR,CLARKSBURG,WV,26301-5511",0.04651162790697674,0.0,0.0,39.27786166,-80.39629325,0,1
149,"2 WALL ST,WINFIELD,WV,25213",0.07692307692307693,0.0,0.0,38.53162629,-81.89635229,0,1
150,"20 SHANER DR STE 108,BRIDGEPORT,WV,26330-2626",1.0,0.0,0.0,39.33023789999999,-80.2357367,0,1
151,"200 E RANDOLPH ST,LEWISBURG,WV,24901-1130",0.0,0.0,1.0,37.80186978,-80.44365549,0,1
152,"200 JERRY BURTON DR,SUTTON,WV,26601-9768",0.04651162790697674,0.0,0.0,38.69519501,-80.66566596,0,1
153,"200 KANAWHA TER,SAINT ALBANS,WV,25177-2867",0.5,0.0,0.0,38.38528015,-81.83571559,0,1
154,"200 SAINT THOMAS DR,WEIRTON,WV,26062-3844",1.0,0.0,0.0,40.39795737,-80.55173195,0,1
155,"200 STANAFORD RD,BECKLEY,WV,25801-3140",1.0,0.0,0.0,37.79656538,-81.17207285,0,1
156,"200 TELETECH DR STE A,MOUNDSVILLE,WV,26041-2336",0.5,0.0,0.0,39.90913769,-80.74587764,0,1
157,"200 TETRICK RD,SHINNSTON,WV,26431-9704",0.04651162790697674,0.0,0.0,39.40433796,-80.28684961,0,1
158,"2000 DUDLEY AVE STE I,PARKERSBURG,WV,26101-3476",0.5,0.0,0.0,39.27632364,-81.54336394,0,1
159,"2001 PROFESSIONAL CT,MARTINSBURG,WV,25401-8808",1.0,0.0,0.0,39.47225685,-77.98213879999999,0,1
160,"201 AUGUSTINE AVE,CHARLES TOWN,WV,25414-4431",0.0,0.0,1.0,39.28254904,-77.86466398,0,1
161,"201 SPRING AVE,MOOREFIELD,WV,26836-1032",2.5,0.0,0.0,39.07105705,-78.96421607,0,1
162,"2010 BLAND RD,BLUEFIELD,WV,24701-4153",1.0,0.0,0.0,37.25758253,-81.21729194,0,1
163,"2012 PLEASANT VALLEY RD,FAIRMONT,WV,26554-9456",0.5,0.0,0.0,39.44641076,-80.1528804,0,1
164,"2017 E PIKE ST,CLARKSBURG,WV,26301-6013",1.0,0.0,0.0,39.27832132,-80.29677821,0,1
165,"202 3RD AVE,MONTGOMERY,WV,25136-2222",0.5,0.0,0.0,38.18093267,-81.32174549999998,0,1
166,"202 S WALKER ST,PRINCETON,WV,24740-2747",1.0,0.0,0.0,37.36382248,-81.10383312,0,1
167,"202 TUNNELTON ST STE 214,KINGWOOD,WV,26537-1452",2.5,0.0,0.0,39.47033843,-79.69005567,0,1
168,"203 BROOKSHIRE LN,BECKLEY,WV,25801-6729",0.0,0.0,1.0,37.77134142,-81.15831129,0,1
169,"2035 KANAWHA TER,SAINT ALBANS,WV,25177-3187",0.3333333333333333,0.0,0.0,38.37803753,-81.81338035,0,1
170,"204 KRUGER ST STE 1,WHEELING,WV,26003-5165",1.0,0.0,0.0,40.03836586,-80.65805859,0,1
171,"204 S MOUNTAIN AVE,MOUNT HOPE,WV,25880-1129",0.1,0.0,0.0,37.89495251,-81.1634449,0,1
172,"208 KIDD AVE,CLARKSBURG,WV,26301-4833",0.04651162790697674,0.0,0.0,39.2503385,-80.31622105,0,1
173,"208 LEON SULLIVAN WAY,CHARLESTON,WV,25301-2413",1.0,0.0,1.0,38.34797141,-81.63139301,0,1
174,"21 MEDICAL CENTER DR,PENNSBORO,WV,26415-1276",1.0,0.0,0.0,39.28481766,-80.97062457,0,1
175,"210 CHARLES ST,SISTERSVILLE,WV,26175-1202",1.0,0.0,0.0,39.56312364,-80.99650937,0,1
176,"2100 MARKET ST STE 2,WHEELING,WV,26003-3864",2.0,0.0,0.0,40.06142321,-80.72313069,0,1
177,"211 6TH ST,PARKERSBURG,WV,26101-5113",3.033333333333333,0.5,0.0,39.26699426,-81.55960896,0,1
178,"2115 CHARLESTON TOWN CTR,CHARLESTON,WV,25389-0007",0.3333333333333333,0.0,0.0,38.35385993,-81.63473853,0,1
179,"212 NORTH ST,BLUEFIELD,WV,24701-4036",1.0,0.0,0.0,37.25883263,-81.22168689,0,1
180,"213 D ST,SOUTH CHARLESTON,WV,25303-3103",1.0,0.0,0.0,38.36503286,-81.69392771,0,1
181,"213 W MAPLE AVE,FAYETTEVILLE,WV,25840-1413",0.5,0.0,0.0,38.05068351,-81.10626033,0,1
182,"22 FLEMING DR,HARTS,WV,25524",0.4908496732026144,0.0,0.0,38.03074358,-82.12932545,0,1
183,"22 SIERRA DR,MARTINSBURG,WV,25403-1133",1.0,0.0,0.0,39.46599887,-78.00294566,0,1
184,"220 RAGLAND RD,BECKLEY,WV,25801-9721",1.0,1.0,0.0,37.80743905,-81.18038383,0,1
185,"2201 22ND ST,NITRO,WV,25143-1728",1.0,0.0,0.0,38.42311979,-81.8410545,0,1
186,"221 STATE ST STE 102,MADISON,WV,25130-1173",1.0,0.0,0.0,38.06615572,-81.81989806,0,1
187,"222 COURT ST,CLARKSBURG,WV,26301-2906",2.0,0.0,0.0,39.27872564,-80.33997075,0,1
188,"2220 CHEAT RD,MORGANTOWN,WV,26508-4453",0.5,0.0,0.0,39.67403216,-79.85190788,0,1
189,"225 COLLEGE PKWY STE 201,N PARKERSBURG,WV,26104-7655",0.0,0.5,0.0,39.30317855,-81.53020395,0,1
190,"226 SCHOOL ST,WEST MILFORD,WV,26451-9700",0.04651162790697674,0.0,0.0,39.20209249,-80.40240842,0,1
191,"228 KANAWHA AVE,BURNSVILLE,WV,26335-7700",0.04651162790697674,0.0,0.0,38.86118093,-80.65736996,0,1
192,"230 LAKEWOOD CTR,MORGANTOWN,WV,26508-4457",2.0,0.0,0.0,39.678855,-79.85397049,0,1
193,"2300 US-60 E,HUNTINGTON,WV,25703",0.4908496732026144,0.0,0.0,38.42405848,-82.41709584,0,1
194,"2307 DAVISSON RUN RD STE 201,CLARKSBURG,WV,26301-7364",1.0,0.0,0.0,39.27110022,-80.37964758,0,1
195,"234 COURT ST,CLARKSBURG,WV,26301-2906",1.25,0.0,0.0,39.27850324,-80.3400589,0,1
196,"235 HARVEST RIDGE LN,LITTLE FALLS,WV,26508-4872",1.0,0.0,0.0,39.56152998,-79.97277772,0,1
197,"2401 S KANAWHA ST STE 103,BECKLEY,WV,25801-6967",1.0,0.0,0.0,37.76583722,-81.16096078,0,1
198,"2413 GRANT AVE,SAINT ALBANS,WV,25177-2059",1.0,0.0,0.0,38.38241,-81.80437921,0,1
199,"247 HEALTH CENTER DR,UNION,WV,24983-8463",1.5,0.0,0.0,37.5886889,-80.5472382,0,1
200,"250 WORTHINGTON DR,BRIDGEPORT,WV,26330-1449",0.04651162790697674,0.0,0.0,39.2859667,-80.25282606,0,1
201,"2500 FOUNDATION WAY,MARTINSBURG,WV,25401-9000",2.0,0.0,0.0,39.47397887,-77.98123504,0,1
202,"255 WASHINGTON ST,RAVENSWOOD,WV,26164-1874",0.3333333333333333,0.0,0.0,38.94925189,-81.76169078,0,1
203,"2550 US ROUTE 60,HURRICANE,WV,25526-9436",0.4241830065359477,0.0,0.0,38.41303908,-82.00678858,0,1
204,"2585 3RD AVE,HUNTINGTON,WV,25703-1642",0.7408496732026144,0.0,0.0,38.42783878,-82.41008938,0,1
205,"2601 DUDLEY AVE,PARKERSBURG,WV,26101-2649",1.0,0.0,0.0,39.28113814,-81.54057903,0,1
206,"2602 CRANBERRY SQ,MORGANTOWN,WV,26508-9201",0.0,0.0,1.0,39.67152853,-79.85484327,0,1
207,"261 BERKMORE PL STE 1B,BERKELEY SPRINGS,WV,25411-6247",1.0,0.0,0.0,39.61099215,-78.23515591,0,1
208,"262 OYLER AVE,OAK HILL,WV,25901-2639",0.24285714285714285,0.0,0.0,37.98550442,-81.14182324,0,1
209,"26496 MIDLAND TRL,HICO,WV,25854",2.0,0.0,0.0,38.11236046,-81.00141249,0,1
210,"267 MIDWAY RD,ALUM CREEK,WV,25003-9591",0.06666666666666668,0.0,0.0,38.26031851,-81.83953249999998,0,1
211,"2684 WHITE HALL BLVD,FAIRMONT,WV,26554-8226",1.0,0.0,0.0,39.42693237,-80.18869182,0,1
212,"271 WARRIOR WAY,DUNMORE,WV,24934-9048",0.04651162790697674,0.0,0.0,38.332203,-79.92999349,0,1
213,"2790 SALTWELL RD,HUNTINGTON,WV,25705-1619",1.0,0.0,0.0,38.40853396,-82.38992753,0,1
214,"2801 DUDLEY AVE, #C,PARKERSBURG,WV,26101",0.0,0.0,1.0,39.28251071,-81.53845804,0,1
215,"2854 NORTHWESTERN PIKE,CAPON BRIDGE,WV,26711-9052",0.0,0.0,1.0,39.29710056,-78.43166026,0,1
216,"288 N HILL RD,SUTTON,WV,26601-1225",0.04651162790697674,0.0,0.0,38.66748152,-80.70764725,0,1
217,"29 BRUIN DR,WELLSBURG,WV,26070-3064",0.8333333333333333,0.0,0.0,40.30454263,-80.58562145,0,1
218,"29 LINCOLN PLZ,BRANCHLAND,WV,25506",0.25,0.0,0.0,38.271722,-82.19891612,0,1
219,"2905 DUDLEY AVE,PARKERSBURG,WV,26101-2107",1.5,0.0,0.0,39.28321445,-81.53735926,0,1
220,"2908 AUBURN RD,HUNTINGTON,WV,25704-2715",0.4075163398692809,0.0,0.0,38.40588093,-82.50203154,0,1
221,"3 ROSEMAR CIR STE A,PARKERSBURG,WV,26104-1263",1.0,0.0,0.0,39.29417584,-81.52320205,0,1
222,"30 GRIZZLEY LN,SUMMERSVILLE,WV,26651-9736",0.24285714285714285,0.0,0.0,38.32245747,-80.83257731,0,1
223,"300 FOXCROFT AVE STE 302,MARTINSBURG,WV,25401-5341",2.0,0.0,0.0,39.46098445,-77.98729803,0,1
224,"300 ROOSEVELT BLVD,ELEANOR,WV,25070",0.20192307692307693,0.0,0.0,38.5347453,-81.92445588,0,1
225,"3000 HAMPTON CTR STE B,MORGANTOWN,WV,26505-1708",1.0,1.0,0.0,39.65468976,-79.93686579999998,0,1
226,"3003 HAWK HWY,LOST CREEK,WV,26385-6846",0.04651162790697674,0.0,0.0,39.18767254,-80.38790262,0,1
227,"301 MARKET ST,FAIRMONT,WV,26554-4034",0.5,0.0,1.0,39.48091373,-80.13686819,0,1
228,"3022 WINFIELD RD,WINFIELD,WV,25213-9791",0.07692307692307693,0.0,0.0,38.43841849,-81.85109964,0,1
229,"304 RIVERVIEW DR,SUTTON,WV,26601-1343",1.0,0.0,0.0,38.66375259,-80.70863852,0,1
230,"3064 PENNSYLVANIA AVE,WEIRTON,WV,26062-3721",1.0,0.0,0.0,40.41162364,-80.54663394,0,1
231,"307 10TH ST,WHITE HALL,WV,26554-3610",1.0,0.0,0.0,39.47207009,-80.15146488,0,1
232,"307 5TH AVE,HUNTINGTON,WV,25702-1815",0.05,0.0,0.0,38.4275336,-82.38696345,0,1
233,"308 E MAIN ST,MILTON,WV,25541-1508",0.05,0.0,0.0,38.43467828,-82.12719236,0,1
234,"3110 MACCORKLE AVE SE,CHARLESTON,WV,25304",0.3333333333333333,0.0,0.0,38.32876403,-81.60426764,0,1
235,"3125 PENNSYLVANIA AVE,WEIRTON,WV,26062-3817",1.0,0.0,0.0,40.41065129,-80.5440929,0,1
236,"3126 GEORGE WASHINGTON HWY,THORNTON,WV,26440-7231",1.0,0.0,0.0,39.33169009,-79.84788752,0,1
237,"3135 16TH STREET RD STE 20,HUNTINGTON,WV,25701-5247",0.25,0.0,1.0,38.39039865,-82.39857163,0,1
238,"3136 WEST ST,WEIRTON,WV,26062-4637",0.3333333333333333,0.0,0.0,40.40616471,-80.58961555,0,1
239,"314 BARKWILL ST,SAINT MARYS,WV,26170-1307",1.0,0.0,0.0,39.38897104,-81.20308152,0,1
240,"315 1ST ST,FAIRMONT,WV,26554-0173",1.5,0.0,0.0,39.48206923,-80.14500634,0,1
241,"315 JACKSON ST,MOOREFIELD,WV,26836-1009",2.0,0.0,0.0,39.06990039,-78.96404,0,1
242,"3154 COLLINS FERRY RD,MORGANTOWN,WV,26505-3352",1.0,0.0,0.0,39.65591043,-79.97102421,0,1
243,"3174 LAMBERTON RD,PENNSBORO,WV,26415-6057",0.5,0.0,0.0,39.28293907,-81.00694381,0,1
244,"319 LUTZ AVE,MARTINSBURG,WV,25404-6362",0.0,0.0,1.0,39.48454923,-77.96042121,0,1
245,"319 MAIN ST,CLAY,WV,25043",1.6666666666666663,0.0,0.0,38.45952659,-81.08157672,0,1
246,"32 STAYMAN DR,ROMNEY,WV,26757-6289",0.5,0.0,0.0,39.32880323,-78.70494997,0,1
247,"324 29TH ST,HUNTINGTON,WV,25702-1428",2.0,0.0,0.0,38.42889743,-82.39905999999998,0,1
248,"324 CENTER AVE,WESTON,WV,26452-2031",1.0,0.0,0.0,39.03939514,-80.46438107,0,1
249,"3248 PENNSYLVANIA AVE,WEIRTON,WV,26062-3804",0.3333333333333333,0.0,0.0,40.40868291,-80.54064045,0,1
250,"3257 SUMMERLEE RD,OAK HILL,WV,25901-6173",1.0,0.0,0.0,37.99906307,-81.14764913,0,1
251,"328 MAIN ST W,RIPLEY,WV,25271-1427",1.0,0.0,0.0,38.81892254,-81.71424058,0,1
252,"3280 WINFIELD RD,WINFIELD,WV,25213-9636",0.07692307692307693,0.0,0.0,38.44181024,-81.84869794,0,1
253,"33 EAGLES RD,BECKLEY,WV,25801-3643",1.0,0.0,0.0,37.79946483,-81.16217063,0,1
254,"330 E MAIN ST,MANNINGTON,WV,26582-1102",3.0,0.0,0.0,39.52628635,-80.34139275,0,1
255,"332 PENCO RD,WEIRTON,WV,26062-3813",1.0,0.0,0.0,40.40855342,-80.54743983,0,1
256,"3377 US ROUTE 60,HUNTINGTON,WV,25705-2837",0.6575163398692809,0.0,0.0,38.41084521,-82.37424142,0,1
257,"3412 UNIVERSITY AVE,MORGANTOWN,WV,26505-7220",1.0,0.0,0.0,39.65779008,-79.98382797,0,1
258,"3414 PENNSYLVANIA AVE,CHARLESTON,WV,25302-4633",1.0,0.0,0.0,38.39614665,-81.56551632,0,1
259,"345 CONCORD AVE,BERKELEY SPRINGS,WV,25411-1235",1.0,0.0,0.0,39.61652694,-78.23360727,0,1
260,"3465 TEAYS VALLEY RD,HURRICANE,WV,25526-9279",1.5,0.0,0.0,38.44012128,-81.99143429,0,1
261,"350 5TH AVE,HUNTINGTON,WV,25701-1812",1.0,0.0,0.0,38.41789922,-82.45231675,0,1
262,"350 HOSPITAL DR,SPENCER,WV,25276-1049",3.0,0.0,0.0,38.81150793,-81.36747205,0,1
263,"350 W OYLER AVE,OAK HILL,WV,25901-2176",0.5761904761904761,0.0,0.0,37.98785103,-81.14683839,0,1
264,"3518 TEAYS VALLEY RD,HURRICANE,WV,25526-9235",0.0,0.0,1.0,38.44167368,-81.98659939,0,1
265,"3520 TEAYS VALLEY RD,HURRICANE,WV,25526-9479",1.0,0.0,0.0,38.44164979999999,-81.98651909,0,1
266,"3532 FAIRMONT PIKE RD,BETHLEHEM,WV,26003-7272",1.0,0.0,0.0,39.98745014,-80.6753686,0,1
267,"3568 TEAYS VALLEY RD,HURRICANE,WV,25526-0320",1.4583333333333333,0.0,0.0,38.44375585,-81.98032071,0,1
268,"358 COURT AVE,WESTON,WV,26452-2008",0.04651162790697674,0.0,0.0,39.0399298,-80.46211472,0,1
269,"3659 TEAYS VALLEY RD,HURRICANE,WV,25526-9701",2.083333333333333,2.0,0.0,38.44519574,-81.97331972,0,1
270,"3705 EMERSON AVE,N PARKERSBURG,WV,26104-1118",1.0,0.0,0.0,39.28888739,-81.53121699,0,1
271,"3712 TEAYS VALLEY RD,HURRICANE,WV,25526-9645",1.0,0.0,0.0,38.44585899,-81.96882245,0,1
272,"372 MIDDLEWAY PIKE STE A,INWOOD,WV,25428-3909",2.0,0.0,0.0,39.35503092,-78.03351117,0,1
273,"3722 PENNSYLVANIA AVE,WEIRTON,WV,26062-4112",1.0,0.0,0.0,40.40621921,-80.52149663,0,1
274,"3814 MACCORKLE AVE SE,CHARLESTON,WV,25304-1528",1.0,0.0,0.0,38.32758612,-81.59332803,0,1
275,"389 AMERICAN WAY STE 1,WEIRTON,WV,26062-4083",2.0,0.0,0.0,40.39671863,-80.53218404,0,1
276,"390 C ST,CEREDO,WV,25507-1289",1.0,0.0,0.0,38.39680736,-82.56091741,0,1
277,"390 INDUSTRIAL PARK RD,MAXWELTON,WV,24957-8073",1.0,0.0,0.0,37.8596763,-80.40340021,0,1
278,"3911 TEAYS VALLEY RD,HURRICANE,WV,25526-9604",0.20192307692307693,0.0,0.0,38.44746412,-81.95072998,0,1
279,"3920 MACCORKLE AVE SE,CHARLESTON,WV,25304-1633",0.0,0.0,1.0,38.32677498,-81.59087587,0,1
280,"3979 TEAYS VALLEY RD,HURRICANE,WV,25526-9082",1.0,0.0,0.0,38.44815249,-81.94358141,0,1
281,"3984 INDIAN CREEK RD,ELKVIEW,WV,25071-9312",1.0,0.0,0.0,38.40167247,-81.51298296,0,1
282,"3997 BECKLEY RD,PRINCETON,WV,24740-7660",2.0,0.0,0.0,37.401183,-81.14021512,0,1
283,"400 ALLEN DR STE 200,CHARLESTON,WV,25302-3947",2.0,0.0,0.0,38.36388126,-81.6193889,0,1
284,"402 CARRIAGE DR,BECKLEY,WV,25801-2806",0.0,0.0,1.0,37.78813623,-81.19992267,0,1
285,"402 RED OAK ST,SUMMERSVILLE,WV,26651-1000",2.0,0.0,0.0,38.2944849,-80.83664563,0,1
286,"403 3RD AVE,BECKLEY,WV,25801-5326",1.0,0.0,0.0,37.77313815,-81.19447663,0,1
287,"403 VIRGINIA AVE,FAIRMONT,WV,26554-2748",1.7916666666666663,0.0,0.16666666666666666,39.47884013,-80.14686831,0,1
288,"405 CAPITOL ST STE 914,CHARLESTON,WV,25301-1744",1.0,0.0,2.0,38.35154602,-81.63182433,0,1
289,"405 CAPITOL ST,CHARLESTON,WV,25301",1.0,0.0,0.0,38.35154602,-81.63182433,0,1
290,"406 HOLLAND AVE,MORGANTOWN,WV,26501-4209",0.5,0.0,0.0,39.63567072,-79.97187889,0,1
291,"407 S PIKE ST,SHINNSTON,WV,26431-1125",0.5,0.0,0.0,39.39093771,-80.30713940000003,0,1
292,"407 STATE ST,MADISON,WV,25130-1422",1.0,0.0,0.0,38.06239844,-81.82220225,0,1
293,"408 ALEXANDER ST,CEDAR GROVE,WV,25039",0.4908496732026144,0.0,0.0,38.21885452,-81.43226647,0,1
294,"410 4TH AVE,MONTGOMERY,WV,25136-2105",1.5,0.0,0.0,38.18152747,-81.32470105,0,1
295,"413 JOHNSON AVE,BRIDGEPORT,WV,26330-1309",0.04651162790697674,0.0,0.0,39.28872037,-80.26122808,0,1
296,"415 MORRIS ST STE 401,CHARLESTON,WV,25301-1854",1.8333333333333333,0.0,1.25,38.34635647,-81.62717164,0,1
297,"417 27TH ST,VIENNA,WV,26105-1340",0.3333333333333333,0.0,0.0,39.32411552,-81.55126375,0,1
298,"417 GRAND CENTRAL AVE STE 103,PARKERSBURG,WV,26105-2138",0.25,0.0,0.75,39.30300925,-81.54930999,0,1
299,"417 MAIN ST E,OAK HILL,WV,25901-2198",1.0,0.0,0.0,37.97539256,-81.14283216,0,1
300,"42 MCGINNIS DR,WAYNE,WV,25570-9553",0.3486928104575163,0.0,0.0,38.25391155,-82.43090908,0,1
301,"420 ELAINE ST,WEIRTON,WV,26062-3760",1.0,0.0,0.0,40.4070813,-80.544917,0,1
302,"420 VIRGINIA ST W,CHARLESTON,WV,25302-2008",2.0,0.0,0.0,38.36145174,-81.64840661,0,1
303,"422 KINETIC DR STE A,HUNTINGTON,WV,25701-5268",1.0,0.0,0.0,38.39451696,-82.4238,0,1
304,"424 MIDLAND AVE,BELLE,WV,25015-1610",1.0,0.0,0.0,38.23134295,-81.53540747,0,1
305,"426 8TH ST STE 205,GLEN DALE,WV,26038-1451",1.0,0.0,0.0,39.94674235,-80.75267587,0,1
306,"430 MORGANTOWN ST,KINGWOOD,WV,26537",1.0,0.0,0.0,39.47814613,-79.7029292,0,1
307,"4303 MACCORKLE AVE SE,CHARLESTON,WV,25304-2503",1.0,0.0,0.0,38.3242099,-81.58656687,0,1
308,"432 W MAIN ST,CLARKSBURG,WV,26301-2817",2.0,0.0,0.0,39.27991994,-80.34189437,0,1
309,"4325 GERRARDSTOWN RD,INWOOD,WV,25428-3449",1.0,0.0,0.0,39.36087481,-78.05310531,0,1
310,"433 CARRIAGE DR,BECKLEY,WV,25801-2805",2.0,0.0,0.0,37.78869231,-81.19938873,0,1
311,"443 LEE AVE,CLARKSBURG,WV,26301-3648",0.04651162790697674,0.0,0.0,39.2784557,-80.34284666,0,1
312,"4502 MACCORKLE AVE SE STE C,CHARLESTON,WV,25304-1835",0.0,1.0,0.0,38.3226901,-81.58377867,0,1
313,"453 VAN VOORHIS RD,MORGANTOWN,WV,26505-3408",1.0,0.0,0.0,39.65193755,-79.96560005,0,1
314,"46 TRIFECTA PL STE 102,CHARLES TOWN,WV,25414-5652",1.0,0.0,0.0,39.30204731,-77.84229358,0,1
315,"4602 ROUTE 152,LAVALETTE,WV,25535-9702",0.25,0.0,0.0,38.33392137,-82.45422411,0,1
316,"461 SCHOOL VIEW ST,ELIZABETH,WV,26143",0.2,0.0,0.0,39.05794502,-81.39193898,0,1
317,"47 WASHINGTON AVE # 312,WHEELING,WV,26003-6240",11.136446886446887,0.0,0.0,40.07118302,-80.68504749,0,1
318,"483 COURT ST,ELIZABETH,WV,26143-1109",1.0333333333333332,0.0,0.0,39.06155663,-81.39644182,0,1
319,"4910 MACCORKLE AVE SW,SOUTH CHARLESTON,WV,25309-1216",0.5,0.0,0.0,38.35445726,-81.73200828,0,1
320,"4968 ELK RIVER RD,ELKVIEW,WV,25071-9297",0.4166666666666666,0.0,0.0,38.41215824,-81.50356783,0,1
321,"5 GARTON PLZ,WESTON,WV,26452-2128",1.0,0.0,0.0,39.05419246,-80.47153824,0,1
322,"50 BU DR,BUCKHANNON,WV,26201-9411",0.04651162790697674,0.0,0.0,38.95272131,-80.24714521,0,1
323,"501 MORRIS ST,CHARLESTON,WV,25301-1326",3.1666666666666665,0.0,1.0,38.34715229,-81.62616961,0,1
324,"501 STOCKTON ST,CHARLESTON,WV,25387-2429",0.125,0.0,0.0,38.36974328,-81.66285673,0,1
325,"5027 HELENA AVE STE 1,DELBARTON,WV,25670-1301",0.06666666666666668,0.0,0.0,37.71149072,-82.18412735,0,1
326,"503 BURROUGHS ST STE 106,MORGANTOWN,WV,26505-3386",0.5,0.0,0.0,39.65723147,-79.97162528,0,1
327,"503 ROOSEVELT BLVD,ELEANOR,WV,25070",0.07692307692307693,0.0,0.0,38.53578318,-81.92742582,0,1
328,"504 50TH ST SE,CHARLESTON,WV,25304-2024",1.0,0.0,0.0,38.3180867,-81.57860879,0,1
329,"505 STRATTON ST,LOGAN,WV,25601-3806",1.0,0.0,0.0,37.84639243,-81.98875437,0,1
330,"506 CRAWLEY CREEK RD,CHAPMANVILLE,WV,25508-7002",0.06666666666666668,0.0,0.0,37.97599752,-82.02532811,0,1
331,"5089 ELK RIVER RD,ELKVIEW,WV,25071-9711",2.5,0.0,0.0,38.44327388,-81.47860132,0,1
332,"509 BERLIN RD,WESTON,WV,26452-8323",0.04651162790697674,0.0,0.0,39.02396707,-80.41489441,0,1
333,"513 6TH ST,MOUNDSVILLE,WV,26041-1949",0.5,0.0,0.0,39.91925925,-80.74702378,0,1
334,"515 JOHNSON AVE,BRIDGEPORT,WV,26330-1311",0.04651162790697674,0.0,0.0,39.29016123,-80.26223711,0,1
335,"515 MAIN ST,MADISON,WV,25130-1417",0.20192307692307693,0.0,0.0,38.060586,-81.82321495,0,1
336,"5187  EAST HILL PROF CNTR ROUTE 60 SUITE 10,HUNTINGTON,WV,25705",1.0,0.0,0.0,38.41101,-82.40408999,0,1
337,"5187 US ROUTE 60 STE 3,HUNTINGTON,WV,25705-2076",1.0,0.0,0.0,38.41232712,-82.3417874,0,1
338,"5233 ATHENS RD,ATHENS,WV,24712-9005",1.0,0.0,0.0,37.412687,-81.02290745,0,1
339,"526 S MAIN ST,CHAPMANVILLE,WV,25508-5001",0.8333333333333333,0.0,0.0,37.97245163,-82.01719271,0,1
340,"5304 KOONTZ DR,CHARLESTON,WV,25313-1016",1.0,0.0,0.0,38.43240193,-81.77694714,0,1
341,"5304 STRAIGHT FRK,GRIFFITHSVILLE,WV,25521-9504",0.12222222222222225,0.0,0.0,38.23742857,-81.98725844,0,1
342,"531 JOHNSON AVE,BRIDGEPORT,WV,26330-1311",0.04651162790697674,0.0,0.0,39.29120705,-80.26292687,0,1
343,"5322 MCCLELLAN HWY,BRANCHLAND,WV,25506-8725",0.06666666666666668,0.0,0.0,38.27292583,-82.19972952,0,1
344,"5376 BIG TYLER RD,CHARLESTON,WV,25313-1059",0.5,0.0,0.0,38.43147304,-81.77826927,0,1
345,"5461 BIG TYLER RD,CHARLESTON,WV,25313-1133",1.0,0.0,0.0,38.42495296,-81.78641277,0,1
346,"5480 BIG TYLER RD STE 1,CROSS LANES,WV,25313-1195",0.5,0.0,0.0,38.42395483,-81.78751234,0,1
347,"5490 WV-10,SALT ROCK,WV,25559",0.06666666666666668,0.0,0.0,38.32366842,-82.22250235,0,1
348,"55 LITTLE BIRCH RD,SUTTON,WV,26601-9469",0.04651162790697674,0.0,0.0,38.57196373,-80.72000143,0,1
349,"55 SOUTHERN DR,KEYSER,WV,26726-2818",1.0,0.0,0.0,39.42802675,-78.99207763,0,1
350,"5509 BIG TYLER RD STE 2,CHARLESTON,WV,25313-1347",0.5,0.0,0.0,38.42238874,-81.78899117,0,1
351,"5527 OHIO RIVER RD,POINT PLEASANT,WV,25550-9203",1.3333333333333333,0.0,0.0,38.96305565,-82.08454795,0,1
352,"5555 US-60,HUNTINGTON,WV,25705",1.0,0.0,0.0,38.40999449,-82.33294108,0,1
353,"56 MILEGROUND RD STE A,MORGANTOWN,WV,26505-3907",1.0,0.0,0.0,39.63843551,-79.93721016,0,1
354,"562 CHARLESTON DR,RIPLEY,WV,25271-1533",0.2,0.0,0.0,38.81000829,-81.7028532,0,1
355,"5722 CABIN CREEK RD,DAWES,WV,25054-7700",0.5,0.0,0.0,38.156523,-81.44743399,0,1
356,"58 PRESIDENTS ST,FORT ASHBY,WV,26719-0437",1.0,0.0,0.0,39.50409142,-78.77091142,0,1
357,"58 WARM SPRINGS AVE,MARTINSBURG,WV,25404-3800",3.5,0.0,0.0,39.48080342,-77.9512729,0,1
358,"59 GREYHOUND LN,SMITHERS,WV,25186",0.24285714285714285,0.0,0.0,38.18220881,-81.30965973,0,1
359,"59 VANATTERS CRK,RANGER,WV,25557-9719",0.06666666666666668,0.0,0.0,38.12318069,-82.19240448,0,1
360,"5917 POTOMAC HIGHLANDS TRL,GREEN BANK,WV,24944-9099",0.04651162790697674,0.0,0.0,38.411682,-79.81102249,0,1
361,"6 ROSEMAR CIR,PARKERSBURG,WV,26104-1204",0.0,0.0,1.0,39.29396357,-81.52457673,0,1
362,"600 18TH ST STE 304,PARKERSBURG,WV,26101-3236",0.3333333333333333,0.0,0.0,39.27675658,-81.54969138,0,1
363,"600 S RANDOLPH AVE,ELKINS,WV,26241-5702",2.0,0.0,0.0,38.92869146,-79.84920615,0,1
364,"600 WESTMORELAND OFFICE PARK STE 2,DUNBAR,WV,25064-2719",1.0,0.0,0.0,38.36187047,-81.73079896,0,1
365,"604 WILSON ST,MARTINSBURG,WV,25401-1753",0.0,0.0,1.0,39.44642214,-77.9742844,0,1
366,"606 STOKES DR STE B,HINTON,WV,25951-2554",1.0,0.0,0.0,37.65509165,-80.88509,0,1
367,"61 29TH ST,WHEELING,WV,26003-4161",0.5,0.0,0.0,40.05150744,-80.72332036,0,1
368,"61 S KANAWHA ST,BUCKHANNON,WV,26201-2601",1.0,0.0,0.0,38.99098017,-80.22983241,0,1
369,"615 COVE RD,WEIRTON,WV,26062-4818",1.0,0.0,0.0,40.4012063,-80.58040751,0,1
370,"62 ELEANOR CIR,ELEANOR,WV,25070",0.07692307692307693,0.0,0.0,38.53478045,-81.92232624,0,1
371,"621 CHURCH ST N,RIPLEY,WV,25271-8444",2.0,0.0,0.0,38.82563356,-81.70649996,0,1
372,"6260 MID ATLANTIC DR,MORGANTOWN,WV,26508-4293",1.5,0.0,0.0,39.64798916,-79.89084048,0,1
373,"627 4TH AVE,HUNTINGTON,WV,25701-1320",0.4908496732026144,0.0,0.0,38.41989743,-82.44847701,0,1
374,"63 CARR ST,CLAY,WV,25043-9402",2.0,0.0,0.0,38.46123412,-81.07563752,0,1
375,"6353 E PEA RIDGE RD,HUNTINGTON,WV,25705-2525",0.3333333333333333,0.0,0.0,38.4164241,-82.30095785,0,1
376,"6404 HIGHLAND TRL,RONCEVERTE,WV,24970",0.04651162790697674,0.0,0.0,37.75599223,-80.53894021,0,1
377,"6463 HARPER RD,SURVEYOR,WV,25932-9614",1.0,0.0,0.0,37.77056965,-81.32454748,0,1
378,"650 E MCDONALD AVE,MAN,WV,25635-1012",0.06666666666666668,0.0,0.0,37.73436876,-81.87480946,0,1
379,"6536 MAIN ST,JANE LEW,WV,26378-8505",0.04651162790697674,0.0,0.0,39.11256864,-80.40808861,0,1
380,"658 MAIN ST STE C,RAINELLE,WV,25962-2004",1.0,0.0,0.0,37.97119135,-80.76287663,0,1
381,"677 CENTRAL AVE,BARBOURSVILLE,WV,25504-1315",2.0,0.0,0.0,38.4085646,-82.29559043,0,1
382,"7 E MAIN ST,RICHWOOD,WV,26261-1105",1.0,0.0,0.0,38.22524654,-80.53293037,0,1
383,"70 E GRAVEL LN,ROMNEY,WV,26757-1807",1.0,0.0,0.0,39.34067915,-78.75608939,0,1
384,"700 W PIKE ST STE 100,CLARKSBURG,WV,26301-2696",1.0,0.0,0.0,39.28204645,-80.34697113,0,1
385,"7000 COOMBS FARM RD STE 102,MORGANTOWN,WV,26508-0803",1.0,1.0,0.0,39.65829113,-79.89373587,0,1
386,"701 RITTER DR,GLEN MORGAN,WV,25813-7709",1.0,0.0,0.0,37.75023741,-81.14144727,0,1
387,"7010 COAL RIVER RD,COMFORT,WV,25049-5000",1.0,0.0,0.0,38.13383913,-81.61700989,0,1
388,"702 PROFESSIONAL PARK DR STE 100,SUMMERSVILLE,WV,26651-2033",1.0,0.0,0.0,38.30157871,-80.83051905,0,1
389,"707 WASHINGTON ST,RAVENSWOOD,WV,26164-1729",0.5,0.0,0.0,38.95618157,-81.76765965,0,1
390,"71 WAYNE ST,FORT GAY,WV,25514-8518",0.4075163398692809,0.0,0.0,38.11894292,-82.59839648,0,1
391,"711 N PIKE ST,GRAFTON,WV,26354",0.5,0.0,0.0,39.34577994,-80.01834276,0,1
392,"711 N PIKE ST,GRAFTON,WV,26354-1221",0.5,0.0,0.0,39.34577994,-80.01834276,0,1
393,"715 CENTRAL AVE,BARBOURSVILLE,WV,25504-1303",1.0,0.0,0.0,38.40790629,-82.29544338,0,1
394,"715 ELK ST,GASSAWAY,WV,26624-1113",1.0,0.0,0.0,38.67480332,-80.77304790000002,0,1
395,"72 W MAIN ST,GRAFTON,WV,26354-1351",1.0,0.0,0.0,39.34115481,-80.02087519,0,1
396,"720 E PIKE ST,CLARKSBURG,WV,26301-2240",1.5,0.0,0.0,39.27873876,-80.32027766,0,1
397,"723 9TH AVE,HUNTINGTON,WV,25701-2718",0.2820261437908497,0.0,0.0,38.41309786,-82.44488332,0,1
398,"729 MAIN ST,MOUNT HOPE,WV,25880-1318",0.1,0.0,0.0,37.89234676,-81.16917969,0,1
399,"7400 LYNN AVE,HAMLIN,WV,25523-1138",0.06666666666666668,0.0,0.0,38.27906193,-82.11355153,0,1
400,"75 SPYROCK LOOP RD,LOOKOUT,WV,25868-1100",0.6666666666666666,0.0,0.0,38.06593672,-80.97592917,0,1
401,"7619 ROUTE 20 SOUTH RD,FRENCH CREEK,WV,26218-2005",0.04651162790697674,0.0,0.0,38.89081468,-80.29307949,0,1
402,"78 JERRY TOTH DR,SHINNSTON,WV,26431-8502",0.04651162790697674,0.0,0.0,39.38043174,-80.30959440000002,0,1
403,"8 WYOMING ST STE 301,WELCH,WV,24801-2429",1.25,0.0,0.0,37.43450967,-81.58556546,0,1
404,"80 MCELDOWNY AVE,NEW MARTINSVILLE,WV,26155-1407",0.0,0.0,1.0,39.64828739,-80.86341217,0,1
405,"800 PENNSYLVANIA AVE,CHARLESTON,WV,25302-3351",0.125,0.0,0.0,38.35959754,-81.63851124,0,1
406,"803 3RD ST,MOUNDSVILLE,WV,26041-1603",1.0,0.0,0.0,39.92191527,-80.74382918,0,1
407,"809 MINERAL RD,GLENVILLE,WV,26351-1385",2.5,0.0,0.0,38.94166951,-80.82637871,0,1
408,"81 LINCOLN PANTHER WAY,HAMLIN,WV,25523-1169",0.06666666666666668,0.0,0.0,38.27517868,-82.11629881,0,1
409,"8106 SYCAMORE AVE,HAMLIN,WV,25523-1530",0.5,0.0,0.0,38.27770163,-82.10246353,0,1
410,"818 OAKWOOD RD,CHARLESTON,WV,25314",1.0,0.0,0.0,38.34375637,-81.65902221,0,1
411,"828 9TH AVE,HUNTINGTON,WV,25701-2812",0.0,0.0,1.0,38.41358925,-82.44274691,0,1
412,"830 OAKWOOD RD,CHARLESTON,WV,25314-2078",0.8333333333333333,0.0,0.0,38.34332679,-81.66036829,0,1
413,"832 BROAD ST,SUMMERSVILLE,WV,26651-1758",1.5,0.0,0.0,38.27558489,-80.85076248,0,1
414,"84 STONE MOUNTAIN LN,ELKINS,WV,26241-9000",1.0,0.0,0.0,38.89630439,-79.84404609999999,0,1
415,"850 INDEPENDENCE RD,SLAB FORK,WV,25920",0.24285714285714285,0.0,0.0,37.69829086,-81.23126500000002,0,1
416,"8591 HOLLY MEADOWS RD,PARSONS,WV,26287-8604",1.0,0.0,0.0,39.16436609,-79.69671519,0,1
417,"86 E MAIN ST STE A,BUCKHANNON,WV,26201-2864",1.0,0.0,0.0,38.99390496,-80.22564016,0,1
418,"861 COOK PKWY,OCEANA,WV,24870",1.0,0.0,0.0,37.69194077,-81.62513971,0,1
419,"867 OAKWOOD RD,CHARLESTON,WV,25314-2057",0.5,0.0,2.0,38.34299229999999,-81.66321561,0,1
420,"869 OAKWOOD RD,CHARLESTON,WV,25314-2057",1.0,0.0,1.0,38.34293603,-81.66343884,0,1
421,"871 BROAD ST,SUMMERSVILLE,WV,26651-1756",0.5,0.0,0.0,38.27480789,-80.84917099,0,1
422,"8791 PETERSBURG PIKE,UPPER TRACT,WV,26866-8016",1.0,0.0,0.0,39.007257,-79.03272049,0,1
423,"900 INDEPENDENCE RD,SLAB FORK,WV,25920",0.24285714285714285,0.0,0.0,37.69841796,-81.22443255,0,1
424,"902 1ST ST,MOUNDSVILLE,WV,26041-1406",1.0,0.0,0.0,39.92532386,-80.74262813,0,1
425,"904 GRAND CENTRAL AVE STE B,VIENNA,WV,26105-2100",1.0,0.0,0.0,39.30812363,-81.55234086,0,1
426,"907 GASTON AVE,FAIRMONT,WV,26554-3636",0.0,0.0,1.0,39.47338103,-80.15176728,0,1
427,"908 SCARBRO RD,SCARBRO,WV,25917-8837",0.43333333333333335,0.0,0.0,37.94057526,-81.16074821,0,1
428,"911 HAL GREER BLVD,HUNTINGTON,WV,25701-3701",2.0,0.0,0.0,38.4153999,-82.42979412,0,1
429,"911 MARYLAND AVE,MARTINSBURG,WV,25401-1727",1.0,0.0,0.0,39.44890265,-77.97704632,0,1
430,"914 JOHNSTOWN RD,BECKLEY,WV,25801-4938",1.0,0.0,0.0,37.78026619,-81.16991736,0,1
431,"925 HARRISON AVE,ELKINS,WV,26241-3608",1.0,0.0,0.0,38.92830313,-79.85870717,0,1
432,"926 5TH AVE,MARLINTON,WV,24954-1264",0.04651162790697674,0.0,0.0,38.2201607,-80.09369764,0,1
433,"930 2ND ST,HUNTINGTON,WV,25701",0.05882352941176471,0.0,0.0,38.41119000000001,-82.45373999,0,1
434,"930 2ND ST,HUNTINGTON,WV,25701-3146",0.4908496732026144,0.0,0.0,38.41122083,-82.45371224,0,1
435,"930 W MAIN ST,BRIDGEPORT,WV,26330-1673",2.375,0.0,0.16666666666666666,39.28175343,-80.26950275,0,1
436,"97 GREAT TEAYS BLVD STE 6,SCOTT DEPOT,WV,25560-9816",0.20192307692307693,0.0,0.0,38.45166206,-81.93641669,0,1
437,"99 TAVERN RD,MARTINSBURG,WV,25401-2890",0.5,0.0,0.0,39.4724486,-77.96802707,0,1
438,"CHESTNUT ST & LYNDON ST,LUMBERPORT,WV,26386",0.04651162790697674,0.0,0.0,39.37678199,-80.34956099,0,1
439,"HC 32 BOX 78,YUKON,WV,24892-7602",1.0,0.0,0.0,37.307256,-81.69431299,0,1
440,"HC 61 BOX 14,FRAMETOWN,WV,26623-9401",0.04651162790697674,0.0,0.0,38.63778,-80.85722299,0,1
441,"LARRY JOE HARLESS DR,GILBERT,WV,25621",0.06666666666666668,0.0,0.0,37.61205842,-81.86510764,0,1
442,"MAIN ST,FARMINGTON,WV,26571",1.0,0.0,0.0,39.51466711,-80.24975329,0,1
443,"MAIN ST,GILBERT,WV,25621",1.0,0.0,0.0,37.58872087,-81.83707525,0,1
444,"MATE ST,MATEWAN,WV,25678",1.0,0.0,0.0,37.62319244,-82.16489373,0,1
445,"MEDICAL CENTER DR,MORGANTOWN,WV,26505",0.5,0.0,0.0,39.65223787,-79.9604968,0,1
446,"MINGO ST,KERMIT,WV,25674",1.0,0.0,0.0,37.84189055,-82.40881929,0,1
447,"PO BOX 1079,COWEN,WV,26206-1079",1.0,0.0,0.0,38.419935,-80.54111149,0,1
448,"PO BOX 373,HARRISVILLE,WV,26362-0373",0.5,0.0,0.0,39.186177,-81.04828399,0,1
449,"PO BOX 408,WEST HAMLIN,WV,25571-0408",0.75,0.0,0.0,38.288868,-82.14784099,0,1
450,"PO BOX 421,BELINGTON,WV,26250-0421",1.0,0.0,0.0,39.025545,-79.95600349,0,1
451,"PO BOX 447,FRANKLIN,WV,26807-0447",1.0,0.0,0.0,38.645007,-79.35521299,0,1
452,"PO BOX 486,KINGWOOD,WV,26537-0486",0.5,0.0,0.0,39.477219,-79.70720299,0,1
453,"PO BOX 566,POCA,WV,25159-0566",4.5,0.0,0.0,38.478435,-81.79143199,0,1
454,"PO BOX 6430,CHARLESTON,WV,25362-0430",0.3333333333333333,0.0,0.0,38.360436,-81.64560049,0,1
455,"PO BOX 72,BLACKSVILLE,WV,26521-0072",2.0,0.0,0.0,39.712146,-80.23770349,0,1
456,"ROBERT C BYRD DR,SOPHIA,WV,25921",1.1,0.0,0.0,37.70977626,-81.25050379,0,1
457,"RR 1 BOX 10A,SALEM,WV,26426-9703",0.04651162790697674,0.0,0.0,39.282441,-80.55814399,0,1
458,"RR 1 BOX 58,LOST CREEK,WV,26385-9707",0.04651162790697674,0.0,0.0,39.16032,-80.35179199,0,1
459,"RR 2 BOX 171,LEWISBURG,WV,24901-9456",2.0,0.0,0.0,37.808385,-80.46182149,0,1
460,"RR 2 BOX 58,POCA,WV,25159-9626",0.4908496732026144,0.0,0.0,38.465664,-81.81195199,0,1
461,"RR 3 BOX 3045,KEYSER,WV,26726-9401",0.5,0.0,0.0,39.419898,-78.99565399,0,1
462,"RR 6 BOX 303,BUCKHANNON,WV,26201-8830",0.04651162790697674,0.0,0.0,38.985945,-80.21525299,0,1
463,"RT. 42205. INTERSECTION,ROCK CAVE,WV,26234",0.04651162790697674,0.0,0.0,38.8371139,-80.34257549,0,1
464,"S BRANCH ST,FRANKLIN,WV,26807",2.0,0.0,0.0,38.64260827,-79.33014997,0,1
465,"U S RT 52 MAIN STREET U S RT 52 MAIN STREET,GARY,WV,24836",1.3333333333333333,0.0,0.0,37.364545,-81.55127281,0,1
466,"WILLIAM AVE,DAVIS,WV,26260",1.0,0.0,0.0,39.12798832,-79.46796747,0,1
